{
  "resultList": [
    {
      "ROUTE_NAME": "70",
      "ROUTE_ORD": 1,
      "STOP_ID": 312100570,
      "LNG": 127.2526613,
      "BRT_SUBID": "0",
      "ROUTE_ID": 305001717,
      "STOP_NAME": "민목리",
      "SERVICE_ID": 30570,
      "NODE_ID": 312100570,
      "STOP_ORD": 1,
      "LAT": 35.8122872
    },
    {
      "ROUTE_NAME": "70",
      "ROUTE_ORD": 2,
      "STOP_ID": 312100510,
      "LNG": 127.24494863,
      "BRT_SUBID": "0",
      "ROUTE_ID": 305001717,
      "STOP_NAME": "계월리",
      "SERVICE_ID": 30510,
      "NODE_ID": 312100510,
      "STOP_ORD": 2,
      "LAT": 35.8058649
    },
    {
      "ROUTE_NAME": "70",
      "ROUTE_ORD": 3,
      "STOP_ID": 312100437,
      "LNG": 127.2426376,
      "BRT_SUBID": "0",
      "ROUTE_ID": 305001717,
      "STOP_NAME": "부흥마을",
      "SERVICE_ID": 30437,
      "NODE_ID": 312100437,
      "STOP_ORD": 3,
      "LAT": 35.79973063
    },
    {
      "ROUTE_NAME": "70",
      "ROUTE_ORD": 4,
      "STOP_ID": 312100404,
      "LNG": 127.23790959,
      "BRT_SUBID": "0",
      "ROUTE_ID": 305001717,
      "STOP_NAME": "의암마을",
      "SERVICE_ID": 30404,
      "NODE_ID": 312100404,
      "STOP_ORD": 4,
      "LAT": 35.79795305
    },
    {
      "ROUTE_NAME": "70",
      "ROUTE_ORD": 5,
      "STOP_ID": 305032503,
      "LNG": 127.23540931,
      "BRT_SUBID": "0",
      "ROUTE_ID": 305001717,
      "STOP_NAME": "원의암마을",
      "SERVICE_ID": 36437,
      "NODE_ID": 305032503,
      "STOP_ORD": 5,
      "LAT": 35.79664242
    },
    {
      "ROUTE_NAME": "70",
      "ROUTE_ORD": 6,
      "STOP_ID": 312100347,
      "LNG": 127.229514,
      "BRT_SUBID": "0",
      "ROUTE_ID": 305001717,
      "STOP_NAME": "모정마을",
      "SERVICE_ID": 30347,
      "NODE_ID": 312100347,
      "STOP_ORD": 6,
      "LAT": 35.793247
    },
    {
      "ROUTE_NAME": "70",
      "ROUTE_ORD": 7,
      "STOP_ID": 305032471,
      "LNG": 127.2287491,
      "BRT_SUBID": "0",
      "ROUTE_ID": 305001717,
      "STOP_NAME": "묘동마을입구",
      "SERVICE_ID": 36405,
      "NODE_ID": 305032471,
      "STOP_ORD": 7,
      "LAT": 35.7892895
    },
    {
      "ROUTE_NAME": "70",
      "ROUTE_ORD": 8,
      "STOP_ID": 312100305,
      "LNG": 127.2271997,
      "BRT_SUBID": "0",
      "ROUTE_ID": 305001717,
      "STOP_NAME": "대판마을",
      "SERVICE_ID": 30305,
      "NODE_ID": 312100305,
      "STOP_ORD": 8,
      "LAT": 35.78616674
    },
    {
      "ROUTE_NAME": "70",
      "ROUTE_ORD": 9,
      "STOP_ID": 305032523,
      "LNG": 127.222951,
      "BRT_SUBID": "0",
      "ROUTE_ID": 305001717,
      "STOP_NAME": "마치교",
      "SERVICE_ID": 36457,
      "NODE_ID": 305032523,
      "STOP_ORD": 9,
      "LAT": 35.780188
    },
    {
      "ROUTE_NAME": "70",
      "ROUTE_ORD": 10,
      "STOP_ID": 312100267,
      "LNG": 127.21910092,
      "BRT_SUBID": "0",
      "ROUTE_ID": 305001717,
      "STOP_NAME": "수원지",
      "SERVICE_ID": 30267,
      "NODE_ID": 312100267,
      "STOP_ORD": 10,
      "LAT": 35.77841237
    },
    {
      "ROUTE_NAME": "70",
      "ROUTE_ORD": 11,
      "STOP_ID": 312100253,
      "LNG": 127.21652829,
      "BRT_SUBID": "0",
      "ROUTE_ID": 305001717,
      "STOP_NAME": "수월마을",
      "SERVICE_ID": 30253,
      "NODE_ID": 312100253,
      "STOP_ORD": 11,
      "LAT": 35.7748418
    },
    {
      "ROUTE_NAME": "70",
      "ROUTE_ORD": 12,
      "STOP_ID": 312100219,
      "LNG": 127.21414966,
      "BRT_SUBID": "0",
      "ROUTE_ID": 305001717,
      "STOP_NAME": "산바위입구",
      "SERVICE_ID": 30219,
      "NODE_ID": 312100219,
      "STOP_ORD": 12,
      "LAT": 35.76907973
    },
    {
      "ROUTE_NAME": "70",
      "ROUTE_ORD": 13,
      "STOP_ID": 312100213,
      "LNG": 127.2127541,
      "BRT_SUBID": "0",
      "ROUTE_ID": 305001717,
      "STOP_NAME": "상원신마을",
      "SERVICE_ID": 30213,
      "NODE_ID": 312100213,
      "STOP_ORD": 13,
      "LAT": 35.7678054
    },
    {
      "ROUTE_NAME": "70",
      "ROUTE_ORD": 14,
      "STOP_ID": 312100217,
      "LNG": 127.2099731,
      "BRT_SUBID": "0",
      "ROUTE_ID": 305001717,
      "STOP_NAME": "상관농협",
      "SERVICE_ID": 30217,
      "NODE_ID": 312100217,
      "STOP_ORD": 14,
      "LAT": 35.7686679
    },
    {
      "ROUTE_NAME": "70",
      "ROUTE_ORD": 15,
      "STOP_ID": 312100227,
      "LNG": 127.20863961,
      "BRT_SUBID": "0",
      "ROUTE_ID": 305001717,
      "STOP_NAME": "상관주민센터",
      "SERVICE_ID": 30227,
      "NODE_ID": 312100227,
      "STOP_ORD": 15,
      "LAT": 35.77032849
    },
    {
      "ROUTE_NAME": "70",
      "ROUTE_ORD": 16,
      "STOP_ID": 312100245,
      "LNG": 127.20526319,
      "BRT_SUBID": "0",
      "ROUTE_ID": 305001717,
      "STOP_NAME": "상관농협로컬푸드",
      "SERVICE_ID": 30245,
      "NODE_ID": 312100245,
      "STOP_ORD": 16,
      "LAT": 35.77409709
    }
  ]
}