{
  "resultList": [
    {
      "ROUTE_NAME": "6",
      "ROUTE_ORD": 1,
      "STOP_ID": 306101190,
      "LNG": 127.155477,
      "BRT_SUBID": "C",
      "ROUTE_ID": 305001409,
      "STOP_NAME": "이편한세상 우아",
      "SERVICE_ID": 31189,
      "NODE_ID": 306101190,
      "STOP_ORD": 1,
      "LAT": 35.854368
    },
    {
      "ROUTE_NAME": "6",
      "ROUTE_ORD": 2,
      "STOP_ID": 306101193,
      "LNG": 127.15760015,
      "BRT_SUBID": "C",
      "ROUTE_ID": 305001409,
      "STOP_NAME": "기린중",
      "SERVICE_ID": 31192,
      "NODE_ID": 306101193,
      "STOP_ORD": 2,
      "LAT": 35.85455441
    },
    {
      "ROUTE_NAME": "6",
      "ROUTE_ORD": 3,
      "STOP_ID": 306101103,
      "LNG": 127.16063486,
      "BRT_SUBID": "C",
      "ROUTE_ID": 305001409,
      "STOP_NAME": "동부대로전주역",
      "SERVICE_ID": 31102,
      "NODE_ID": 306101103,
      "STOP_ORD": 3,
      "LAT": 35.84881087
    },
    {
      "ROUTE_NAME": "6",
      "ROUTE_ORD": 4,
      "STOP_ID": 306101062,
      "LNG": 127.164656,
      "BRT_SUBID": "C",
      "ROUTE_ID": 305001409,
      "STOP_NAME": "우아럭키아파트",
      "SERVICE_ID": 31061,
      "NODE_ID": 306101062,
      "STOP_ORD": 4,
      "LAT": 35.844237
    },
    {
      "ROUTE_NAME": "6",
      "ROUTE_ORD": 5,
      "STOP_ID": 306101041,
      "LNG": 127.166802,
      "BRT_SUBID": "C",
      "ROUTE_ID": 305001409,
      "STOP_NAME": "산정우정신세계아파트",
      "SERVICE_ID": 31040,
      "NODE_ID": 306101041,
      "STOP_ORD": 5,
      "LAT": 35.842041
    },
    {
      "ROUTE_NAME": "6",
      "ROUTE_ORD": 6,
      "STOP_ID": 306101015,
      "LNG": 127.16745218,
      "BRT_SUBID": "C",
      "ROUTE_ID": 305001409,
      "STOP_NAME": "안덕원로.고려병원",
      "SERVICE_ID": 31014,
      "NODE_ID": 306101015,
      "STOP_ORD": 6,
      "LAT": 35.83951413
    },
    {
      "ROUTE_NAME": "6",
      "ROUTE_ORD": 7,
      "STOP_ID": 306101006,
      "LNG": 127.16456874,
      "BRT_SUBID": "C",
      "ROUTE_ID": 305001409,
      "STOP_NAME": "인후시립도서관",
      "SERVICE_ID": 31005,
      "NODE_ID": 306101006,
      "STOP_ORD": 7,
      "LAT": 35.83872307
    },
    {
      "ROUTE_NAME": "6",
      "ROUTE_ORD": 8,
      "STOP_ID": 306100997,
      "LNG": 127.16224477,
      "BRT_SUBID": "C",
      "ROUTE_ID": 305001409,
      "STOP_NAME": "송정써미트.삼호아파트",
      "SERVICE_ID": 30996,
      "NODE_ID": 306100997,
      "STOP_ORD": 8,
      "LAT": 35.83820735
    },
    {
      "ROUTE_NAME": "6",
      "ROUTE_ORD": 9,
      "STOP_ID": 306100979,
      "LNG": 127.15819068,
      "BRT_SUBID": "C",
      "ROUTE_ID": 305001409,
      "STOP_NAME": "유일여고.쌍용아파트",
      "SERVICE_ID": 30978,
      "NODE_ID": 306100979,
      "STOP_ORD": 9,
      "LAT": 35.83723305
    },
    {
      "ROUTE_NAME": "6",
      "ROUTE_ORD": 10,
      "STOP_ID": 306100972,
      "LNG": 127.15536026,
      "BRT_SUBID": "C",
      "ROUTE_ID": 305001409,
      "STOP_NAME": "안골",
      "SERVICE_ID": 30972,
      "NODE_ID": 306100972,
      "STOP_ORD": 10,
      "LAT": 35.83675952
    },
    {
      "ROUTE_NAME": "6",
      "ROUTE_ORD": 11,
      "STOP_ID": 306100965,
      "LNG": 127.15116098,
      "BRT_SUBID": "C",
      "ROUTE_ID": 305001409,
      "STOP_NAME": "인후휴먼시아아파트",
      "SERVICE_ID": 30965,
      "NODE_ID": 306100965,
      "STOP_ORD": 11,
      "LAT": 35.83641443
    },
    {
      "ROUTE_NAME": "6",
      "ROUTE_ORD": 12,
      "STOP_ID": 306100943,
      "LNG": 127.14759274,
      "BRT_SUBID": "C",
      "ROUTE_ID": 305001409,
      "STOP_NAME": "전주생명과학고등학교",
      "SERVICE_ID": 30943,
      "NODE_ID": 306100943,
      "STOP_ORD": 12,
      "LAT": 35.83506423
    },
    {
      "ROUTE_NAME": "6",
      "ROUTE_ORD": 13,
      "STOP_ID": 306100898,
      "LNG": 127.14490334,
      "BRT_SUBID": "C",
      "ROUTE_ID": 305001409,
      "STOP_NAME": "모래내시장",
      "SERVICE_ID": 30898,
      "NODE_ID": 306100898,
      "STOP_ORD": 13,
      "LAT": 35.83301705
    },
    {
      "ROUTE_NAME": "6",
      "ROUTE_ORD": 14,
      "STOP_ID": 306100879,
      "LNG": 127.14373151,
      "BRT_SUBID": "C",
      "ROUTE_ID": 305001409,
      "STOP_NAME": "모래내",
      "SERVICE_ID": 30879,
      "NODE_ID": 306100879,
      "STOP_ORD": 14,
      "LAT": 35.83203886
    },
    {
      "ROUTE_NAME": "6",
      "ROUTE_ORD": 15,
      "STOP_ID": 306100817,
      "LNG": 127.1419199,
      "BRT_SUBID": "C",
      "ROUTE_ID": 305001409,
      "STOP_NAME": "흥국생명",
      "SERVICE_ID": 30817,
      "NODE_ID": 306100817,
      "STOP_ORD": 15,
      "LAT": 35.82811986
    },
    {
      "ROUTE_NAME": "6",
      "ROUTE_ORD": 16,
      "STOP_ID": 306100743,
      "LNG": 127.14462905,
      "BRT_SUBID": "C",
      "ROUTE_ID": 305001409,
      "STOP_NAME": "중앙시장.중앙성당.방송대",
      "SERVICE_ID": 30743,
      "NODE_ID": 306100743,
      "STOP_ORD": 16,
      "LAT": 35.82397975
    },
    {
      "ROUTE_NAME": "6",
      "ROUTE_ORD": 17,
      "STOP_ID": 305100726,
      "LNG": 127.14318146,
      "BRT_SUBID": "C",
      "ROUTE_ID": 305001409,
      "STOP_NAME": "공구거리.상진신협",
      "SERVICE_ID": 30726,
      "NODE_ID": 305100726,
      "STOP_ORD": 17,
      "LAT": 35.82255149
    },
    {
      "ROUTE_NAME": "6",
      "ROUTE_ORD": 18,
      "STOP_ID": 305100716,
      "LNG": 127.140205,
      "BRT_SUBID": "C",
      "ROUTE_ID": 305001409,
      "STOP_NAME": "전주초교",
      "SERVICE_ID": 30716,
      "NODE_ID": 305100716,
      "STOP_ORD": 18,
      "LAT": 35.821687
    },
    {
      "ROUTE_NAME": "6",
      "ROUTE_ORD": 19,
      "STOP_ID": 305100725,
      "LNG": 127.13762782,
      "BRT_SUBID": "C",
      "ROUTE_ID": 305001409,
      "STOP_NAME": "태진로.전주청소년센터",
      "SERVICE_ID": 30725,
      "NODE_ID": 305100725,
      "STOP_ORD": 19,
      "LAT": 35.82253727
    },
    {
      "ROUTE_NAME": "6",
      "ROUTE_ORD": 20,
      "STOP_ID": 305032726,
      "LNG": 127.137276,
      "BRT_SUBID": "C",
      "ROUTE_ID": 305001409,
      "STOP_NAME": "태평SK뷰",
      "SERVICE_ID": 36660,
      "NODE_ID": 305032726,
      "STOP_ORD": 20,
      "LAT": 35.824275
    },
    {
      "ROUTE_NAME": "6",
      "ROUTE_ORD": 21,
      "STOP_ID": 305100793,
      "LNG": 127.13684468,
      "BRT_SUBID": "C",
      "ROUTE_ID": 305001409,
      "STOP_NAME": "동양아파트.중산신협본점",
      "SERVICE_ID": 30793,
      "NODE_ID": 305100793,
      "STOP_ORD": 21,
      "LAT": 35.82664947
    },
    {
      "ROUTE_NAME": "6",
      "ROUTE_ORD": 22,
      "STOP_ID": 306100812,
      "LNG": 127.13292676,
      "BRT_SUBID": "C",
      "ROUTE_ID": 305001409,
      "STOP_NAME": "동국아파트.덕진구청입구",
      "SERVICE_ID": 30812,
      "NODE_ID": 306100812,
      "STOP_ORD": 22,
      "LAT": 35.82763312
    },
    {
      "ROUTE_NAME": "6",
      "ROUTE_ORD": 23,
      "STOP_ID": 306100796,
      "LNG": 127.12875355,
      "BRT_SUBID": "C",
      "ROUTE_ID": 305001409,
      "STOP_NAME": "진북터널",
      "SERVICE_ID": 30796,
      "NODE_ID": 306100796,
      "STOP_ORD": 23,
      "LAT": 35.82664654
    },
    {
      "ROUTE_NAME": "6",
      "ROUTE_ORD": 24,
      "STOP_ID": 305100777,
      "LNG": 127.12094987,
      "BRT_SUBID": "C",
      "ROUTE_ID": 305001409,
      "STOP_NAME": "유연로중산공원",
      "SERVICE_ID": 30777,
      "NODE_ID": 305100777,
      "STOP_ORD": 24,
      "LAT": 35.82543987
    },
    {
      "ROUTE_NAME": "6",
      "ROUTE_ORD": 25,
      "STOP_ID": 305100738,
      "LNG": 127.115829,
      "BRT_SUBID": "C",
      "ROUTE_ID": 305001409,
      "STOP_NAME": "하늘채아파트",
      "SERVICE_ID": 30738,
      "NODE_ID": 305100738,
      "STOP_ORD": 25,
      "LAT": 35.823631
    },
    {
      "ROUTE_NAME": "6",
      "ROUTE_ORD": 26,
      "STOP_ID": 305100709,
      "LNG": 127.115979,
      "BRT_SUBID": "C",
      "ROUTE_ID": 305001409,
      "STOP_NAME": "중화산2동주민센터",
      "SERVICE_ID": 30709,
      "NODE_ID": 305100709,
      "STOP_ORD": 26,
      "LAT": 35.820277
    },
    {
      "ROUTE_NAME": "6",
      "ROUTE_ORD": 27,
      "STOP_ID": 305100664,
      "LNG": 127.11485053,
      "BRT_SUBID": "C",
      "ROUTE_ID": 305001409,
      "STOP_NAME": "효자다리",
      "SERVICE_ID": 30664,
      "NODE_ID": 305100664,
      "STOP_ORD": 27,
      "LAT": 35.81915827
    },
    {
      "ROUTE_NAME": "6",
      "ROUTE_ORD": 28,
      "STOP_ID": 305100667,
      "LNG": 127.10768278,
      "BRT_SUBID": "C",
      "ROUTE_ID": 305001409,
      "STOP_NAME": "효자로전북도청",
      "SERVICE_ID": 30667,
      "NODE_ID": 305100667,
      "STOP_ORD": 28,
      "LAT": 35.81918961
    },
    {
      "ROUTE_NAME": "6",
      "ROUTE_ORD": 29,
      "STOP_ID": 305100665,
      "LNG": 127.10407321,
      "BRT_SUBID": "C",
      "ROUTE_ID": 305001409,
      "STOP_NAME": "유로병원",
      "SERVICE_ID": 30665,
      "NODE_ID": 305100665,
      "STOP_ORD": 29,
      "LAT": 35.81920232
    },
    {
      "ROUTE_NAME": "6",
      "ROUTE_ORD": 30,
      "STOP_ID": 305100631,
      "LNG": 127.101774,
      "BRT_SUBID": "C",
      "ROUTE_ID": 305001409,
      "STOP_NAME": "전일고 롯데마트",
      "SERVICE_ID": 30631,
      "NODE_ID": 305100631,
      "STOP_ORD": 30,
      "LAT": 35.816119
    },
    {
      "ROUTE_NAME": "6",
      "ROUTE_ORD": 31,
      "STOP_ID": 305100591,
      "LNG": 127.09796491,
      "BRT_SUBID": "C",
      "ROUTE_ID": 305001409,
      "STOP_NAME": "호남제일고",
      "SERVICE_ID": 30591,
      "NODE_ID": 305100591,
      "STOP_ORD": 31,
      "LAT": 35.81379234
    },
    {
      "ROUTE_NAME": "6",
      "ROUTE_ORD": 32,
      "STOP_ID": 305100630,
      "LNG": 127.094854,
      "BRT_SUBID": "C",
      "ROUTE_ID": 305001409,
      "STOP_NAME": "영생고 전주대사대부고",
      "SERVICE_ID": 30630,
      "NODE_ID": 305100630,
      "STOP_ORD": 32,
      "LAT": 35.816115
    },
    {
      "ROUTE_NAME": "6",
      "ROUTE_ORD": 33,
      "STOP_ID": 305100651,
      "LNG": 127.092247,
      "BRT_SUBID": "C",
      "ROUTE_ID": 305001409,
      "STOP_NAME": "전주대학교",
      "SERVICE_ID": 30651,
      "NODE_ID": 305100651,
      "STOP_ORD": 33,
      "LAT": 35.81862
    }
  ]
}