{
  "resultList": [
    {
      "ROUTE_NAME": "102",
      "ROUTE_ORD": 1,
      "STOP_ID": 306032303,
      "LNG": 127.1093354,
      "BRT_SUBID": "0",
      "ROUTE_ID": 305001331,
      "STOP_NAME": "송천동종점",
      "SERVICE_ID": 36202,
      "NODE_ID": 306032303,
      "STOP_ORD": 1,
      "LAT": 35.8699041
    },
    {
      "ROUTE_NAME": "102",
      "ROUTE_ORD": 2,
      "STOP_ID": 305032314,
      "LNG": 127.112454,
      "BRT_SUBID": "0",
      "ROUTE_ID": 305001331,
      "STOP_NAME": "메가월드",
      "SERVICE_ID": 36203,
      "NODE_ID": 305032314,
      "STOP_ORD": 2,
      "LAT": 35.8698105
    },
    {
      "ROUTE_NAME": "102",
      "ROUTE_ORD": 3,
      "STOP_ID": 305032443,
      "LNG": 127.123253,
      "BRT_SUBID": "0",
      "ROUTE_ID": 305001331,
      "STOP_NAME": "이마트에코시티점",
      "SERVICE_ID": 36377,
      "NODE_ID": 305032443,
      "STOP_ORD": 3,
      "LAT": 35.872779
    },
    {
      "ROUTE_NAME": "102",
      "ROUTE_ORD": 4,
      "STOP_ID": 306101419,
      "LNG": 127.127346,
      "BRT_SUBID": "0",
      "ROUTE_ID": 305001331,
      "STOP_NAME": "송천정보학교",
      "SERVICE_ID": 31418,
      "NODE_ID": 306101419,
      "STOP_ORD": 4,
      "LAT": 35.876583
    },
    {
      "ROUTE_NAME": "102",
      "ROUTE_ORD": 5,
      "STOP_ID": 305032406,
      "LNG": 127.130533,
      "BRT_SUBID": "0",
      "ROUTE_ID": 305001331,
      "STOP_NAME": "에코스위첸",
      "SERVICE_ID": 36340,
      "NODE_ID": 305032406,
      "STOP_ORD": 5,
      "LAT": 35.879056
    },
    {
      "ROUTE_NAME": "102",
      "ROUTE_ORD": 6,
      "STOP_ID": 305032529,
      "LNG": 127.132571,
      "BRT_SUBID": "0",
      "ROUTE_ID": 305001331,
      "STOP_NAME": "세병호입구",
      "SERVICE_ID": 36463,
      "NODE_ID": 305032529,
      "STOP_ORD": 6,
      "LAT": 35.878908
    },
    {
      "ROUTE_NAME": "102",
      "ROUTE_ORD": 7,
      "STOP_ID": 305032405,
      "LNG": 127.134905,
      "BRT_SUBID": "0",
      "ROUTE_ID": 305001331,
      "STOP_NAME": "자연초등학교",
      "SERVICE_ID": 36339,
      "NODE_ID": 305032405,
      "STOP_ORD": 7,
      "LAT": 35.876937
    },
    {
      "ROUTE_NAME": "102",
      "ROUTE_ORD": 8,
      "STOP_ID": 305032404,
      "LNG": 127.136044,
      "BRT_SUBID": "0",
      "ROUTE_ID": 305001331,
      "STOP_NAME": "에코자이2차",
      "SERVICE_ID": 36338,
      "NODE_ID": 305032404,
      "STOP_ORD": 8,
      "LAT": 35.8756041
    },
    {
      "ROUTE_NAME": "102",
      "ROUTE_ORD": 9,
      "STOP_ID": 305032403,
      "LNG": 127.1337863,
      "BRT_SUBID": "0",
      "ROUTE_ID": 305001331,
      "STOP_NAME": "에코데시앙5블럭",
      "SERVICE_ID": 36337,
      "NODE_ID": 305032403,
      "STOP_ORD": 9,
      "LAT": 35.8727121
    },
    {
      "ROUTE_NAME": "102",
      "ROUTE_ORD": 10,
      "STOP_ID": 305032402,
      "LNG": 127.130173,
      "BRT_SUBID": "0",
      "ROUTE_ID": 305001331,
      "STOP_NAME": "에코데시앙4블럭",
      "SERVICE_ID": 36336,
      "NODE_ID": 305032402,
      "STOP_ORD": 10,
      "LAT": 35.872901
    },
    {
      "ROUTE_NAME": "102",
      "ROUTE_ORD": 11,
      "STOP_ID": 305032429,
      "LNG": 127.127513,
      "BRT_SUBID": "0",
      "ROUTE_ID": 305001331,
      "STOP_NAME": "에코시티상가",
      "SERVICE_ID": 36363,
      "NODE_ID": 305032429,
      "STOP_ORD": 11,
      "LAT": 35.871358
    },
    {
      "ROUTE_NAME": "102",
      "ROUTE_ORD": 12,
      "STOP_ID": 306101364,
      "LNG": 127.116693,
      "BRT_SUBID": "0",
      "ROUTE_ID": 305001331,
      "STOP_NAME": "농수산시장 내",
      "SERVICE_ID": 31363,
      "NODE_ID": 306101364,
      "STOP_ORD": 12,
      "LAT": 35.867906
    },
    {
      "ROUTE_NAME": "102",
      "ROUTE_ORD": 13,
      "STOP_ID": 306101349,
      "LNG": 127.114429,
      "BRT_SUBID": "0",
      "ROUTE_ID": 305001331,
      "STOP_NAME": "송천롯데아파트",
      "SERVICE_ID": 31348,
      "NODE_ID": 306101349,
      "STOP_ORD": 13,
      "LAT": 35.866698
    },
    {
      "ROUTE_NAME": "102",
      "ROUTE_ORD": 14,
      "STOP_ID": 306101308,
      "LNG": 127.11436691,
      "BRT_SUBID": "0",
      "ROUTE_ID": 305001331,
      "STOP_NAME": "송천대명아파트",
      "SERVICE_ID": 31307,
      "NODE_ID": 306101308,
      "STOP_ORD": 14,
      "LAT": 35.86366623
    },
    {
      "ROUTE_NAME": "102",
      "ROUTE_ORD": 15,
      "STOP_ID": 306101249,
      "LNG": 127.11781497,
      "BRT_SUBID": "0",
      "ROUTE_ID": 305001331,
      "STOP_NAME": "송천2파출소",
      "SERVICE_ID": 31248,
      "NODE_ID": 306101249,
      "STOP_ORD": 15,
      "LAT": 35.85863312
    },
    {
      "ROUTE_NAME": "102",
      "ROUTE_ORD": 16,
      "STOP_ID": 306101211,
      "LNG": 127.11982418,
      "BRT_SUBID": "0",
      "ROUTE_ID": 305001331,
      "STOP_NAME": "송천삼거리 롯데마트",
      "SERVICE_ID": 31210,
      "NODE_ID": 306101211,
      "STOP_ORD": 16,
      "LAT": 35.85538448
    },
    {
      "ROUTE_NAME": "102",
      "ROUTE_ORD": 17,
      "STOP_ID": 306101163,
      "LNG": 127.119477,
      "BRT_SUBID": "0",
      "ROUTE_ID": 305001331,
      "STOP_NAME": "송천 센트럴파크",
      "SERVICE_ID": 31162,
      "NODE_ID": 306101163,
      "STOP_ORD": 17,
      "LAT": 35.853192
    },
    {
      "ROUTE_NAME": "102",
      "ROUTE_ORD": 18,
      "STOP_ID": 306101106,
      "LNG": 127.119015,
      "BRT_SUBID": "0",
      "ROUTE_ID": 305001331,
      "STOP_NAME": "도립국악원",
      "SERVICE_ID": 31105,
      "NODE_ID": 306101106,
      "STOP_ORD": 18,
      "LAT": 35.849157
    },
    {
      "ROUTE_NAME": "102",
      "ROUTE_ORD": 19,
      "STOP_ID": 306101095,
      "LNG": 127.11676511,
      "BRT_SUBID": "0",
      "ROUTE_ID": 305001331,
      "STOP_NAME": "기린대로.원대한방병원",
      "SERVICE_ID": 31094,
      "NODE_ID": 306101095,
      "STOP_ORD": 19,
      "LAT": 35.84824786
    },
    {
      "ROUTE_NAME": "102",
      "ROUTE_ORD": 20,
      "STOP_ID": 306032043,
      "LNG": 127.108898,
      "BRT_SUBID": "0",
      "ROUTE_ID": 305001331,
      "STOP_NAME": "하가더루벤스아파트",
      "SERVICE_ID": 32043,
      "NODE_ID": 306032043,
      "STOP_ORD": 20,
      "LAT": 35.845704
    },
    {
      "ROUTE_NAME": "102",
      "ROUTE_ORD": 21,
      "STOP_ID": 312132242,
      "LNG": 127.109075,
      "BRT_SUBID": "0",
      "ROUTE_ID": 305001331,
      "STOP_NAME": "하가부영아파트",
      "SERVICE_ID": 32242,
      "NODE_ID": 312132242,
      "STOP_ORD": 21,
      "LAT": 35.842789
    },
    {
      "ROUTE_NAME": "102",
      "ROUTE_ORD": 22,
      "STOP_ID": 306132110,
      "LNG": 127.109692,
      "BRT_SUBID": "0",
      "ROUTE_ID": 305001331,
      "STOP_NAME": "여울로이편한세상",
      "SERVICE_ID": 32110,
      "NODE_ID": 306132110,
      "STOP_ORD": 22,
      "LAT": 35.83877
    },
    {
      "ROUTE_NAME": "102",
      "ROUTE_ORD": 23,
      "STOP_ID": 305100962,
      "LNG": 127.11205578,
      "BRT_SUBID": "0",
      "ROUTE_ID": 305001331,
      "STOP_NAME": "여울초교",
      "SERVICE_ID": 30962,
      "NODE_ID": 305100962,
      "STOP_ORD": 23,
      "LAT": 35.83628984
    },
    {
      "ROUTE_NAME": "102",
      "ROUTE_ORD": 24,
      "STOP_ID": 305100949,
      "LNG": 127.11413318,
      "BRT_SUBID": "0",
      "ROUTE_ID": 305001331,
      "STOP_NAME": "서일초교",
      "SERVICE_ID": 30949,
      "NODE_ID": 305100949,
      "STOP_ORD": 24,
      "LAT": 35.83544123
    },
    {
      "ROUTE_NAME": "102",
      "ROUTE_ORD": 25,
      "STOP_ID": 305100932,
      "LNG": 127.115647,
      "BRT_SUBID": "0",
      "ROUTE_ID": 305001331,
      "STOP_NAME": "서신로중흥아파트",
      "SERVICE_ID": 30932,
      "NODE_ID": 305100932,
      "STOP_ORD": 25,
      "LAT": 35.834926
    },
    {
      "ROUTE_NAME": "102",
      "ROUTE_ORD": 26,
      "STOP_ID": 305100876,
      "LNG": 127.11761223,
      "BRT_SUBID": "0",
      "ROUTE_ID": 305001331,
      "STOP_NAME": "서신현대.동아아파트",
      "SERVICE_ID": 30876,
      "NODE_ID": 305100876,
      "STOP_ORD": 26,
      "LAT": 35.83213953
    },
    {
      "ROUTE_NAME": "102",
      "ROUTE_ORD": 27,
      "STOP_ID": 305100877,
      "LNG": 127.12083358,
      "BRT_SUBID": "0",
      "ROUTE_ID": 305001331,
      "STOP_NAME": "이마트",
      "SERVICE_ID": 30877,
      "NODE_ID": 305100877,
      "STOP_ORD": 27,
      "LAT": 35.83209104
    },
    {
      "ROUTE_NAME": "102",
      "ROUTE_ORD": 28,
      "STOP_ID": 306100936,
      "LNG": 127.124605,
      "BRT_SUBID": "0",
      "ROUTE_ID": 305001331,
      "STOP_NAME": "가리내로 백제교",
      "SERVICE_ID": 30936,
      "NODE_ID": 306100936,
      "STOP_ORD": 28,
      "LAT": 35.834991
    },
    {
      "ROUTE_NAME": "102",
      "ROUTE_ORD": 29,
      "STOP_ID": 306100918,
      "LNG": 127.13054921,
      "BRT_SUBID": "0",
      "ROUTE_ID": 305001331,
      "STOP_NAME": "고속버스터미널.불교회관",
      "SERVICE_ID": 30918,
      "NODE_ID": 306100918,
      "STOP_ORD": 29,
      "LAT": 35.83390745
    },
    {
      "ROUTE_NAME": "102",
      "ROUTE_ORD": 30,
      "STOP_ID": 306100922,
      "LNG": 127.13353119,
      "BRT_SUBID": "0",
      "ROUTE_ID": 305001331,
      "STOP_NAME": "시외버스터미널",
      "SERVICE_ID": 30922,
      "NODE_ID": 306100922,
      "STOP_ORD": 30,
      "LAT": 35.83411679
    },
    {
      "ROUTE_NAME": "102",
      "ROUTE_ORD": 31,
      "STOP_ID": 306100915,
      "LNG": 127.136648,
      "BRT_SUBID": "0",
      "ROUTE_ID": 305001331,
      "STOP_NAME": "금암광장.청담한방병원",
      "SERVICE_ID": 30915,
      "NODE_ID": 306100915,
      "STOP_ORD": 31,
      "LAT": 35.833708
    },
    {
      "ROUTE_NAME": "102",
      "ROUTE_ORD": 32,
      "STOP_ID": 306100851,
      "LNG": 127.139175,
      "BRT_SUBID": "0",
      "ROUTE_ID": 305001331,
      "STOP_NAME": "한국은행.전북청소년상담센터",
      "SERVICE_ID": 30851,
      "NODE_ID": 306100851,
      "STOP_ORD": 32,
      "LAT": 35.830433
    },
    {
      "ROUTE_NAME": "102",
      "ROUTE_ORD": 33,
      "STOP_ID": 306100743,
      "LNG": 127.14462905,
      "BRT_SUBID": "0",
      "ROUTE_ID": 305001331,
      "STOP_NAME": "중앙시장.중앙성당.방송대",
      "SERVICE_ID": 30743,
      "NODE_ID": 306100743,
      "STOP_ORD": 33,
      "LAT": 35.82397975
    },
    {
      "ROUTE_NAME": "102",
      "ROUTE_ORD": 34,
      "STOP_ID": 305100694,
      "LNG": 127.14596591,
      "BRT_SUBID": "0",
      "ROUTE_ID": 305001331,
      "STOP_NAME": "북문",
      "SERVICE_ID": 30694,
      "NODE_ID": 305100694,
      "STOP_ORD": 34,
      "LAT": 35.82067316
    },
    {
      "ROUTE_NAME": "102",
      "ROUTE_ORD": 35,
      "STOP_ID": 305100657,
      "LNG": 127.14790878,
      "BRT_SUBID": "0",
      "ROUTE_ID": 305001331,
      "STOP_NAME": "충경로KT전주지사",
      "SERVICE_ID": 30657,
      "NODE_ID": 305100657,
      "STOP_ORD": 35,
      "LAT": 35.81872473
    },
    {
      "ROUTE_NAME": "102",
      "ROUTE_ORD": 36,
      "STOP_ID": 305100677,
      "LNG": 127.15085875,
      "BRT_SUBID": "0",
      "ROUTE_ID": 305001331,
      "STOP_NAME": "동부시장",
      "SERVICE_ID": 30677,
      "NODE_ID": 305100677,
      "STOP_ORD": 36,
      "LAT": 35.81964957
    },
    {
      "ROUTE_NAME": "102",
      "ROUTE_ORD": 37,
      "STOP_ID": 305100747,
      "LNG": 127.152919,
      "BRT_SUBID": "0",
      "ROUTE_ID": 305001331,
      "STOP_NAME": "전주고등학교",
      "SERVICE_ID": 30747,
      "NODE_ID": 305100747,
      "STOP_ORD": 37,
      "LAT": 35.824151
    },
    {
      "ROUTE_NAME": "102",
      "ROUTE_ORD": 38,
      "STOP_ID": 305100814,
      "LNG": 127.154238,
      "BRT_SUBID": "0",
      "ROUTE_ID": 305001331,
      "STOP_NAME": "기자촌입구.한옥마을서해그랑블",
      "SERVICE_ID": 30814,
      "NODE_ID": 305100814,
      "STOP_ORD": 38,
      "LAT": 35.827711
    },
    {
      "ROUTE_NAME": "102",
      "ROUTE_ORD": 39,
      "STOP_ID": 305100831,
      "LNG": 127.15423527,
      "BRT_SUBID": "0",
      "ROUTE_ID": 305001331,
      "STOP_NAME": "서낭당",
      "SERVICE_ID": 30831,
      "NODE_ID": 305100831,
      "STOP_ORD": 39,
      "LAT": 35.82905338
    },
    {
      "ROUTE_NAME": "102",
      "ROUTE_ORD": 40,
      "STOP_ID": 306100844,
      "LNG": 127.15724898,
      "BRT_SUBID": "0",
      "ROUTE_ID": 305001331,
      "STOP_NAME": "화약골",
      "SERVICE_ID": 30844,
      "NODE_ID": 306100844,
      "STOP_ORD": 40,
      "LAT": 35.82982541
    },
    {
      "ROUTE_NAME": "102",
      "ROUTE_ORD": 41,
      "STOP_ID": 306100899,
      "LNG": 127.15827337,
      "BRT_SUBID": "0",
      "ROUTE_ID": 305001331,
      "STOP_NAME": "화평",
      "SERVICE_ID": 30899,
      "NODE_ID": 306100899,
      "STOP_ORD": 41,
      "LAT": 35.8330179
    },
    {
      "ROUTE_NAME": "102",
      "ROUTE_ORD": 42,
      "STOP_ID": 306100908,
      "LNG": 127.158825,
      "BRT_SUBID": "0",
      "ROUTE_ID": 305001331,
      "STOP_NAME": "기린초교",
      "SERVICE_ID": 30908,
      "NODE_ID": 306100908,
      "STOP_ORD": 42,
      "LAT": 35.833587
    },
    {
      "ROUTE_NAME": "102",
      "ROUTE_ORD": 43,
      "STOP_ID": 306100894,
      "LNG": 127.162607,
      "BRT_SUBID": "0",
      "ROUTE_ID": 305001331,
      "STOP_NAME": "인후초교.노송신협",
      "SERVICE_ID": 30894,
      "NODE_ID": 306100894,
      "STOP_ORD": 43,
      "LAT": 35.833078
    },
    {
      "ROUTE_NAME": "102",
      "ROUTE_ORD": 44,
      "STOP_ID": 306100845,
      "LNG": 127.16363233,
      "BRT_SUBID": "0",
      "ROUTE_ID": 305001331,
      "STOP_NAME": "인후부영2차아파트",
      "SERVICE_ID": 30845,
      "NODE_ID": 306100845,
      "STOP_ORD": 44,
      "LAT": 35.830003
    },
    {
      "ROUTE_NAME": "102",
      "ROUTE_ORD": 45,
      "STOP_ID": 306100810,
      "LNG": 127.165477,
      "BRT_SUBID": "0",
      "ROUTE_ID": 305001331,
      "STOP_NAME": "인봉초교",
      "SERVICE_ID": 30810,
      "NODE_ID": 306100810,
      "STOP_ORD": 45,
      "LAT": 35.827337
    },
    {
      "ROUTE_NAME": "102",
      "ROUTE_ORD": 46,
      "STOP_ID": 306100789,
      "LNG": 127.167317,
      "BRT_SUBID": "0",
      "ROUTE_ID": 305001331,
      "STOP_NAME": "아중제일2차아파트",
      "SERVICE_ID": 30789,
      "NODE_ID": 306100789,
      "STOP_ORD": 46,
      "LAT": 35.826386
    },
    {
      "ROUTE_NAME": "102",
      "ROUTE_ORD": 47,
      "STOP_ID": 306100811,
      "LNG": 127.17090123,
      "BRT_SUBID": "0",
      "ROUTE_ID": 305001331,
      "STOP_NAME": "하인교마을",
      "SERVICE_ID": 30811,
      "NODE_ID": 306100811,
      "STOP_ORD": 47,
      "LAT": 35.82765841
    },
    {
      "ROUTE_NAME": "102",
      "ROUTE_ORD": 48,
      "STOP_ID": 306100820,
      "LNG": 127.173378,
      "BRT_SUBID": "0",
      "ROUTE_ID": 305001331,
      "STOP_NAME": "아중호수.인교마을입구.아중요양병원",
      "SERVICE_ID": 30820,
      "NODE_ID": 306100820,
      "STOP_ORD": 48,
      "LAT": 35.828468
    },
    {
      "ROUTE_NAME": "102",
      "ROUTE_ORD": 49,
      "STOP_ID": 305032317,
      "LNG": 127.1794784,
      "BRT_SUBID": "0",
      "ROUTE_ID": 305001331,
      "STOP_NAME": "전주시양묘장",
      "SERVICE_ID": 36206,
      "NODE_ID": 305032317,
      "STOP_ORD": 49,
      "LAT": 35.8241393
    }
  ]
}