{
  "resultList": [
    {
      "ROUTE_NAME": "25",
      "ROUTE_ORD": 1,
      "STOP_ID": 305032675,
      "LNG": 127.0199833,
      "BRT_SUBID": "0",
      "ROUTE_ID": 305001546,
      "STOP_NAME": "이서회차지",
      "SERVICE_ID": 36609,
      "NODE_ID": 305032675,
      "STOP_ORD": 1,
      "LAT": 35.817095
    },
    {
      "ROUTE_NAME": "25",
      "ROUTE_ORD": 2,
      "STOP_ID": 312032266,
      "LNG": 127.02078,
      "BRT_SUBID": "0",
      "ROUTE_ID": 305001546,
      "STOP_NAME": "이서종점",
      "SERVICE_ID": 32266,
      "NODE_ID": 312032266,
      "STOP_ORD": 2,
      "LAT": 35.8199157
    },
    {
      "ROUTE_NAME": "25",
      "ROUTE_ORD": 3,
      "STOP_ID": 312100686,
      "LNG": 127.0229173,
      "BRT_SUBID": "0",
      "ROUTE_ID": 305001546,
      "STOP_NAME": "이서",
      "SERVICE_ID": 30686,
      "NODE_ID": 312100686,
      "STOP_ORD": 3,
      "LAT": 35.82016777
    },
    {
      "ROUTE_NAME": "25",
      "ROUTE_ORD": 4,
      "STOP_ID": 312100715,
      "LNG": 127.0312898,
      "BRT_SUBID": "0",
      "ROUTE_ID": 305001546,
      "STOP_NAME": "개태마을",
      "SERVICE_ID": 30715,
      "NODE_ID": 312100715,
      "STOP_ORD": 4,
      "LAT": 35.8218052
    },
    {
      "ROUTE_NAME": "25",
      "ROUTE_ORD": 5,
      "STOP_ID": 312032270,
      "LNG": 127.03822605,
      "BRT_SUBID": "0",
      "ROUTE_ID": 305001546,
      "STOP_NAME": "여차마을",
      "SERVICE_ID": 32270,
      "NODE_ID": 312032270,
      "STOP_ORD": 5,
      "LAT": 35.81838986
    },
    {
      "ROUTE_NAME": "25",
      "ROUTE_ORD": 6,
      "STOP_ID": 312100586,
      "LNG": 127.04082916,
      "BRT_SUBID": "0",
      "ROUTE_ID": 305001546,
      "STOP_NAME": "삼태동",
      "SERVICE_ID": 30586,
      "NODE_ID": 312100586,
      "STOP_ORD": 6,
      "LAT": 35.81360615
    },
    {
      "ROUTE_NAME": "25",
      "ROUTE_ORD": 7,
      "STOP_ID": 312100529,
      "LNG": 127.04507091,
      "BRT_SUBID": "0",
      "ROUTE_ID": 305001546,
      "STOP_NAME": "이성마을",
      "SERVICE_ID": 30529,
      "NODE_ID": 312100529,
      "STOP_ORD": 7,
      "LAT": 35.80833536
    },
    {
      "ROUTE_NAME": "25",
      "ROUTE_ORD": 8,
      "STOP_ID": 312032250,
      "LNG": 127.04638418,
      "BRT_SUBID": "0",
      "ROUTE_ID": 305001546,
      "STOP_NAME": "원이성마을",
      "SERVICE_ID": 32250,
      "NODE_ID": 312032250,
      "STOP_ORD": 8,
      "LAT": 35.8058686
    },
    {
      "ROUTE_NAME": "25",
      "ROUTE_ORD": 9,
      "STOP_ID": 312100483,
      "LNG": 127.04731316,
      "BRT_SUBID": "0",
      "ROUTE_ID": 305001546,
      "STOP_NAME": "새터마을",
      "SERVICE_ID": 30483,
      "NODE_ID": 312100483,
      "STOP_ORD": 9,
      "LAT": 35.80408179
    },
    {
      "ROUTE_NAME": "25",
      "ROUTE_ORD": 10,
      "STOP_ID": 312032252,
      "LNG": 127.04767346,
      "BRT_SUBID": "0",
      "ROUTE_ID": 305001546,
      "STOP_NAME": "대문안",
      "SERVICE_ID": 32252,
      "NODE_ID": 312032252,
      "STOP_ORD": 10,
      "LAT": 35.79796539
    },
    {
      "ROUTE_NAME": "25",
      "ROUTE_ORD": 11,
      "STOP_ID": 312100376,
      "LNG": 127.04764591,
      "BRT_SUBID": "0",
      "ROUTE_ID": 305001546,
      "STOP_NAME": "대문안종점",
      "SERVICE_ID": 30376,
      "NODE_ID": 312100376,
      "STOP_ORD": 11,
      "LAT": 35.79562666
    }
  ]
}