{
  "resultList": [
    {
      "ROUTE_NAME": "8-2",
      "ROUTE_ORD": 1,
      "STOP_ID": 305032481,
      "LNG": 127.127275,
      "BRT_SUBID": "0",
      "ROUTE_ID": 305001099,
      "STOP_NAME": "전북대종점",
      "SERVICE_ID": 36415,
      "NODE_ID": 305032481,
      "STOP_ORD": 1,
      "LAT": 35.849128
    },
    {
      "ROUTE_NAME": "8-2",
      "ROUTE_ORD": 2,
      "STOP_ID": 306032082,
      "LNG": 127.128811,
      "BRT_SUBID": "0",
      "ROUTE_ID": 305001099,
      "STOP_NAME": "건지광장",
      "SERVICE_ID": 32082,
      "NODE_ID": 306032082,
      "STOP_ORD": 2,
      "LAT": 35.846533
    },
    {
      "ROUTE_NAME": "8-2",
      "ROUTE_ORD": 3,
      "STOP_ID": 312302214,
      "LNG": 127.1307982,
      "BRT_SUBID": "0",
      "ROUTE_ID": 305001099,
      "STOP_NAME": "삼성문화회관",
      "SERVICE_ID": 32214,
      "NODE_ID": 312302214,
      "STOP_ORD": 3,
      "LAT": 35.8436702
    },
    {
      "ROUTE_NAME": "8-2",
      "ROUTE_ORD": 4,
      "STOP_ID": 306100993,
      "LNG": 127.13141174,
      "BRT_SUBID": "0",
      "ROUTE_ID": 305001099,
      "STOP_NAME": "고속터미널입구.금암동주민센터",
      "SERVICE_ID": 30992,
      "NODE_ID": 306100993,
      "STOP_ORD": 4,
      "LAT": 35.8379584
    },
    {
      "ROUTE_NAME": "8-2",
      "ROUTE_ORD": 5,
      "STOP_ID": 306100915,
      "LNG": 127.136648,
      "BRT_SUBID": "0",
      "ROUTE_ID": 305001099,
      "STOP_NAME": "금암광장.청담한방병원",
      "SERVICE_ID": 30915,
      "NODE_ID": 306100915,
      "STOP_ORD": 5,
      "LAT": 35.833708
    },
    {
      "ROUTE_NAME": "8-2",
      "ROUTE_ORD": 6,
      "STOP_ID": 306100851,
      "LNG": 127.139175,
      "BRT_SUBID": "0",
      "ROUTE_ID": 305001099,
      "STOP_NAME": "한국은행.전북청소년상담센터",
      "SERVICE_ID": 30851,
      "NODE_ID": 306100851,
      "STOP_ORD": 6,
      "LAT": 35.830433
    },
    {
      "ROUTE_NAME": "8-2",
      "ROUTE_ORD": 7,
      "STOP_ID": 306100743,
      "LNG": 127.14462905,
      "BRT_SUBID": "0",
      "ROUTE_ID": 305001099,
      "STOP_NAME": "중앙시장.중앙성당.방송대",
      "SERVICE_ID": 30743,
      "NODE_ID": 306100743,
      "STOP_ORD": 7,
      "LAT": 35.82397975
    },
    {
      "ROUTE_NAME": "8-2",
      "ROUTE_ORD": 8,
      "STOP_ID": 305100694,
      "LNG": 127.14596591,
      "BRT_SUBID": "0",
      "ROUTE_ID": 305001099,
      "STOP_NAME": "북문",
      "SERVICE_ID": 30694,
      "NODE_ID": 305100694,
      "STOP_ORD": 8,
      "LAT": 35.82067316
    },
    {
      "ROUTE_NAME": "8-2",
      "ROUTE_ORD": 9,
      "STOP_ID": 305100657,
      "LNG": 127.14790878,
      "BRT_SUBID": "0",
      "ROUTE_ID": 305001099,
      "STOP_NAME": "충경로KT전주지사",
      "SERVICE_ID": 30657,
      "NODE_ID": 305100657,
      "STOP_ORD": 9,
      "LAT": 35.81872473
    },
    {
      "ROUTE_NAME": "8-2",
      "ROUTE_ORD": 10,
      "STOP_ID": 305100677,
      "LNG": 127.15085875,
      "BRT_SUBID": "0",
      "ROUTE_ID": 305001099,
      "STOP_NAME": "동부시장",
      "SERVICE_ID": 30677,
      "NODE_ID": 305100677,
      "STOP_ORD": 10,
      "LAT": 35.81964957
    },
    {
      "ROUTE_NAME": "8-2",
      "ROUTE_ORD": 11,
      "STOP_ID": 305100704,
      "LNG": 127.152248,
      "BRT_SUBID": "0",
      "ROUTE_ID": 305001099,
      "STOP_NAME": "기린대로 병무청",
      "SERVICE_ID": 30704,
      "NODE_ID": 305100704,
      "STOP_ORD": 11,
      "LAT": 35.82136
    },
    {
      "ROUTE_NAME": "8-2",
      "ROUTE_ORD": 12,
      "STOP_ID": 305100729,
      "LNG": 127.155225,
      "BRT_SUBID": "0",
      "ROUTE_ID": 305001099,
      "STOP_NAME": "전주제일고 입구",
      "SERVICE_ID": 30729,
      "NODE_ID": 305100729,
      "STOP_ORD": 12,
      "LAT": 35.822994
    },
    {
      "ROUTE_NAME": "8-2",
      "ROUTE_ORD": 13,
      "STOP_ID": 305100735,
      "LNG": 127.15924108,
      "BRT_SUBID": "0",
      "ROUTE_ID": 305001099,
      "STOP_NAME": "천사마을",
      "SERVICE_ID": 30735,
      "NODE_ID": 305100735,
      "STOP_ORD": 13,
      "LAT": 35.82349591
    },
    {
      "ROUTE_NAME": "8-2",
      "ROUTE_ORD": 14,
      "STOP_ID": 306100764,
      "LNG": 127.16338169,
      "BRT_SUBID": "0",
      "ROUTE_ID": 305001099,
      "STOP_NAME": "마당재",
      "SERVICE_ID": 30764,
      "NODE_ID": 306100764,
      "STOP_ORD": 14,
      "LAT": 35.82493459
    },
    {
      "ROUTE_NAME": "8-2",
      "ROUTE_ORD": 15,
      "STOP_ID": 306100789,
      "LNG": 127.167317,
      "BRT_SUBID": "0",
      "ROUTE_ID": 305001099,
      "STOP_NAME": "아중제일2차아파트",
      "SERVICE_ID": 30789,
      "NODE_ID": 306100789,
      "STOP_ORD": 15,
      "LAT": 35.826386
    },
    {
      "ROUTE_NAME": "8-2",
      "ROUTE_ORD": 16,
      "STOP_ID": 306100843,
      "LNG": 127.16910791,
      "BRT_SUBID": "0",
      "ROUTE_ID": 305001099,
      "STOP_NAME": "중앙여고",
      "SERVICE_ID": 30843,
      "NODE_ID": 306100843,
      "STOP_ORD": 16,
      "LAT": 35.82981818
    },
    {
      "ROUTE_NAME": "8-2",
      "ROUTE_ORD": 17,
      "STOP_ID": 306100888,
      "LNG": 127.168105,
      "BRT_SUBID": "0",
      "ROUTE_ID": 305001099,
      "STOP_NAME": "우아롯데아파트",
      "SERVICE_ID": 30888,
      "NODE_ID": 306100888,
      "STOP_ORD": 17,
      "LAT": 35.831899
    },
    {
      "ROUTE_NAME": "8-2",
      "ROUTE_ORD": 18,
      "STOP_ID": 306100926,
      "LNG": 127.16767342,
      "BRT_SUBID": "0",
      "ROUTE_ID": 305001099,
      "STOP_NAME": "아중대우아파트",
      "SERVICE_ID": 30926,
      "NODE_ID": 306100926,
      "STOP_ORD": 18,
      "LAT": 35.83422165
    },
    {
      "ROUTE_NAME": "8-2",
      "ROUTE_ORD": 19,
      "STOP_ID": 306100945,
      "LNG": 127.164688,
      "BRT_SUBID": "0",
      "ROUTE_ID": 305001099,
      "STOP_NAME": "고용노동부전주지청",
      "SERVICE_ID": 30945,
      "NODE_ID": 306100945,
      "STOP_ORD": 19,
      "LAT": 35.835093
    },
    {
      "ROUTE_NAME": "8-2",
      "ROUTE_ORD": 20,
      "STOP_ID": 306100917,
      "LNG": 127.15906367,
      "BRT_SUBID": "0",
      "ROUTE_ID": 305001099,
      "STOP_NAME": "기린초교",
      "SERVICE_ID": 30917,
      "NODE_ID": 306100917,
      "STOP_ORD": 20,
      "LAT": 35.83379185
    },
    {
      "ROUTE_NAME": "8-2",
      "ROUTE_ORD": 21,
      "STOP_ID": 306100938,
      "LNG": 127.157446,
      "BRT_SUBID": "0",
      "ROUTE_ID": 305001099,
      "STOP_NAME": "전주시민기록관",
      "SERVICE_ID": 30938,
      "NODE_ID": 306100938,
      "STOP_ORD": 21,
      "LAT": 35.835065
    },
    {
      "ROUTE_NAME": "8-2",
      "ROUTE_ORD": 22,
      "STOP_ID": 306101002,
      "LNG": 127.15619271,
      "BRT_SUBID": "0",
      "ROUTE_ID": 305001099,
      "STOP_NAME": "인후1동주민센터",
      "SERVICE_ID": 31001,
      "NODE_ID": 306101002,
      "STOP_ORD": 22,
      "LAT": 35.838455
    },
    {
      "ROUTE_NAME": "8-2",
      "ROUTE_ORD": 23,
      "STOP_ID": 306101021,
      "LNG": 127.15521267,
      "BRT_SUBID": "0",
      "ROUTE_ID": 305001099,
      "STOP_NAME": "북일초교",
      "SERVICE_ID": 31020,
      "NODE_ID": 306101021,
      "STOP_ORD": 23,
      "LAT": 35.84087789
    },
    {
      "ROUTE_NAME": "8-2",
      "ROUTE_ORD": 24,
      "STOP_ID": 306101088,
      "LNG": 127.15111712,
      "BRT_SUBID": "0",
      "ROUTE_ID": 305001099,
      "STOP_NAME": "한국장애인고용공단전북지사",
      "SERVICE_ID": 31087,
      "NODE_ID": 306101088,
      "STOP_ORD": 24,
      "LAT": 35.84642572
    },
    {
      "ROUTE_NAME": "8-2",
      "ROUTE_ORD": 25,
      "STOP_ID": 305032375,
      "LNG": 127.147656,
      "BRT_SUBID": "0",
      "ROUTE_ID": 305001099,
      "STOP_NAME": "건지산이지움",
      "SERVICE_ID": 36309,
      "NODE_ID": 305032375,
      "STOP_ORD": 25,
      "LAT": 35.845354
    },
    {
      "ROUTE_NAME": "8-2",
      "ROUTE_ORD": 26,
      "STOP_ID": 306101070,
      "LNG": 127.14535014,
      "BRT_SUBID": "0",
      "ROUTE_ID": 305001099,
      "STOP_NAME": "전북대학병원입구",
      "SERVICE_ID": 31069,
      "NODE_ID": 306101070,
      "STOP_ORD": 26,
      "LAT": 35.84466416
    },
    {
      "ROUTE_NAME": "8-2",
      "ROUTE_ORD": 27,
      "STOP_ID": 306101057,
      "LNG": 127.14108421,
      "BRT_SUBID": "0",
      "ROUTE_ID": 305001099,
      "STOP_NAME": "사대부고사거리",
      "SERVICE_ID": 31056,
      "NODE_ID": 306101057,
      "STOP_ORD": 27,
      "LAT": 35.84346261
    },
    {
      "ROUTE_NAME": "8-2",
      "ROUTE_ORD": 28,
      "STOP_ID": 306101027,
      "LNG": 127.133365,
      "BRT_SUBID": "0",
      "ROUTE_ID": 305001099,
      "STOP_NAME": "전북대정문.덕진소방서",
      "SERVICE_ID": 31026,
      "NODE_ID": 306101027,
      "STOP_ORD": 28,
      "LAT": 35.841088
    },
    {
      "ROUTE_NAME": "8-2",
      "ROUTE_ORD": 29,
      "STOP_ID": 305032080,
      "LNG": 127.13051093,
      "BRT_SUBID": "0",
      "ROUTE_ID": 305001099,
      "STOP_NAME": "전북대국제교류어학원",
      "SERVICE_ID": 32080,
      "NODE_ID": 305032080,
      "STOP_ORD": 29,
      "LAT": 35.84525276
    },
    {
      "ROUTE_NAME": "8-2",
      "ROUTE_ORD": 30,
      "STOP_ID": 316032081,
      "LNG": 127.1275173,
      "BRT_SUBID": "0",
      "ROUTE_ID": 305001099,
      "STOP_NAME": "전북대종점",
      "SERVICE_ID": 32081,
      "NODE_ID": 316032081,
      "STOP_ORD": 30,
      "LAT": 35.8495494
    }
  ]
}