{
  "resultList": [
    {
      "ROUTE_NAME": "3-2",
      "ROUTE_ORD": 1,
      "STOP_ID": 305100650,
      "LNG": 127.091818,
      "BRT_SUBID": "0",
      "ROUTE_ID": 305001272,
      "STOP_NAME": "전주대학교",
      "SERVICE_ID": 30650,
      "NODE_ID": 305100650,
      "STOP_ORD": 1,
      "LAT": 35.81849
    },
    {
      "ROUTE_NAME": "3-2",
      "ROUTE_ORD": 2,
      "STOP_ID": 312032230,
      "LNG": 127.096694,
      "BRT_SUBID": "0",
      "ROUTE_ID": 305001272,
      "STOP_NAME": "신시가지서부파출소",
      "SERVICE_ID": 32230,
      "NODE_ID": 312032230,
      "STOP_ORD": 2,
      "LAT": 35.822313
    },
    {
      "ROUTE_NAME": "3-2",
      "ROUTE_ORD": 3,
      "STOP_ID": 312032228,
      "LNG": 127.09796,
      "BRT_SUBID": "0",
      "ROUTE_ID": 305001272,
      "STOP_NAME": "척동네거리",
      "SERVICE_ID": 32228,
      "NODE_ID": 312032228,
      "STOP_ORD": 3,
      "LAT": 35.823857
    },
    {
      "ROUTE_NAME": "3-2",
      "ROUTE_ORD": 4,
      "STOP_ID": 305100765,
      "LNG": 127.10129958,
      "BRT_SUBID": "0",
      "ROUTE_ID": 305001272,
      "STOP_NAME": "기전중.기전여고",
      "SERVICE_ID": 30765,
      "NODE_ID": 305100765,
      "STOP_ORD": 4,
      "LAT": 35.82505656
    },
    {
      "ROUTE_NAME": "3-2",
      "ROUTE_ORD": 5,
      "STOP_ID": 305100766,
      "LNG": 127.10481248,
      "BRT_SUBID": "0",
      "ROUTE_ID": 305001272,
      "STOP_NAME": "경찰청",
      "SERVICE_ID": 30766,
      "NODE_ID": 305100766,
      "STOP_ORD": 5,
      "LAT": 35.82516699
    },
    {
      "ROUTE_NAME": "3-2",
      "ROUTE_ORD": 6,
      "STOP_ID": 305100769,
      "LNG": 127.10836797,
      "BRT_SUBID": "0",
      "ROUTE_ID": 305001272,
      "STOP_NAME": "호반베르디움아파트",
      "SERVICE_ID": 30769,
      "NODE_ID": 305100769,
      "STOP_ORD": 6,
      "LAT": 35.8252457
    },
    {
      "ROUTE_NAME": "3-2",
      "ROUTE_ORD": 7,
      "STOP_ID": 305100773,
      "LNG": 127.11505463,
      "BRT_SUBID": "0",
      "ROUTE_ID": 305001272,
      "STOP_NAME": "마전교.본병원",
      "SERVICE_ID": 30773,
      "NODE_ID": 305100773,
      "STOP_ORD": 7,
      "LAT": 35.82531421
    },
    {
      "ROUTE_NAME": "3-2",
      "ROUTE_ORD": 8,
      "STOP_ID": 305100730,
      "LNG": 127.11795216,
      "BRT_SUBID": "0",
      "ROUTE_ID": 305001272,
      "STOP_NAME": "현대에코르아파트후문",
      "SERVICE_ID": 30730,
      "NODE_ID": 305100730,
      "STOP_ORD": 8,
      "LAT": 35.82300677
    },
    {
      "ROUTE_NAME": "3-2",
      "ROUTE_ORD": 9,
      "STOP_ID": 305100668,
      "LNG": 127.117975,
      "BRT_SUBID": "0",
      "ROUTE_ID": 305001272,
      "STOP_NAME": "한들초교",
      "SERVICE_ID": 30668,
      "NODE_ID": 305100668,
      "STOP_ORD": 9,
      "LAT": 35.819468
    },
    {
      "ROUTE_NAME": "3-2",
      "ROUTE_ORD": 10,
      "STOP_ID": 305100629,
      "LNG": 127.1180911,
      "BRT_SUBID": "0",
      "ROUTE_ID": 305001272,
      "STOP_NAME": "중산타운",
      "SERVICE_ID": 30629,
      "NODE_ID": 305100629,
      "STOP_ORD": 10,
      "LAT": 35.8160768
    },
    {
      "ROUTE_NAME": "3-2",
      "ROUTE_ORD": 11,
      "STOP_ID": 305100588,
      "LNG": 127.118141,
      "BRT_SUBID": "0",
      "ROUTE_ID": 305001272,
      "STOP_NAME": "중화산로완산구청네거리",
      "SERVICE_ID": 30588,
      "NODE_ID": 305100588,
      "STOP_ORD": 11,
      "LAT": 35.813718
    },
    {
      "ROUTE_NAME": "3-2",
      "ROUTE_ORD": 12,
      "STOP_ID": 305100566,
      "LNG": 127.12080521,
      "BRT_SUBID": "0",
      "ROUTE_ID": 305001272,
      "STOP_NAME": "완산구청",
      "SERVICE_ID": 30566,
      "NODE_ID": 305100566,
      "STOP_ORD": 12,
      "LAT": 35.81228152
    },
    {
      "ROUTE_NAME": "3-2",
      "ROUTE_ORD": 13,
      "STOP_ID": 305100549,
      "LNG": 127.122985,
      "BRT_SUBID": "0",
      "ROUTE_ID": 305001272,
      "STOP_NAME": "효자한양운남아파트",
      "SERVICE_ID": 30549,
      "NODE_ID": 305100549,
      "STOP_ORD": 13,
      "LAT": 35.809976
    },
    {
      "ROUTE_NAME": "3-2",
      "ROUTE_ORD": 14,
      "STOP_ID": 305100508,
      "LNG": 127.127207,
      "BRT_SUBID": "0",
      "ROUTE_ID": 305001272,
      "STOP_NAME": "서부시장",
      "SERVICE_ID": 30508,
      "NODE_ID": 305100508,
      "STOP_ORD": 14,
      "LAT": 35.805909
    },
    {
      "ROUTE_NAME": "3-2",
      "ROUTE_ORD": 15,
      "STOP_ID": 305100521,
      "LNG": 127.13090392,
      "BRT_SUBID": "0",
      "ROUTE_ID": 305001272,
      "STOP_NAME": "효자주공3단지",
      "SERVICE_ID": 30521,
      "NODE_ID": 305100521,
      "STOP_ORD": 15,
      "LAT": 35.80703339
    },
    {
      "ROUTE_NAME": "3-2",
      "ROUTE_ORD": 16,
      "STOP_ID": 305100537,
      "LNG": 127.13690696,
      "BRT_SUBID": "0",
      "ROUTE_ID": 305001272,
      "STOP_NAME": "용머리고개.완산동주민센터",
      "SERVICE_ID": 30537,
      "NODE_ID": 305100537,
      "STOP_ORD": 16,
      "LAT": 35.80905101
    },
    {
      "ROUTE_NAME": "3-2",
      "ROUTE_ORD": 17,
      "STOP_ID": 305100567,
      "LNG": 127.13925744,
      "BRT_SUBID": "0",
      "ROUTE_ID": 305001272,
      "STOP_NAME": "완산동시외버스정류소",
      "SERVICE_ID": 30567,
      "NODE_ID": 305100567,
      "STOP_ORD": 17,
      "LAT": 35.81220216
    },
    {
      "ROUTE_NAME": "3-2",
      "ROUTE_ORD": 18,
      "STOP_ID": 305100559,
      "LNG": 127.145655,
      "BRT_SUBID": "0",
      "ROUTE_ID": 305001272,
      "STOP_NAME": "매곡교.전주완산도서관",
      "SERVICE_ID": 30559,
      "NODE_ID": 305100559,
      "STOP_ORD": 18,
      "LAT": 35.811425
    },
    {
      "ROUTE_NAME": "3-2",
      "ROUTE_ORD": 19,
      "STOP_ID": 305100558,
      "LNG": 127.14973099,
      "BRT_SUBID": "0",
      "ROUTE_ID": 305001272,
      "STOP_NAME": "남부시장",
      "SERVICE_ID": 30558,
      "NODE_ID": 305100558,
      "STOP_ORD": 19,
      "LAT": 35.81132263
    },
    {
      "ROUTE_NAME": "3-2",
      "ROUTE_ORD": 20,
      "STOP_ID": 305100602,
      "LNG": 127.14835688,
      "BRT_SUBID": "0",
      "ROUTE_ID": 305001272,
      "STOP_NAME": "전동성당.한옥마을",
      "SERVICE_ID": 30602,
      "NODE_ID": 305100602,
      "STOP_ORD": 20,
      "LAT": 35.81462071
    },
    {
      "ROUTE_NAME": "3-2",
      "ROUTE_ORD": 21,
      "STOP_ID": 305100657,
      "LNG": 127.14790878,
      "BRT_SUBID": "0",
      "ROUTE_ID": 305001272,
      "STOP_NAME": "충경로KT전주지사",
      "SERVICE_ID": 30657,
      "NODE_ID": 305100657,
      "STOP_ORD": 21,
      "LAT": 35.81872473
    },
    {
      "ROUTE_NAME": "3-2",
      "ROUTE_ORD": 22,
      "STOP_ID": 305100677,
      "LNG": 127.15085875,
      "BRT_SUBID": "0",
      "ROUTE_ID": 305001272,
      "STOP_NAME": "동부시장",
      "SERVICE_ID": 30677,
      "NODE_ID": 305100677,
      "STOP_ORD": 22,
      "LAT": 35.81964957
    },
    {
      "ROUTE_NAME": "3-2",
      "ROUTE_ORD": 23,
      "STOP_ID": 305100704,
      "LNG": 127.152248,
      "BRT_SUBID": "0",
      "ROUTE_ID": 305001272,
      "STOP_NAME": "기린대로 병무청",
      "SERVICE_ID": 30704,
      "NODE_ID": 305100704,
      "STOP_ORD": 23,
      "LAT": 35.82136
    },
    {
      "ROUTE_NAME": "3-2",
      "ROUTE_ORD": 24,
      "STOP_ID": 305100729,
      "LNG": 127.155225,
      "BRT_SUBID": "0",
      "ROUTE_ID": 305001272,
      "STOP_NAME": "전주제일고 입구",
      "SERVICE_ID": 30729,
      "NODE_ID": 305100729,
      "STOP_ORD": 24,
      "LAT": 35.822994
    },
    {
      "ROUTE_NAME": "3-2",
      "ROUTE_ORD": 25,
      "STOP_ID": 305100735,
      "LNG": 127.15924108,
      "BRT_SUBID": "0",
      "ROUTE_ID": 305001272,
      "STOP_NAME": "천사마을",
      "SERVICE_ID": 30735,
      "NODE_ID": 305100735,
      "STOP_ORD": 25,
      "LAT": 35.82349591
    },
    {
      "ROUTE_NAME": "3-2",
      "ROUTE_ORD": 26,
      "STOP_ID": 306100764,
      "LNG": 127.16338169,
      "BRT_SUBID": "0",
      "ROUTE_ID": 305001272,
      "STOP_NAME": "마당재",
      "SERVICE_ID": 30764,
      "NODE_ID": 306100764,
      "STOP_ORD": 26,
      "LAT": 35.82493459
    },
    {
      "ROUTE_NAME": "3-2",
      "ROUTE_ORD": 27,
      "STOP_ID": 306100789,
      "LNG": 127.167317,
      "BRT_SUBID": "0",
      "ROUTE_ID": 305001272,
      "STOP_NAME": "아중제일2차아파트",
      "SERVICE_ID": 30789,
      "NODE_ID": 306100789,
      "STOP_ORD": 27,
      "LAT": 35.826386
    },
    {
      "ROUTE_NAME": "3-2",
      "ROUTE_ORD": 28,
      "STOP_ID": 306100843,
      "LNG": 127.16910791,
      "BRT_SUBID": "0",
      "ROUTE_ID": 305001272,
      "STOP_NAME": "중앙여고",
      "SERVICE_ID": 30843,
      "NODE_ID": 306100843,
      "STOP_ORD": 28,
      "LAT": 35.82981818
    },
    {
      "ROUTE_NAME": "3-2",
      "ROUTE_ORD": 29,
      "STOP_ID": 306100888,
      "LNG": 127.168105,
      "BRT_SUBID": "0",
      "ROUTE_ID": 305001272,
      "STOP_NAME": "우아롯데아파트",
      "SERVICE_ID": 30888,
      "NODE_ID": 306100888,
      "STOP_ORD": 29,
      "LAT": 35.831899
    },
    {
      "ROUTE_NAME": "3-2",
      "ROUTE_ORD": 30,
      "STOP_ID": 306100926,
      "LNG": 127.16767342,
      "BRT_SUBID": "0",
      "ROUTE_ID": 305001272,
      "STOP_NAME": "아중대우아파트",
      "SERVICE_ID": 30926,
      "NODE_ID": 306100926,
      "STOP_ORD": 30,
      "LAT": 35.83422165
    },
    {
      "ROUTE_NAME": "3-2",
      "ROUTE_ORD": 31,
      "STOP_ID": 306100945,
      "LNG": 127.164688,
      "BRT_SUBID": "0",
      "ROUTE_ID": 305001272,
      "STOP_NAME": "고용노동부전주지청",
      "SERVICE_ID": 30945,
      "NODE_ID": 306100945,
      "STOP_ORD": 31,
      "LAT": 35.835093
    },
    {
      "ROUTE_NAME": "3-2",
      "ROUTE_ORD": 32,
      "STOP_ID": 306100917,
      "LNG": 127.15906367,
      "BRT_SUBID": "0",
      "ROUTE_ID": 305001272,
      "STOP_NAME": "기린초교",
      "SERVICE_ID": 30917,
      "NODE_ID": 306100917,
      "STOP_ORD": 32,
      "LAT": 35.83379185
    },
    {
      "ROUTE_NAME": "3-2",
      "ROUTE_ORD": 33,
      "STOP_ID": 306100938,
      "LNG": 127.157446,
      "BRT_SUBID": "0",
      "ROUTE_ID": 305001272,
      "STOP_NAME": "전주시민기록관",
      "SERVICE_ID": 30938,
      "NODE_ID": 306100938,
      "STOP_ORD": 33,
      "LAT": 35.835065
    },
    {
      "ROUTE_NAME": "3-2",
      "ROUTE_ORD": 34,
      "STOP_ID": 306100972,
      "LNG": 127.15536026,
      "BRT_SUBID": "0",
      "ROUTE_ID": 305001272,
      "STOP_NAME": "안골",
      "SERVICE_ID": 30972,
      "NODE_ID": 306100972,
      "STOP_ORD": 34,
      "LAT": 35.83675952
    },
    {
      "ROUTE_NAME": "3-2",
      "ROUTE_ORD": 35,
      "STOP_ID": 306100965,
      "LNG": 127.15116098,
      "BRT_SUBID": "0",
      "ROUTE_ID": 305001272,
      "STOP_NAME": "인후휴먼시아아파트",
      "SERVICE_ID": 30965,
      "NODE_ID": 306100965,
      "STOP_ORD": 35,
      "LAT": 35.83641443
    },
    {
      "ROUTE_NAME": "3-2",
      "ROUTE_ORD": 36,
      "STOP_ID": 306100943,
      "LNG": 127.14759274,
      "BRT_SUBID": "0",
      "ROUTE_ID": 305001272,
      "STOP_NAME": "전주생명과학고등학교",
      "SERVICE_ID": 30943,
      "NODE_ID": 306100943,
      "STOP_ORD": 36,
      "LAT": 35.83506423
    },
    {
      "ROUTE_NAME": "3-2",
      "ROUTE_ORD": 37,
      "STOP_ID": 306100898,
      "LNG": 127.14490334,
      "BRT_SUBID": "0",
      "ROUTE_ID": 305001272,
      "STOP_NAME": "모래내시장",
      "SERVICE_ID": 30898,
      "NODE_ID": 306100898,
      "STOP_ORD": 37,
      "LAT": 35.83301705
    },
    {
      "ROUTE_NAME": "3-2",
      "ROUTE_ORD": 38,
      "STOP_ID": 306100879,
      "LNG": 127.14373151,
      "BRT_SUBID": "0",
      "ROUTE_ID": 305001272,
      "STOP_NAME": "모래내",
      "SERVICE_ID": 30879,
      "NODE_ID": 306100879,
      "STOP_ORD": 38,
      "LAT": 35.83203886
    },
    {
      "ROUTE_NAME": "3-2",
      "ROUTE_ORD": 39,
      "STOP_ID": 306100861,
      "LNG": 127.13871665,
      "BRT_SUBID": "0",
      "ROUTE_ID": 305001272,
      "STOP_NAME": "전북청소년상담센터",
      "SERVICE_ID": 30861,
      "NODE_ID": 306100861,
      "STOP_ORD": 39,
      "LAT": 35.83141844
    },
    {
      "ROUTE_NAME": "3-2",
      "ROUTE_ORD": 40,
      "STOP_ID": 306100911,
      "LNG": 127.137297,
      "BRT_SUBID": "0",
      "ROUTE_ID": 305001272,
      "STOP_NAME": "금암광장",
      "SERVICE_ID": 30911,
      "NODE_ID": 306100911,
      "STOP_ORD": 40,
      "LAT": 35.833069
    },
    {
      "ROUTE_NAME": "3-2",
      "ROUTE_ORD": 41,
      "STOP_ID": 306100969,
      "LNG": 127.13363898,
      "BRT_SUBID": "0",
      "ROUTE_ID": 305001272,
      "STOP_NAME": "금암동주민센터",
      "SERVICE_ID": 30969,
      "NODE_ID": 306100969,
      "STOP_ORD": 41,
      "LAT": 35.83678745
    },
    {
      "ROUTE_NAME": "3-2",
      "ROUTE_ORD": 42,
      "STOP_ID": 306101004,
      "LNG": 127.131042,
      "BRT_SUBID": "0",
      "ROUTE_ID": 305001272,
      "STOP_NAME": "고속버스터미널입구.전북일보사",
      "SERVICE_ID": 31003,
      "NODE_ID": 306101004,
      "STOP_ORD": 42,
      "LAT": 35.838631
    },
    {
      "ROUTE_NAME": "3-2",
      "ROUTE_ORD": 43,
      "STOP_ID": 306101035,
      "LNG": 127.127164,
      "BRT_SUBID": "0",
      "ROUTE_ID": 305001272,
      "STOP_NAME": "전북대학교.소나무한의원앞",
      "SERVICE_ID": 31034,
      "NODE_ID": 306101035,
      "STOP_ORD": 43,
      "LAT": 35.841467
    },
    {
      "ROUTE_NAME": "3-2",
      "ROUTE_ORD": 44,
      "STOP_ID": 306101053,
      "LNG": 127.12308347,
      "BRT_SUBID": "0",
      "ROUTE_ID": 305001272,
      "STOP_NAME": "KT북전주지점.덕진광장",
      "SERVICE_ID": 31052,
      "NODE_ID": 306101053,
      "STOP_ORD": 44,
      "LAT": 35.84310173
    },
    {
      "ROUTE_NAME": "3-2",
      "ROUTE_ORD": 45,
      "STOP_ID": 306101016,
      "LNG": 127.11959615,
      "BRT_SUBID": "0",
      "ROUTE_ID": 305001272,
      "STOP_NAME": "한국건강관리협회",
      "SERVICE_ID": 31015,
      "NODE_ID": 306101016,
      "STOP_ORD": 45,
      "LAT": 35.83993218
    },
    {
      "ROUTE_NAME": "3-2",
      "ROUTE_ORD": 46,
      "STOP_ID": 306100973,
      "LNG": 127.12121,
      "BRT_SUBID": "0",
      "ROUTE_ID": 305001272,
      "STOP_NAME": "경기장거성아파트",
      "SERVICE_ID": 30973,
      "NODE_ID": 306100973,
      "STOP_ORD": 46,
      "LAT": 35.836831
    },
    {
      "ROUTE_NAME": "3-2",
      "ROUTE_ORD": 47,
      "STOP_ID": 305100883,
      "LNG": 127.121016,
      "BRT_SUBID": "0",
      "ROUTE_ID": 305001272,
      "STOP_NAME": "이마트",
      "SERVICE_ID": 30883,
      "NODE_ID": 305100883,
      "STOP_ORD": 47,
      "LAT": 35.832317
    },
    {
      "ROUTE_NAME": "3-2",
      "ROUTE_ORD": 48,
      "STOP_ID": 305100884,
      "LNG": 127.11764444,
      "BRT_SUBID": "0",
      "ROUTE_ID": 305001272,
      "STOP_NAME": "서신현대.동아아파트",
      "SERVICE_ID": 30884,
      "NODE_ID": 305100884,
      "STOP_ORD": 48,
      "LAT": 35.83230921
    },
    {
      "ROUTE_NAME": "3-2",
      "ROUTE_ORD": 49,
      "STOP_ID": 305100855,
      "LNG": 127.11573814,
      "BRT_SUBID": "0",
      "ROUTE_ID": 305001272,
      "STOP_NAME": "서신동주민센터",
      "SERVICE_ID": 30855,
      "NODE_ID": 305100855,
      "STOP_ORD": 49,
      "LAT": 35.83046736
    },
    {
      "ROUTE_NAME": "3-2",
      "ROUTE_ORD": 50,
      "STOP_ID": 305100807,
      "LNG": 127.11563285,
      "BRT_SUBID": "0",
      "ROUTE_ID": 305001272,
      "STOP_NAME": "서신신협",
      "SERVICE_ID": 30807,
      "NODE_ID": 305100807,
      "STOP_ORD": 50,
      "LAT": 35.82733207
    },
    {
      "ROUTE_NAME": "3-2",
      "ROUTE_ORD": 51,
      "STOP_ID": 305100779,
      "LNG": 127.11496336,
      "BRT_SUBID": "0",
      "ROUTE_ID": 305001272,
      "STOP_NAME": "마전교.본병원",
      "SERVICE_ID": 30779,
      "NODE_ID": 305100779,
      "STOP_ORD": 51,
      "LAT": 35.82548646
    },
    {
      "ROUTE_NAME": "3-2",
      "ROUTE_ORD": 52,
      "STOP_ID": 305100778,
      "LNG": 127.10831305,
      "BRT_SUBID": "0",
      "ROUTE_ID": 305001272,
      "STOP_NAME": "호반베르디움아파트",
      "SERVICE_ID": 30778,
      "NODE_ID": 305100778,
      "STOP_ORD": 52,
      "LAT": 35.82539224
    },
    {
      "ROUTE_NAME": "3-2",
      "ROUTE_ORD": 53,
      "STOP_ID": 305100776,
      "LNG": 127.104853,
      "BRT_SUBID": "0",
      "ROUTE_ID": 305001272,
      "STOP_NAME": "경찰청",
      "SERVICE_ID": 30776,
      "NODE_ID": 305100776,
      "STOP_ORD": 53,
      "LAT": 35.825319
    },
    {
      "ROUTE_NAME": "3-2",
      "ROUTE_ORD": 54,
      "STOP_ID": 305100772,
      "LNG": 127.10083,
      "BRT_SUBID": "0",
      "ROUTE_ID": 305001272,
      "STOP_NAME": "기전중.기전여고",
      "SERVICE_ID": 30772,
      "NODE_ID": 305100772,
      "STOP_ORD": 54,
      "LAT": 35.825249
    },
    {
      "ROUTE_NAME": "3-2",
      "ROUTE_ORD": 55,
      "STOP_ID": 312032227,
      "LNG": 127.097606,
      "BRT_SUBID": "0",
      "ROUTE_ID": 305001272,
      "STOP_NAME": "척동네거리",
      "SERVICE_ID": 32227,
      "NODE_ID": 312032227,
      "STOP_ORD": 55,
      "LAT": 35.824062
    },
    {
      "ROUTE_NAME": "3-2",
      "ROUTE_ORD": 56,
      "STOP_ID": 312032229,
      "LNG": 127.096184,
      "BRT_SUBID": "0",
      "ROUTE_ID": 305001272,
      "STOP_NAME": "신시가지서부파출소",
      "SERVICE_ID": 32229,
      "NODE_ID": 312032229,
      "STOP_ORD": 56,
      "LAT": 35.822202
    },
    {
      "ROUTE_NAME": "3-2",
      "ROUTE_ORD": 57,
      "STOP_ID": 305100651,
      "LNG": 127.092247,
      "BRT_SUBID": "0",
      "ROUTE_ID": 305001272,
      "STOP_NAME": "전주대학교",
      "SERVICE_ID": 30651,
      "NODE_ID": 305100651,
      "STOP_ORD": 57,
      "LAT": 35.81862
    }
  ]
}