{
  "resultList": [
    {
      "ROUTE_NAME": "999",
      "ROUTE_ORD": 1,
      "STOP_ID": 305100441,
      "LNG": 127.093325,
      "BRT_SUBID": "0",
      "ROUTE_ID": 305001660,
      "STOP_NAME": "전주박물관전주역사박물관",
      "SERVICE_ID": 30441,
      "NODE_ID": 305100441,
      "STOP_ORD": 1,
      "LAT": 35.799974
    },
    {
      "ROUTE_NAME": "999",
      "ROUTE_ORD": 2,
      "STOP_ID": 305100448,
      "LNG": 127.096201,
      "BRT_SUBID": "0",
      "ROUTE_ID": 305001660,
      "STOP_NAME": "쑥고개로.용산마을입구",
      "SERVICE_ID": 30448,
      "NODE_ID": 305100448,
      "STOP_ORD": 2,
      "LAT": 35.801036
    },
    {
      "ROUTE_NAME": "999",
      "ROUTE_ORD": 3,
      "STOP_ID": 305100468,
      "LNG": 127.10297,
      "BRT_SUBID": "0",
      "ROUTE_ID": 305001660,
      "STOP_NAME": "전북교육청 동암고",
      "SERVICE_ID": 30468,
      "NODE_ID": 305100468,
      "STOP_ORD": 3,
      "LAT": 35.802937
    },
    {
      "ROUTE_NAME": "999",
      "ROUTE_ORD": 4,
      "STOP_ID": 305100485,
      "LNG": 127.107707,
      "BRT_SUBID": "0",
      "ROUTE_ID": 305001660,
      "STOP_NAME": "우전초교",
      "SERVICE_ID": 30485,
      "NODE_ID": 305100485,
      "STOP_ORD": 4,
      "LAT": 35.80419
    },
    {
      "ROUTE_NAME": "999",
      "ROUTE_ORD": 5,
      "STOP_ID": 305100500,
      "LNG": 127.113066,
      "BRT_SUBID": "0",
      "ROUTE_ID": 305001660,
      "STOP_NAME": "효자현대아파트",
      "SERVICE_ID": 30500,
      "NODE_ID": 305100500,
      "STOP_ORD": 5,
      "LAT": 35.805635
    },
    {
      "ROUTE_NAME": "999",
      "ROUTE_ORD": 6,
      "STOP_ID": 305100515,
      "LNG": 127.11813,
      "BRT_SUBID": "0",
      "ROUTE_ID": 305001660,
      "STOP_NAME": "안행교",
      "SERVICE_ID": 30515,
      "NODE_ID": 305100515,
      "STOP_ORD": 6,
      "LAT": 35.806361
    },
    {
      "ROUTE_NAME": "999",
      "ROUTE_ORD": 8,
      "STOP_ID": 305100505,
      "LNG": 127.122202,
      "BRT_SUBID": "0",
      "ROUTE_ID": 305001660,
      "STOP_NAME": "효자광장.전주시청소년상담센터",
      "SERVICE_ID": 30505,
      "NODE_ID": 305100505,
      "STOP_ORD": 7,
      "LAT": 35.805883
    },
    {
      "ROUTE_NAME": "999",
      "ROUTE_ORD": 9,
      "STOP_ID": 305100470,
      "LNG": 127.124509,
      "BRT_SUBID": "0",
      "ROUTE_ID": 305001660,
      "STOP_NAME": "효자광진맨션아파트",
      "SERVICE_ID": 30470,
      "NODE_ID": 305100470,
      "STOP_ORD": 8,
      "LAT": 35.803203
    },
    {
      "ROUTE_NAME": "999",
      "ROUTE_ORD": 10,
      "STOP_ID": 305100464,
      "LNG": 127.12434576,
      "BRT_SUBID": "0",
      "ROUTE_ID": 305001660,
      "STOP_NAME": "삼천광진목화아파트",
      "SERVICE_ID": 30464,
      "NODE_ID": 305100464,
      "STOP_ORD": 9,
      "LAT": 35.80239317
    },
    {
      "ROUTE_NAME": "999",
      "ROUTE_ORD": 11,
      "STOP_ID": 305100452,
      "LNG": 127.12274533,
      "BRT_SUBID": "0",
      "ROUTE_ID": 305001660,
      "STOP_NAME": "삼천세경아파트",
      "SERVICE_ID": 30452,
      "NODE_ID": 305100452,
      "STOP_ORD": 10,
      "LAT": 35.80126696
    },
    {
      "ROUTE_NAME": "999",
      "ROUTE_ORD": 12,
      "STOP_ID": 305100439,
      "LNG": 127.120174,
      "BRT_SUBID": "0",
      "ROUTE_ID": 305001660,
      "STOP_NAME": "삼천지구대",
      "SERVICE_ID": 30439,
      "NODE_ID": 305100439,
      "STOP_ORD": 11,
      "LAT": 35.799896
    },
    {
      "ROUTE_NAME": "999",
      "ROUTE_ORD": 13,
      "STOP_ID": 305100406,
      "LNG": 127.12072311,
      "BRT_SUBID": "0",
      "ROUTE_ID": 305001660,
      "STOP_NAME": "효문중학교",
      "SERVICE_ID": 30406,
      "NODE_ID": 305100406,
      "STOP_ORD": 12,
      "LAT": 35.79850143
    },
    {
      "ROUTE_NAME": "999",
      "ROUTE_ORD": 14,
      "STOP_ID": 305100393,
      "LNG": 127.12607,
      "BRT_SUBID": "0",
      "ROUTE_ID": 305001660,
      "STOP_NAME": "삼천오성대우아파트",
      "SERVICE_ID": 30393,
      "NODE_ID": 305100393,
      "STOP_ORD": 13,
      "LAT": 35.797242
    },
    {
      "ROUTE_NAME": "999",
      "ROUTE_ORD": 15,
      "STOP_ID": 305100409,
      "LNG": 127.12791,
      "BRT_SUBID": "0",
      "ROUTE_ID": 305001660,
      "STOP_NAME": "삼천개나리아파트",
      "SERVICE_ID": 30409,
      "NODE_ID": 305100409,
      "STOP_ORD": 14,
      "LAT": 35.798534
    },
    {
      "ROUTE_NAME": "999",
      "ROUTE_ORD": 16,
      "STOP_ID": 305100392,
      "LNG": 127.130098,
      "BRT_SUBID": "0",
      "ROUTE_ID": 305001660,
      "STOP_NAME": "삼천신일아파트",
      "SERVICE_ID": 30392,
      "NODE_ID": 305100392,
      "STOP_ORD": 15,
      "LAT": 35.797718
    },
    {
      "ROUTE_NAME": "999",
      "ROUTE_ORD": 17,
      "STOP_ID": 305100385,
      "LNG": 127.135699,
      "BRT_SUBID": "0",
      "ROUTE_ID": 305001660,
      "STOP_NAME": "꽃밭정이네거리",
      "SERVICE_ID": 30385,
      "NODE_ID": 305100385,
      "STOP_ORD": 16,
      "LAT": 35.79652
    },
    {
      "ROUTE_NAME": "999",
      "ROUTE_ORD": 18,
      "STOP_ID": 305100401,
      "LNG": 127.1390222,
      "BRT_SUBID": "0",
      "ROUTE_ID": 305001660,
      "STOP_NAME": "완산여고",
      "SERVICE_ID": 30401,
      "NODE_ID": 305100401,
      "STOP_ORD": 17,
      "LAT": 35.79770557
    },
    {
      "ROUTE_NAME": "999",
      "ROUTE_ORD": 19,
      "STOP_ID": 305100411,
      "LNG": 127.14142127,
      "BRT_SUBID": "0",
      "ROUTE_ID": 305001660,
      "STOP_NAME": "평화주공1.2단지",
      "SERVICE_ID": 30411,
      "NODE_ID": 305100411,
      "STOP_ORD": 18,
      "LAT": 35.798558
    },
    {
      "ROUTE_NAME": "999",
      "ROUTE_ORD": 20,
      "STOP_ID": 305100427,
      "LNG": 127.143604,
      "BRT_SUBID": "0",
      "ROUTE_ID": 305001660,
      "STOP_NAME": "장승백이",
      "SERVICE_ID": 30427,
      "NODE_ID": 305100427,
      "STOP_ORD": 19,
      "LAT": 35.79936984
    },
    {
      "ROUTE_NAME": "999",
      "ROUTE_ORD": 21,
      "STOP_ID": 305100449,
      "LNG": 127.14638647,
      "BRT_SUBID": "0",
      "ROUTE_ID": 305001660,
      "STOP_NAME": "서서학우정목련아파트",
      "SERVICE_ID": 30449,
      "NODE_ID": 305100449,
      "STOP_ORD": 20,
      "LAT": 35.80104093
    },
    {
      "ROUTE_NAME": "999",
      "ROUTE_ORD": 22,
      "STOP_ID": 305100480,
      "LNG": 127.148477,
      "BRT_SUBID": "0",
      "ROUTE_ID": 305001660,
      "STOP_NAME": "서서학예그린아파트",
      "SERVICE_ID": 30480,
      "NODE_ID": 305100480,
      "STOP_ORD": 21,
      "LAT": 35.803542
    },
    {
      "ROUTE_NAME": "999",
      "ROUTE_ORD": 23,
      "STOP_ID": 305100497,
      "LNG": 127.14953021,
      "BRT_SUBID": "0",
      "ROUTE_ID": 305001660,
      "STOP_NAME": "공수내다리",
      "SERVICE_ID": 30497,
      "NODE_ID": 305100497,
      "STOP_ORD": 22,
      "LAT": 35.80524638
    },
    {
      "ROUTE_NAME": "999",
      "ROUTE_ORD": 24,
      "STOP_ID": 305032532,
      "LNG": 127.1498173,
      "BRT_SUBID": "0",
      "ROUTE_ID": 305001660,
      "STOP_NAME": "서학예술마을.전주교대입구",
      "SERVICE_ID": 36466,
      "NODE_ID": 305032532,
      "STOP_ORD": 23,
      "LAT": 35.8078031
    },
    {
      "ROUTE_NAME": "999",
      "ROUTE_ORD": 25,
      "STOP_ID": 305100558,
      "LNG": 127.14973099,
      "BRT_SUBID": "0",
      "ROUTE_ID": 305001660,
      "STOP_NAME": "남부시장",
      "SERVICE_ID": 30558,
      "NODE_ID": 305100558,
      "STOP_ORD": 24,
      "LAT": 35.81132263
    },
    {
      "ROUTE_NAME": "999",
      "ROUTE_ORD": 26,
      "STOP_ID": 305100602,
      "LNG": 127.14835688,
      "BRT_SUBID": "0",
      "ROUTE_ID": 305001660,
      "STOP_NAME": "전동성당.한옥마을",
      "SERVICE_ID": 30602,
      "NODE_ID": 305100602,
      "STOP_ORD": 25,
      "LAT": 35.81462071
    },
    {
      "ROUTE_NAME": "999",
      "ROUTE_ORD": 27,
      "STOP_ID": 305100643,
      "LNG": 127.14748975,
      "BRT_SUBID": "0",
      "ROUTE_ID": 305001660,
      "STOP_NAME": "팔달로 예술회관",
      "SERVICE_ID": 30643,
      "NODE_ID": 305100643,
      "STOP_ORD": 26,
      "LAT": 35.81706612
    },
    {
      "ROUTE_NAME": "999",
      "ROUTE_ORD": 29,
      "STOP_ID": 305100683,
      "LNG": 127.146497,
      "BRT_SUBID": "0",
      "ROUTE_ID": 305001660,
      "STOP_NAME": "CTS전북방송",
      "SERVICE_ID": 30683,
      "NODE_ID": 305100683,
      "STOP_ORD": 27,
      "LAT": 35.820099
    },
    {
      "ROUTE_NAME": "999",
      "ROUTE_ORD": 31,
      "STOP_ID": 306100785,
      "LNG": 127.143998,
      "BRT_SUBID": "0",
      "ROUTE_ID": 305001660,
      "STOP_NAME": "중앙시장",
      "SERVICE_ID": 30785,
      "NODE_ID": 306100785,
      "STOP_ORD": 28,
      "LAT": 35.826115
    },
    {
      "ROUTE_NAME": "999",
      "ROUTE_ORD": 32,
      "STOP_ID": 306100861,
      "LNG": 127.13871665,
      "BRT_SUBID": "0",
      "ROUTE_ID": 305001660,
      "STOP_NAME": "전북청소년상담센터",
      "SERVICE_ID": 30861,
      "NODE_ID": 306100861,
      "STOP_ORD": 29,
      "LAT": 35.83141844
    },
    {
      "ROUTE_NAME": "999",
      "ROUTE_ORD": 33,
      "STOP_ID": 306100927,
      "LNG": 127.13328615,
      "BRT_SUBID": "0",
      "ROUTE_ID": 305001660,
      "STOP_NAME": "시외버스터미널",
      "SERVICE_ID": 30927,
      "NODE_ID": 306100927,
      "STOP_ORD": 30,
      "LAT": 35.83437333
    },
    {
      "ROUTE_NAME": "999",
      "ROUTE_ORD": 34,
      "STOP_ID": 306100925,
      "LNG": 127.1303235,
      "BRT_SUBID": "0",
      "ROUTE_ID": 305001660,
      "STOP_NAME": "고속버스터미널.불교회관",
      "SERVICE_ID": 30925,
      "NODE_ID": 306100925,
      "STOP_ORD": 31,
      "LAT": 35.83418203
    },
    {
      "ROUTE_NAME": "999",
      "ROUTE_ORD": 35,
      "STOP_ID": 306100946,
      "LNG": 127.12591932,
      "BRT_SUBID": "0",
      "ROUTE_ID": 305001660,
      "STOP_NAME": "가리내로 백제교",
      "SERVICE_ID": 30946,
      "NODE_ID": 306100946,
      "STOP_ORD": 32,
      "LAT": 35.83487104
    },
    {
      "ROUTE_NAME": "999",
      "ROUTE_ORD": 36,
      "STOP_ID": 306100961,
      "LNG": 127.12520761,
      "BRT_SUBID": "0",
      "ROUTE_ID": 305001660,
      "STOP_NAME": "종합경기장",
      "SERVICE_ID": 30961,
      "NODE_ID": 306100961,
      "STOP_ORD": 33,
      "LAT": 35.83627383
    },
    {
      "ROUTE_NAME": "999",
      "ROUTE_ORD": 37,
      "STOP_ID": 306101017,
      "LNG": 127.13143203,
      "BRT_SUBID": "0",
      "ROUTE_ID": 305001660,
      "STOP_NAME": "전북은행본점",
      "SERVICE_ID": 31016,
      "NODE_ID": 306101017,
      "STOP_ORD": 34,
      "LAT": 35.84009301
    },
    {
      "ROUTE_NAME": "999",
      "ROUTE_ORD": 38,
      "STOP_ID": 306101020,
      "LNG": 127.134004,
      "BRT_SUBID": "0",
      "ROUTE_ID": 305001660,
      "STOP_NAME": "전주덕진소방서",
      "SERVICE_ID": 31019,
      "NODE_ID": 306101020,
      "STOP_ORD": 35,
      "LAT": 35.840953
    },
    {
      "ROUTE_NAME": "999",
      "ROUTE_ORD": 39,
      "STOP_ID": 306101046,
      "LNG": 127.139942,
      "BRT_SUBID": "0",
      "ROUTE_ID": 305001660,
      "STOP_NAME": "사대부고사거리",
      "SERVICE_ID": 31045,
      "NODE_ID": 306101046,
      "STOP_ORD": 36,
      "LAT": 35.842693
    },
    {
      "ROUTE_NAME": "999",
      "ROUTE_ORD": 40,
      "STOP_ID": 306101056,
      "LNG": 127.142764,
      "BRT_SUBID": "0",
      "ROUTE_ID": 305001660,
      "STOP_NAME": "전북대학병원입구",
      "SERVICE_ID": 31055,
      "NODE_ID": 306101056,
      "STOP_ORD": 37,
      "LAT": 35.843528
    },
    {
      "ROUTE_NAME": "999",
      "ROUTE_ORD": 41,
      "STOP_ID": 306101069,
      "LNG": 127.14664986,
      "BRT_SUBID": "0",
      "ROUTE_ID": 305001660,
      "STOP_NAME": "동전주우체국",
      "SERVICE_ID": 31068,
      "NODE_ID": 306101069,
      "STOP_ORD": 38,
      "LAT": 35.84463013
    },
    {
      "ROUTE_NAME": "999",
      "ROUTE_ORD": 42,
      "STOP_ID": 306101081,
      "LNG": 127.149528,
      "BRT_SUBID": "0",
      "ROUTE_ID": 305001660,
      "STOP_NAME": "새마을금고.한국국토정보공사",
      "SERVICE_ID": 31080,
      "NODE_ID": 306101081,
      "STOP_ORD": 39,
      "LAT": 35.845554
    },
    {
      "ROUTE_NAME": "999",
      "ROUTE_ORD": 43,
      "STOP_ID": 306101094,
      "LNG": 127.1578906,
      "BRT_SUBID": "0",
      "ROUTE_ID": 305001660,
      "STOP_NAME": "전주역첫마중길",
      "SERVICE_ID": 31093,
      "NODE_ID": 306101094,
      "STOP_ORD": 40,
      "LAT": 35.8483197
    },
    {
      "ROUTE_NAME": "999",
      "ROUTE_ORD": 44,
      "STOP_ID": 306101130,
      "LNG": 127.160103,
      "BRT_SUBID": "0",
      "ROUTE_ID": 305001660,
      "STOP_NAME": "동부대로전주역",
      "SERVICE_ID": 31129,
      "NODE_ID": 306101130,
      "STOP_ORD": 41,
      "LAT": 35.85042866
    },
    {
      "ROUTE_NAME": "999",
      "ROUTE_ORD": 45,
      "STOP_ID": 306101186,
      "LNG": 127.15818391,
      "BRT_SUBID": "0",
      "ROUTE_ID": 305001660,
      "STOP_NAME": "기린중",
      "SERVICE_ID": 31185,
      "NODE_ID": 306101186,
      "STOP_ORD": 42,
      "LAT": 35.85423569
    },
    {
      "ROUTE_NAME": "999",
      "ROUTE_ORD": 46,
      "STOP_ID": 305032365,
      "LNG": 127.153752,
      "BRT_SUBID": "0",
      "ROUTE_ID": 305001660,
      "STOP_NAME": "호성유원아파트",
      "SERVICE_ID": 36299,
      "NODE_ID": 305032365,
      "STOP_ORD": 43,
      "LAT": 35.8585547
    },
    {
      "ROUTE_NAME": "999",
      "ROUTE_ORD": 47,
      "STOP_ID": 306101239,
      "LNG": 127.15195548,
      "BRT_SUBID": "0",
      "ROUTE_ID": 305001660,
      "STOP_NAME": "호성주공",
      "SERVICE_ID": 31238,
      "NODE_ID": 306101239,
      "STOP_ORD": 44,
      "LAT": 35.85784878
    },
    {
      "ROUTE_NAME": "999",
      "ROUTE_ORD": 48,
      "STOP_ID": 305032303,
      "LNG": 127.143005,
      "BRT_SUBID": "0",
      "ROUTE_ID": 305001660,
      "STOP_NAME": "대지마을",
      "SERVICE_ID": 32303,
      "NODE_ID": 305032303,
      "STOP_ORD": 45,
      "LAT": 35.857811
    },
    {
      "ROUTE_NAME": "999",
      "ROUTE_ORD": 49,
      "STOP_ID": 306101198,
      "LNG": 127.1411122,
      "BRT_SUBID": "0",
      "ROUTE_ID": 305001660,
      "STOP_NAME": "전주동물원",
      "SERVICE_ID": 31197,
      "NODE_ID": 306101198,
      "STOP_ORD": 46,
      "LAT": 35.85480228
    }
  ]
}