{
  "resultList": [
    {
      "ROUTE_NAME": "165",
      "ROUTE_ORD": 1,
      "STOP_ID": 305100661,
      "LNG": 127.107954,
      "BRT_SUBID": "C",
      "ROUTE_ID": 305001520,
      "STOP_NAME": "효자로전북도청",
      "SERVICE_ID": 30661,
      "NODE_ID": 305100661,
      "STOP_ORD": 1,
      "LAT": 35.818896
    },
    {
      "ROUTE_NAME": "165",
      "ROUTE_ORD": 2,
      "STOP_ID": 305032286,
      "LNG": 127.111892,
      "BRT_SUBID": "C",
      "ROUTE_ID": 305001520,
      "STOP_NAME": "신원아침도시.힐스테이트",
      "SERVICE_ID": 32286,
      "NODE_ID": 305032286,
      "STOP_ORD": 2,
      "LAT": 35.816521
    },
    {
      "ROUTE_NAME": "165",
      "ROUTE_ORD": 3,
      "STOP_ID": 305100580,
      "LNG": 127.11299794,
      "BRT_SUBID": "C",
      "ROUTE_ID": 305001520,
      "STOP_NAME": "거마평로이동교",
      "SERVICE_ID": 30580,
      "NODE_ID": 305100580,
      "STOP_ORD": 3,
      "LAT": 35.81342648
    },
    {
      "ROUTE_NAME": "165",
      "ROUTE_ORD": 4,
      "STOP_ID": 305100552,
      "LNG": 127.11455012,
      "BRT_SUBID": "C",
      "ROUTE_ID": 305001520,
      "STOP_NAME": "서전주중",
      "SERVICE_ID": 30552,
      "NODE_ID": 305100552,
      "STOP_ORD": 4,
      "LAT": 35.81094588
    },
    {
      "ROUTE_NAME": "165",
      "ROUTE_ORD": 6,
      "STOP_ID": 305100504,
      "LNG": 127.11661714,
      "BRT_SUBID": "C",
      "ROUTE_ID": 305001520,
      "STOP_NAME": "거마평로안행교",
      "SERVICE_ID": 30504,
      "NODE_ID": 305100504,
      "STOP_ORD": 5,
      "LAT": 35.80577968
    },
    {
      "ROUTE_NAME": "165",
      "ROUTE_ORD": 7,
      "STOP_ID": 305100473,
      "LNG": 127.11661146,
      "BRT_SUBID": "C",
      "ROUTE_ID": 305001520,
      "STOP_NAME": "상산고",
      "SERVICE_ID": 30473,
      "NODE_ID": 305100473,
      "STOP_ORD": 6,
      "LAT": 35.80351383
    },
    {
      "ROUTE_NAME": "165",
      "ROUTE_ORD": 8,
      "STOP_ID": 305100430,
      "LNG": 127.116746,
      "BRT_SUBID": "C",
      "ROUTE_ID": 305001520,
      "STOP_NAME": "풍남중",
      "SERVICE_ID": 30430,
      "NODE_ID": 305100430,
      "STOP_ORD": 7,
      "LAT": 35.799513
    },
    {
      "ROUTE_NAME": "165",
      "ROUTE_ORD": 9,
      "STOP_ID": 305100379,
      "LNG": 127.11672632,
      "BRT_SUBID": "C",
      "ROUTE_ID": 305001520,
      "STOP_NAME": "삼천흥건2차아파트",
      "SERVICE_ID": 30379,
      "NODE_ID": 305100379,
      "STOP_ORD": 8,
      "LAT": 35.79604654
    },
    {
      "ROUTE_NAME": "165",
      "ROUTE_ORD": 10,
      "STOP_ID": 305100356,
      "LNG": 127.1167361,
      "BRT_SUBID": "C",
      "ROUTE_ID": 305001520,
      "STOP_NAME": "삼천흥건1차아파트",
      "SERVICE_ID": 30356,
      "NODE_ID": 305100356,
      "STOP_ORD": 9,
      "LAT": 35.79420696
    },
    {
      "ROUTE_NAME": "165",
      "ROUTE_ORD": 11,
      "STOP_ID": 305100337,
      "LNG": 127.11795448,
      "BRT_SUBID": "C",
      "ROUTE_ID": 305001520,
      "STOP_NAME": "한솔재활요양병원",
      "SERVICE_ID": 30337,
      "NODE_ID": 305100337,
      "STOP_ORD": 10,
      "LAT": 35.79232349
    },
    {
      "ROUTE_NAME": "165",
      "ROUTE_ORD": 12,
      "STOP_ID": 305100344,
      "LNG": 127.122502,
      "BRT_SUBID": "C",
      "ROUTE_ID": 305001520,
      "STOP_NAME": "평화동신아파트",
      "SERVICE_ID": 30344,
      "NODE_ID": 305100344,
      "STOP_ORD": 11,
      "LAT": 35.793152
    },
    {
      "ROUTE_NAME": "165",
      "ROUTE_ORD": 13,
      "STOP_ID": 305100350,
      "LNG": 127.125383,
      "BRT_SUBID": "C",
      "ROUTE_ID": 305001520,
      "STOP_NAME": "양지중학교",
      "SERVICE_ID": 30350,
      "NODE_ID": 305100350,
      "STOP_ORD": 12,
      "LAT": 35.793796
    },
    {
      "ROUTE_NAME": "165",
      "ROUTE_ORD": 14,
      "STOP_ID": 305100373,
      "LNG": 127.131343,
      "BRT_SUBID": "C",
      "ROUTE_ID": 305001520,
      "STOP_NAME": "농협평화지소",
      "SERVICE_ID": 30373,
      "NODE_ID": 305100373,
      "STOP_ORD": 13,
      "LAT": 35.795132
    },
    {
      "ROUTE_NAME": "165",
      "ROUTE_ORD": 15,
      "STOP_ID": 305100385,
      "LNG": 127.135699,
      "BRT_SUBID": "C",
      "ROUTE_ID": 305001520,
      "STOP_NAME": "꽃밭정이네거리",
      "SERVICE_ID": 30385,
      "NODE_ID": 305100385,
      "STOP_ORD": 14,
      "LAT": 35.79652
    },
    {
      "ROUTE_NAME": "165",
      "ROUTE_ORD": 16,
      "STOP_ID": 305100401,
      "LNG": 127.1390222,
      "BRT_SUBID": "C",
      "ROUTE_ID": 305001520,
      "STOP_NAME": "완산여고",
      "SERVICE_ID": 30401,
      "NODE_ID": 305100401,
      "STOP_ORD": 15,
      "LAT": 35.79770557
    },
    {
      "ROUTE_NAME": "165",
      "ROUTE_ORD": 17,
      "STOP_ID": 305100411,
      "LNG": 127.14142127,
      "BRT_SUBID": "C",
      "ROUTE_ID": 305001520,
      "STOP_NAME": "평화주공1.2단지",
      "SERVICE_ID": 30411,
      "NODE_ID": 305100411,
      "STOP_ORD": 16,
      "LAT": 35.798558
    },
    {
      "ROUTE_NAME": "165",
      "ROUTE_ORD": 18,
      "STOP_ID": 305100427,
      "LNG": 127.143604,
      "BRT_SUBID": "C",
      "ROUTE_ID": 305001520,
      "STOP_NAME": "장승백이",
      "SERVICE_ID": 30427,
      "NODE_ID": 305100427,
      "STOP_ORD": 17,
      "LAT": 35.79936984
    },
    {
      "ROUTE_NAME": "165",
      "ROUTE_ORD": 19,
      "STOP_ID": 305100449,
      "LNG": 127.14638647,
      "BRT_SUBID": "C",
      "ROUTE_ID": 305001520,
      "STOP_NAME": "서서학우정목련아파트",
      "SERVICE_ID": 30449,
      "NODE_ID": 305100449,
      "STOP_ORD": 18,
      "LAT": 35.80104093
    },
    {
      "ROUTE_NAME": "165",
      "ROUTE_ORD": 20,
      "STOP_ID": 305100480,
      "LNG": 127.148477,
      "BRT_SUBID": "C",
      "ROUTE_ID": 305001520,
      "STOP_NAME": "서서학예그린아파트",
      "SERVICE_ID": 30480,
      "NODE_ID": 305100480,
      "STOP_ORD": 19,
      "LAT": 35.803542
    },
    {
      "ROUTE_NAME": "165",
      "ROUTE_ORD": 21,
      "STOP_ID": 305100497,
      "LNG": 127.14953021,
      "BRT_SUBID": "C",
      "ROUTE_ID": 305001520,
      "STOP_NAME": "공수내다리",
      "SERVICE_ID": 30497,
      "NODE_ID": 305100497,
      "STOP_ORD": 20,
      "LAT": 35.80524638
    },
    {
      "ROUTE_NAME": "165",
      "ROUTE_ORD": 22,
      "STOP_ID": 305032532,
      "LNG": 127.1498173,
      "BRT_SUBID": "C",
      "ROUTE_ID": 305001520,
      "STOP_NAME": "서학예술마을.전주교대입구",
      "SERVICE_ID": 36466,
      "NODE_ID": 305032532,
      "STOP_ORD": 21,
      "LAT": 35.8078031
    },
    {
      "ROUTE_NAME": "165",
      "ROUTE_ORD": 23,
      "STOP_ID": 305100558,
      "LNG": 127.14973099,
      "BRT_SUBID": "C",
      "ROUTE_ID": 305001520,
      "STOP_NAME": "남부시장",
      "SERVICE_ID": 30558,
      "NODE_ID": 305100558,
      "STOP_ORD": 22,
      "LAT": 35.81132263
    },
    {
      "ROUTE_NAME": "165",
      "ROUTE_ORD": 24,
      "STOP_ID": 305100602,
      "LNG": 127.14835688,
      "BRT_SUBID": "C",
      "ROUTE_ID": 305001520,
      "STOP_NAME": "전동성당.한옥마을",
      "SERVICE_ID": 30602,
      "NODE_ID": 305100602,
      "STOP_ORD": 23,
      "LAT": 35.81462071
    },
    {
      "ROUTE_NAME": "165",
      "ROUTE_ORD": 25,
      "STOP_ID": 305100643,
      "LNG": 127.14748975,
      "BRT_SUBID": "C",
      "ROUTE_ID": 305001520,
      "STOP_NAME": "팔달로 예술회관",
      "SERVICE_ID": 30643,
      "NODE_ID": 305100643,
      "STOP_ORD": 24,
      "LAT": 35.81706612
    },
    {
      "ROUTE_NAME": "165",
      "ROUTE_ORD": 26,
      "STOP_ID": 305100683,
      "LNG": 127.146497,
      "BRT_SUBID": "C",
      "ROUTE_ID": 305001520,
      "STOP_NAME": "CTS전북방송",
      "SERVICE_ID": 30683,
      "NODE_ID": 305100683,
      "STOP_ORD": 25,
      "LAT": 35.820099
    },
    {
      "ROUTE_NAME": "165",
      "ROUTE_ORD": 27,
      "STOP_ID": 306100752,
      "LNG": 127.144695,
      "BRT_SUBID": "C",
      "ROUTE_ID": 305001520,
      "STOP_NAME": "중앙시장.세이브존",
      "SERVICE_ID": 30752,
      "NODE_ID": 306100752,
      "STOP_ORD": 26,
      "LAT": 35.824475
    },
    {
      "ROUTE_NAME": "165",
      "ROUTE_ORD": 28,
      "STOP_ID": 306100861,
      "LNG": 127.13871665,
      "BRT_SUBID": "C",
      "ROUTE_ID": 305001520,
      "STOP_NAME": "전북청소년상담센터",
      "SERVICE_ID": 30861,
      "NODE_ID": 306100861,
      "STOP_ORD": 27,
      "LAT": 35.83141844
    },
    {
      "ROUTE_NAME": "165",
      "ROUTE_ORD": 29,
      "STOP_ID": 306100911,
      "LNG": 127.137297,
      "BRT_SUBID": "C",
      "ROUTE_ID": 305001520,
      "STOP_NAME": "금암광장",
      "SERVICE_ID": 30911,
      "NODE_ID": 306100911,
      "STOP_ORD": 28,
      "LAT": 35.833069
    },
    {
      "ROUTE_NAME": "165",
      "ROUTE_ORD": 30,
      "STOP_ID": 306100969,
      "LNG": 127.13363898,
      "BRT_SUBID": "C",
      "ROUTE_ID": 305001520,
      "STOP_NAME": "금암동주민센터",
      "SERVICE_ID": 30969,
      "NODE_ID": 306100969,
      "STOP_ORD": 29,
      "LAT": 35.83678745
    },
    {
      "ROUTE_NAME": "165",
      "ROUTE_ORD": 31,
      "STOP_ID": 306101004,
      "LNG": 127.131042,
      "BRT_SUBID": "C",
      "ROUTE_ID": 305001520,
      "STOP_NAME": "고속버스터미널입구.전북일보사",
      "SERVICE_ID": 31003,
      "NODE_ID": 306101004,
      "STOP_ORD": 30,
      "LAT": 35.838631
    },
    {
      "ROUTE_NAME": "165",
      "ROUTE_ORD": 32,
      "STOP_ID": 306101035,
      "LNG": 127.127164,
      "BRT_SUBID": "C",
      "ROUTE_ID": 305001520,
      "STOP_NAME": "전북대학교.소나무한의원앞",
      "SERVICE_ID": 31034,
      "NODE_ID": 306101035,
      "STOP_ORD": 31,
      "LAT": 35.841467
    },
    {
      "ROUTE_NAME": "165",
      "ROUTE_ORD": 33,
      "STOP_ID": 306101084,
      "LNG": 127.12136775,
      "BRT_SUBID": "C",
      "ROUTE_ID": 305001520,
      "STOP_NAME": "기린대로덕진공원",
      "SERVICE_ID": 31083,
      "NODE_ID": 306101084,
      "STOP_ORD": 32,
      "LAT": 35.84574561
    },
    {
      "ROUTE_NAME": "165",
      "ROUTE_ORD": 34,
      "STOP_ID": 306101113,
      "LNG": 127.11968893,
      "BRT_SUBID": "C",
      "ROUTE_ID": 305001520,
      "STOP_NAME": "도립국악원",
      "SERVICE_ID": 31112,
      "NODE_ID": 306101113,
      "STOP_ORD": 33,
      "LAT": 35.84934543
    },
    {
      "ROUTE_NAME": "165",
      "ROUTE_ORD": 35,
      "STOP_ID": 306132039,
      "LNG": 127.121698,
      "BRT_SUBID": "C",
      "ROUTE_ID": 305001520,
      "STOP_NAME": "전북대학교컨벤션센터",
      "SERVICE_ID": 32039,
      "NODE_ID": 306132039,
      "STOP_ORD": 34,
      "LAT": 35.851166
    },
    {
      "ROUTE_NAME": "165",
      "ROUTE_ORD": 36,
      "STOP_ID": 306101155,
      "LNG": 127.126037,
      "BRT_SUBID": "C",
      "ROUTE_ID": 305001520,
      "STOP_NAME": "전북어린이창의체험관.덕암",
      "SERVICE_ID": 31154,
      "NODE_ID": 306101155,
      "STOP_ORD": 35,
      "LAT": 35.85265
    },
    {
      "ROUTE_NAME": "165",
      "ROUTE_ORD": 37,
      "STOP_ID": 306101147,
      "LNG": 127.129927,
      "BRT_SUBID": "C",
      "ROUTE_ID": 305001520,
      "STOP_NAME": "연화마을",
      "SERVICE_ID": 31146,
      "NODE_ID": 306101147,
      "STOP_ORD": 36,
      "LAT": 35.852081
    },
    {
      "ROUTE_NAME": "165",
      "ROUTE_ORD": 38,
      "STOP_ID": 306101164,
      "LNG": 127.13507863,
      "BRT_SUBID": "C",
      "ROUTE_ID": 305001520,
      "STOP_NAME": "실내배드민턴장 조경단",
      "SERVICE_ID": 31163,
      "NODE_ID": 306101164,
      "STOP_ORD": 37,
      "LAT": 35.85332241
    },
    {
      "ROUTE_NAME": "165",
      "ROUTE_ORD": 39,
      "STOP_ID": 306101176,
      "LNG": 127.139647,
      "BRT_SUBID": "C",
      "ROUTE_ID": 305001520,
      "STOP_NAME": "체련공원 소리문화의전당",
      "SERVICE_ID": 31175,
      "NODE_ID": 306101176,
      "STOP_ORD": 38,
      "LAT": 35.853933
    },
    {
      "ROUTE_NAME": "165",
      "ROUTE_ORD": 40,
      "STOP_ID": 306101213,
      "LNG": 127.14153729,
      "BRT_SUBID": "C",
      "ROUTE_ID": 305001520,
      "STOP_NAME": "전주동물원",
      "SERVICE_ID": 31212,
      "NODE_ID": 306101213,
      "STOP_ORD": 39,
      "LAT": 35.85448497
    }
  ]
}