{
  "resultList": [
    {
      "ROUTE_NAME": "119",
      "ROUTE_ORD": 1,
      "STOP_ID": 305100650,
      "LNG": 127.091818,
      "BRT_SUBID": "A",
      "ROUTE_ID": 305001620,
      "STOP_NAME": "전주대학교",
      "SERVICE_ID": 30650,
      "NODE_ID": 305100650,
      "STOP_ORD": 1,
      "LAT": 35.81849
    },
    {
      "ROUTE_NAME": "119",
      "ROUTE_ORD": 2,
      "STOP_ID": 305100609,
      "LNG": 127.09452694,
      "BRT_SUBID": "A",
      "ROUTE_ID": 305001620,
      "STOP_NAME": "영생고 전주대사대부고",
      "SERVICE_ID": 30609,
      "NODE_ID": 305100609,
      "STOP_ORD": 2,
      "LAT": 35.81512963
    },
    {
      "ROUTE_NAME": "119",
      "ROUTE_ORD": 3,
      "STOP_ID": 305100584,
      "LNG": 127.09807381,
      "BRT_SUBID": "A",
      "ROUTE_ID": 305001620,
      "STOP_NAME": "호남제일고",
      "SERVICE_ID": 30584,
      "NODE_ID": 305100584,
      "STOP_ORD": 3,
      "LAT": 35.81348304
    },
    {
      "ROUTE_NAME": "119",
      "ROUTE_ORD": 4,
      "STOP_ID": 305102000,
      "LNG": 127.104499,
      "BRT_SUBID": "A",
      "ROUTE_ID": 305001620,
      "STOP_NAME": "전북선거관리위원회",
      "SERVICE_ID": 32000,
      "NODE_ID": 305102000,
      "STOP_ORD": 4,
      "LAT": 35.813544
    },
    {
      "ROUTE_NAME": "119",
      "ROUTE_ORD": 5,
      "STOP_ID": 305100582,
      "LNG": 127.10812742,
      "BRT_SUBID": "A",
      "ROUTE_ID": 305001620,
      "STOP_NAME": "효자엘드아파트",
      "SERVICE_ID": 30582,
      "NODE_ID": 305100582,
      "STOP_ORD": 5,
      "LAT": 35.81345643
    },
    {
      "ROUTE_NAME": "119",
      "ROUTE_ORD": 6,
      "STOP_ID": 305100580,
      "LNG": 127.11299794,
      "BRT_SUBID": "A",
      "ROUTE_ID": 305001620,
      "STOP_NAME": "거마평로이동교",
      "SERVICE_ID": 30580,
      "NODE_ID": 305100580,
      "STOP_ORD": 6,
      "LAT": 35.81342648
    },
    {
      "ROUTE_NAME": "119",
      "ROUTE_ORD": 7,
      "STOP_ID": 305100552,
      "LNG": 127.11455012,
      "BRT_SUBID": "A",
      "ROUTE_ID": 305001620,
      "STOP_NAME": "서전주중",
      "SERVICE_ID": 30552,
      "NODE_ID": 305100552,
      "STOP_ORD": 7,
      "LAT": 35.81094588
    },
    {
      "ROUTE_NAME": "119",
      "ROUTE_ORD": 8,
      "STOP_ID": 305100515,
      "LNG": 127.11813,
      "BRT_SUBID": "A",
      "ROUTE_ID": 305001620,
      "STOP_NAME": "안행교",
      "SERVICE_ID": 30515,
      "NODE_ID": 305100515,
      "STOP_ORD": 8,
      "LAT": 35.806361
    },
    {
      "ROUTE_NAME": "119",
      "ROUTE_ORD": 9,
      "STOP_ID": 305100505,
      "LNG": 127.122202,
      "BRT_SUBID": "A",
      "ROUTE_ID": 305001620,
      "STOP_NAME": "효자광장.전주시청소년상담센터",
      "SERVICE_ID": 30505,
      "NODE_ID": 305100505,
      "STOP_ORD": 9,
      "LAT": 35.805883
    },
    {
      "ROUTE_NAME": "119",
      "ROUTE_ORD": 10,
      "STOP_ID": 305100508,
      "LNG": 127.127207,
      "BRT_SUBID": "A",
      "ROUTE_ID": 305001620,
      "STOP_NAME": "서부시장",
      "SERVICE_ID": 30508,
      "NODE_ID": 305100508,
      "STOP_ORD": 10,
      "LAT": 35.805909
    },
    {
      "ROUTE_NAME": "119",
      "ROUTE_ORD": 11,
      "STOP_ID": 305100521,
      "LNG": 127.13090392,
      "BRT_SUBID": "A",
      "ROUTE_ID": 305001620,
      "STOP_NAME": "효자주공3단지",
      "SERVICE_ID": 30521,
      "NODE_ID": 305100521,
      "STOP_ORD": 11,
      "LAT": 35.80703339
    },
    {
      "ROUTE_NAME": "119",
      "ROUTE_ORD": 12,
      "STOP_ID": 305100537,
      "LNG": 127.13690696,
      "BRT_SUBID": "A",
      "ROUTE_ID": 305001620,
      "STOP_NAME": "용머리고개.완산동주민센터",
      "SERVICE_ID": 30537,
      "NODE_ID": 305100537,
      "STOP_ORD": 12,
      "LAT": 35.80905101
    },
    {
      "ROUTE_NAME": "119",
      "ROUTE_ORD": 13,
      "STOP_ID": 305100567,
      "LNG": 127.13925744,
      "BRT_SUBID": "A",
      "ROUTE_ID": 305001620,
      "STOP_NAME": "완산동시외버스정류소",
      "SERVICE_ID": 30567,
      "NODE_ID": 305100567,
      "STOP_ORD": 13,
      "LAT": 35.81220216
    },
    {
      "ROUTE_NAME": "119",
      "ROUTE_ORD": 14,
      "STOP_ID": 305100600,
      "LNG": 127.139711,
      "BRT_SUBID": "A",
      "ROUTE_ID": 305001620,
      "STOP_NAME": "완산교",
      "SERVICE_ID": 36003,
      "NODE_ID": 305100600,
      "STOP_ORD": 14,
      "LAT": 35.814388
    },
    {
      "ROUTE_NAME": "119",
      "ROUTE_ORD": 15,
      "STOP_ID": 305100646,
      "LNG": 127.13925742,
      "BRT_SUBID": "A",
      "ROUTE_ID": 305001620,
      "STOP_NAME": "다가교",
      "SERVICE_ID": 30646,
      "NODE_ID": 305100646,
      "STOP_ORD": 15,
      "LAT": 35.8173306
    },
    {
      "ROUTE_NAME": "119",
      "ROUTE_ORD": 16,
      "STOP_ID": 305100691,
      "LNG": 127.13676333,
      "BRT_SUBID": "A",
      "ROUTE_ID": 305001620,
      "STOP_NAME": "도토리골다리",
      "SERVICE_ID": 30691,
      "NODE_ID": 305100691,
      "STOP_ORD": 16,
      "LAT": 35.82045026
    },
    {
      "ROUTE_NAME": "119",
      "ROUTE_ORD": 17,
      "STOP_ID": 305100758,
      "LNG": 127.13255888,
      "BRT_SUBID": "A",
      "ROUTE_ID": 305001620,
      "STOP_NAME": "어은골",
      "SERVICE_ID": 30758,
      "NODE_ID": 305100758,
      "STOP_ORD": 17,
      "LAT": 35.8244905
    },
    {
      "ROUTE_NAME": "119",
      "ROUTE_ORD": 18,
      "STOP_ID": 306100853,
      "LNG": 127.12894519,
      "BRT_SUBID": "A",
      "ROUTE_ID": 305001620,
      "STOP_NAME": "서신교",
      "SERVICE_ID": 30853,
      "NODE_ID": 306100853,
      "STOP_ORD": 18,
      "LAT": 35.83042842
    },
    {
      "ROUTE_NAME": "119",
      "ROUTE_ORD": 19,
      "STOP_ID": 306100907,
      "LNG": 127.12747,
      "BRT_SUBID": "A",
      "ROUTE_ID": 305001620,
      "STOP_NAME": "거성고속맨션.자원봉사센터.고속버스터미널입구",
      "SERVICE_ID": 30907,
      "NODE_ID": 306100907,
      "STOP_ORD": 19,
      "LAT": 35.833487
    },
    {
      "ROUTE_NAME": "119",
      "ROUTE_ORD": 20,
      "STOP_ID": 306100946,
      "LNG": 127.12591932,
      "BRT_SUBID": "A",
      "ROUTE_ID": 305001620,
      "STOP_NAME": "가리내로 백제교",
      "SERVICE_ID": 30946,
      "NODE_ID": 306100946,
      "STOP_ORD": 20,
      "LAT": 35.83487104
    },
    {
      "ROUTE_NAME": "119",
      "ROUTE_ORD": 21,
      "STOP_ID": 306100976,
      "LNG": 127.12143588,
      "BRT_SUBID": "A",
      "ROUTE_ID": 305001620,
      "STOP_NAME": "경기장거성아파트",
      "SERVICE_ID": 30975,
      "NODE_ID": 306100976,
      "STOP_ORD": 21,
      "LAT": 35.83700157
    },
    {
      "ROUTE_NAME": "119",
      "ROUTE_ORD": 22,
      "STOP_ID": 306101018,
      "LNG": 127.120534,
      "BRT_SUBID": "A",
      "ROUTE_ID": 305001620,
      "STOP_NAME": "한국건강관리협회",
      "SERVICE_ID": 31017,
      "NODE_ID": 306101018,
      "STOP_ORD": 22,
      "LAT": 35.840423
    },
    {
      "ROUTE_NAME": "119",
      "ROUTE_ORD": 23,
      "STOP_ID": 306101050,
      "LNG": 127.123296,
      "BRT_SUBID": "A",
      "ROUTE_ID": 305001620,
      "STOP_NAME": "KT북전주지점.덕진광장",
      "SERVICE_ID": 31049,
      "NODE_ID": 306101050,
      "STOP_ORD": 23,
      "LAT": 35.842967
    },
    {
      "ROUTE_NAME": "119",
      "ROUTE_ORD": 24,
      "STOP_ID": 306101044,
      "LNG": 127.12515768,
      "BRT_SUBID": "A",
      "ROUTE_ID": 305001620,
      "STOP_NAME": "전북대학교.농협앞",
      "SERVICE_ID": 31043,
      "NODE_ID": 306101044,
      "STOP_ORD": 24,
      "LAT": 35.84250102
    },
    {
      "ROUTE_NAME": "119",
      "ROUTE_ORD": 25,
      "STOP_ID": 306101017,
      "LNG": 127.13143203,
      "BRT_SUBID": "A",
      "ROUTE_ID": 305001620,
      "STOP_NAME": "전북은행본점",
      "SERVICE_ID": 31016,
      "NODE_ID": 306101017,
      "STOP_ORD": 25,
      "LAT": 35.84009301
    },
    {
      "ROUTE_NAME": "119",
      "ROUTE_ORD": 26,
      "STOP_ID": 306101020,
      "LNG": 127.134004,
      "BRT_SUBID": "A",
      "ROUTE_ID": 305001620,
      "STOP_NAME": "전주덕진소방서",
      "SERVICE_ID": 31019,
      "NODE_ID": 306101020,
      "STOP_ORD": 26,
      "LAT": 35.840953
    },
    {
      "ROUTE_NAME": "119",
      "ROUTE_ORD": 27,
      "STOP_ID": 306101046,
      "LNG": 127.139942,
      "BRT_SUBID": "A",
      "ROUTE_ID": 305001620,
      "STOP_NAME": "사대부고사거리",
      "SERVICE_ID": 31045,
      "NODE_ID": 306101046,
      "STOP_ORD": 27,
      "LAT": 35.842693
    },
    {
      "ROUTE_NAME": "119",
      "ROUTE_ORD": 28,
      "STOP_ID": 306101056,
      "LNG": 127.142764,
      "BRT_SUBID": "A",
      "ROUTE_ID": 305001620,
      "STOP_NAME": "전북대학병원입구",
      "SERVICE_ID": 31055,
      "NODE_ID": 306101056,
      "STOP_ORD": 28,
      "LAT": 35.843528
    },
    {
      "ROUTE_NAME": "119",
      "ROUTE_ORD": 29,
      "STOP_ID": 306101069,
      "LNG": 127.14664986,
      "BRT_SUBID": "A",
      "ROUTE_ID": 305001620,
      "STOP_NAME": "동전주우체국",
      "SERVICE_ID": 31068,
      "NODE_ID": 306101069,
      "STOP_ORD": 29,
      "LAT": 35.84463013
    },
    {
      "ROUTE_NAME": "119",
      "ROUTE_ORD": 30,
      "STOP_ID": 306101081,
      "LNG": 127.149528,
      "BRT_SUBID": "A",
      "ROUTE_ID": 305001620,
      "STOP_NAME": "새마을금고.한국국토정보공사",
      "SERVICE_ID": 31080,
      "NODE_ID": 306101081,
      "STOP_ORD": 30,
      "LAT": 35.845554
    },
    {
      "ROUTE_NAME": "119",
      "ROUTE_ORD": 31,
      "STOP_ID": 306101100,
      "LNG": 127.152264,
      "BRT_SUBID": "A",
      "ROUTE_ID": 305001620,
      "STOP_NAME": "청년회의소",
      "SERVICE_ID": 31099,
      "NODE_ID": 306101100,
      "STOP_ORD": 31,
      "LAT": 35.848861
    },
    {
      "ROUTE_NAME": "119",
      "ROUTE_ORD": 32,
      "STOP_ID": 305032682,
      "LNG": 127.1541219,
      "BRT_SUBID": "A",
      "ROUTE_ID": 305001620,
      "STOP_NAME": "우아한시티아파트",
      "SERVICE_ID": 36616,
      "NODE_ID": 305032682,
      "STOP_ORD": 32,
      "LAT": 35.8516665
    },
    {
      "ROUTE_NAME": "119",
      "ROUTE_ORD": 33,
      "STOP_ID": 306101190,
      "LNG": 127.155477,
      "BRT_SUBID": "A",
      "ROUTE_ID": 305001620,
      "STOP_NAME": "이편한세상 우아",
      "SERVICE_ID": 31189,
      "NODE_ID": 306101190,
      "STOP_ORD": 33,
      "LAT": 35.854368
    },
    {
      "ROUTE_NAME": "119",
      "ROUTE_ORD": 34,
      "STOP_ID": 306101193,
      "LNG": 127.15760015,
      "BRT_SUBID": "A",
      "ROUTE_ID": 305001620,
      "STOP_NAME": "기린중",
      "SERVICE_ID": 31192,
      "NODE_ID": 306101193,
      "STOP_ORD": 34,
      "LAT": 35.85455441
    },
    {
      "ROUTE_NAME": "119",
      "ROUTE_ORD": 35,
      "STOP_ID": 306101110,
      "LNG": 127.1588352,
      "BRT_SUBID": "A",
      "ROUTE_ID": 305001620,
      "STOP_NAME": "전주역첫마중길",
      "SERVICE_ID": 31109,
      "NODE_ID": 306101110,
      "STOP_ORD": 35,
      "LAT": 35.8488499
    },
    {
      "ROUTE_NAME": "119",
      "ROUTE_ORD": 36,
      "STOP_ID": 306101092,
      "LNG": 127.155193,
      "BRT_SUBID": "A",
      "ROUTE_ID": 305001620,
      "STOP_NAME": "덕진보건소.한국전기안전공사전북본부",
      "SERVICE_ID": 31091,
      "NODE_ID": 306101092,
      "STOP_ORD": 36,
      "LAT": 35.847489
    },
    {
      "ROUTE_NAME": "119",
      "ROUTE_ORD": 37,
      "STOP_ID": 306101080,
      "LNG": 127.15287844,
      "BRT_SUBID": "A",
      "ROUTE_ID": 305001620,
      "STOP_NAME": "명주골네거리.대자인병원",
      "SERVICE_ID": 31079,
      "NODE_ID": 306101080,
      "STOP_ORD": 37,
      "LAT": 35.84548171
    },
    {
      "ROUTE_NAME": "119",
      "ROUTE_ORD": 38,
      "STOP_ID": 306101019,
      "LNG": 127.15489706,
      "BRT_SUBID": "A",
      "ROUTE_ID": 305001620,
      "STOP_NAME": "북일초교",
      "SERVICE_ID": 31018,
      "NODE_ID": 306101019,
      "STOP_ORD": 38,
      "LAT": 35.84067342
    },
    {
      "ROUTE_NAME": "119",
      "ROUTE_ORD": 39,
      "STOP_ID": 306100972,
      "LNG": 127.15536026,
      "BRT_SUBID": "A",
      "ROUTE_ID": 305001620,
      "STOP_NAME": "안골",
      "SERVICE_ID": 30972,
      "NODE_ID": 306100972,
      "STOP_ORD": 39,
      "LAT": 35.83675952
    },
    {
      "ROUTE_NAME": "119",
      "ROUTE_ORD": 40,
      "STOP_ID": 306100965,
      "LNG": 127.15116098,
      "BRT_SUBID": "A",
      "ROUTE_ID": 305001620,
      "STOP_NAME": "인후휴먼시아아파트",
      "SERVICE_ID": 30965,
      "NODE_ID": 306100965,
      "STOP_ORD": 40,
      "LAT": 35.83641443
    },
    {
      "ROUTE_NAME": "119",
      "ROUTE_ORD": 41,
      "STOP_ID": 306100943,
      "LNG": 127.14759274,
      "BRT_SUBID": "A",
      "ROUTE_ID": 305001620,
      "STOP_NAME": "전주생명과학고등학교",
      "SERVICE_ID": 30943,
      "NODE_ID": 306100943,
      "STOP_ORD": 41,
      "LAT": 35.83506423
    },
    {
      "ROUTE_NAME": "119",
      "ROUTE_ORD": 42,
      "STOP_ID": 306100898,
      "LNG": 127.14490334,
      "BRT_SUBID": "A",
      "ROUTE_ID": 305001620,
      "STOP_NAME": "모래내시장",
      "SERVICE_ID": 30898,
      "NODE_ID": 306100898,
      "STOP_ORD": 42,
      "LAT": 35.83301705
    }
  ]
}