{
  "resultList": [
    {
      "ROUTE_NAME": "70",
      "ROUTE_ORD": 1,
      "STOP_ID": 312100570,
      "LNG": 127.2526613,
      "BRT_SUBID": "A",
      "ROUTE_ID": 305001718,
      "STOP_NAME": "민목리",
      "SERVICE_ID": 30570,
      "NODE_ID": 312100570,
      "STOP_ORD": 1,
      "LAT": 35.8122872
    },
    {
      "ROUTE_NAME": "70",
      "ROUTE_ORD": 2,
      "STOP_ID": 312100510,
      "LNG": 127.24494863,
      "BRT_SUBID": "A",
      "ROUTE_ID": 305001718,
      "STOP_NAME": "계월리",
      "SERVICE_ID": 30510,
      "NODE_ID": 312100510,
      "STOP_ORD": 2,
      "LAT": 35.8058649
    },
    {
      "ROUTE_NAME": "70",
      "ROUTE_ORD": 3,
      "STOP_ID": 312100437,
      "LNG": 127.2426376,
      "BRT_SUBID": "A",
      "ROUTE_ID": 305001718,
      "STOP_NAME": "부흥마을",
      "SERVICE_ID": 30437,
      "NODE_ID": 312100437,
      "STOP_ORD": 3,
      "LAT": 35.79973063
    },
    {
      "ROUTE_NAME": "70",
      "ROUTE_ORD": 4,
      "STOP_ID": 312100404,
      "LNG": 127.23790959,
      "BRT_SUBID": "A",
      "ROUTE_ID": 305001718,
      "STOP_NAME": "의암마을",
      "SERVICE_ID": 30404,
      "NODE_ID": 312100404,
      "STOP_ORD": 4,
      "LAT": 35.79795305
    },
    {
      "ROUTE_NAME": "70",
      "ROUTE_ORD": 5,
      "STOP_ID": 305032503,
      "LNG": 127.23540931,
      "BRT_SUBID": "A",
      "ROUTE_ID": 305001718,
      "STOP_NAME": "원의암마을",
      "SERVICE_ID": 36437,
      "NODE_ID": 305032503,
      "STOP_ORD": 5,
      "LAT": 35.79664242
    },
    {
      "ROUTE_NAME": "70",
      "ROUTE_ORD": 6,
      "STOP_ID": 312100347,
      "LNG": 127.229514,
      "BRT_SUBID": "A",
      "ROUTE_ID": 305001718,
      "STOP_NAME": "모정마을",
      "SERVICE_ID": 30347,
      "NODE_ID": 312100347,
      "STOP_ORD": 6,
      "LAT": 35.793247
    },
    {
      "ROUTE_NAME": "70",
      "ROUTE_ORD": 7,
      "STOP_ID": 305032471,
      "LNG": 127.2287491,
      "BRT_SUBID": "A",
      "ROUTE_ID": 305001718,
      "STOP_NAME": "묘동마을입구",
      "SERVICE_ID": 36405,
      "NODE_ID": 305032471,
      "STOP_ORD": 7,
      "LAT": 35.7892895
    },
    {
      "ROUTE_NAME": "70",
      "ROUTE_ORD": 8,
      "STOP_ID": 312100305,
      "LNG": 127.2271997,
      "BRT_SUBID": "A",
      "ROUTE_ID": 305001718,
      "STOP_NAME": "대판마을",
      "SERVICE_ID": 30305,
      "NODE_ID": 312100305,
      "STOP_ORD": 8,
      "LAT": 35.78616674
    },
    {
      "ROUTE_NAME": "70",
      "ROUTE_ORD": 9,
      "STOP_ID": 305032357,
      "LNG": 127.2301822,
      "BRT_SUBID": "A",
      "ROUTE_ID": 305001718,
      "STOP_NAME": "전통춤전수관",
      "SERVICE_ID": 36254,
      "NODE_ID": 305032357,
      "STOP_ORD": 9,
      "LAT": 35.77744436
    },
    {
      "ROUTE_NAME": "70",
      "ROUTE_ORD": 10,
      "STOP_ID": 312100254,
      "LNG": 127.23192646,
      "BRT_SUBID": "A",
      "ROUTE_ID": 305001718,
      "STOP_NAME": "용정리",
      "SERVICE_ID": 30254,
      "NODE_ID": 312100254,
      "STOP_ORD": 10,
      "LAT": 35.77512982
    },
    {
      "ROUTE_NAME": "70",
      "ROUTE_ORD": 11,
      "STOP_ID": 312100240,
      "LNG": 127.23545066,
      "BRT_SUBID": "A",
      "ROUTE_ID": 305001718,
      "STOP_NAME": "마치신덕마을",
      "SERVICE_ID": 30240,
      "NODE_ID": 312100240,
      "STOP_ORD": 11,
      "LAT": 35.773491
    },
    {
      "ROUTE_NAME": "70",
      "ROUTE_ORD": 12,
      "STOP_ID": 312100256,
      "LNG": 127.24443924,
      "BRT_SUBID": "A",
      "ROUTE_ID": 305001718,
      "STOP_NAME": "마치마을",
      "SERVICE_ID": 30256,
      "NODE_ID": 312100256,
      "STOP_ORD": 12,
      "LAT": 35.77606635
    },
    {
      "ROUTE_NAME": "70",
      "ROUTE_ORD": 13,
      "STOP_ID": 312100294,
      "LNG": 127.25219846,
      "BRT_SUBID": "A",
      "ROUTE_ID": 305001718,
      "STOP_NAME": "정수리",
      "SERVICE_ID": 30294,
      "NODE_ID": 312100294,
      "STOP_ORD": 13,
      "LAT": 35.78440813
    },
    {
      "ROUTE_NAME": "70",
      "ROUTE_ORD": 14,
      "STOP_ID": 305032716,
      "LNG": 127.256393,
      "BRT_SUBID": "A",
      "ROUTE_ID": 305001718,
      "STOP_NAME": "대흥마을",
      "SERVICE_ID": 36650,
      "NODE_ID": 305032716,
      "STOP_ORD": 14,
      "LAT": 35.791672
    },
    {
      "ROUTE_NAME": "70",
      "ROUTE_ORD": 15,
      "STOP_ID": 312100295,
      "LNG": 127.25203436,
      "BRT_SUBID": "A",
      "ROUTE_ID": 305001718,
      "STOP_NAME": "정수리",
      "SERVICE_ID": 30295,
      "NODE_ID": 312100295,
      "STOP_ORD": 15,
      "LAT": 35.78447802
    },
    {
      "ROUTE_NAME": "70",
      "ROUTE_ORD": 16,
      "STOP_ID": 312100259,
      "LNG": 127.24430907,
      "BRT_SUBID": "A",
      "ROUTE_ID": 305001718,
      "STOP_NAME": "마치마을",
      "SERVICE_ID": 30259,
      "NODE_ID": 312100259,
      "STOP_ORD": 16,
      "LAT": 35.77620521
    },
    {
      "ROUTE_NAME": "70",
      "ROUTE_ORD": 17,
      "STOP_ID": 312100241,
      "LNG": 127.23546009,
      "BRT_SUBID": "A",
      "ROUTE_ID": 305001718,
      "STOP_NAME": "마치신덕마을",
      "SERVICE_ID": 30241,
      "NODE_ID": 312100241,
      "STOP_ORD": 17,
      "LAT": 35.77361691
    },
    {
      "ROUTE_NAME": "70",
      "ROUTE_ORD": 18,
      "STOP_ID": 312100255,
      "LNG": 127.23199409,
      "BRT_SUBID": "A",
      "ROUTE_ID": 305001718,
      "STOP_NAME": "용정리",
      "SERVICE_ID": 30255,
      "NODE_ID": 312100255,
      "STOP_ORD": 18,
      "LAT": 35.77524801
    },
    {
      "ROUTE_NAME": "70",
      "ROUTE_ORD": 19,
      "STOP_ID": 305032358,
      "LNG": 127.23030119,
      "BRT_SUBID": "A",
      "ROUTE_ID": 305001718,
      "STOP_NAME": "전통춤전수관",
      "SERVICE_ID": 36255,
      "NODE_ID": 305032358,
      "STOP_ORD": 19,
      "LAT": 35.77748018
    },
    {
      "ROUTE_NAME": "70",
      "ROUTE_ORD": 20,
      "STOP_ID": 305032523,
      "LNG": 127.222951,
      "BRT_SUBID": "A",
      "ROUTE_ID": 305001718,
      "STOP_NAME": "마치교",
      "SERVICE_ID": 36457,
      "NODE_ID": 305032523,
      "STOP_ORD": 20,
      "LAT": 35.780188
    },
    {
      "ROUTE_NAME": "70",
      "ROUTE_ORD": 21,
      "STOP_ID": 312100267,
      "LNG": 127.21910092,
      "BRT_SUBID": "A",
      "ROUTE_ID": 305001718,
      "STOP_NAME": "수원지",
      "SERVICE_ID": 30267,
      "NODE_ID": 312100267,
      "STOP_ORD": 21,
      "LAT": 35.77841237
    },
    {
      "ROUTE_NAME": "70",
      "ROUTE_ORD": 22,
      "STOP_ID": 312100253,
      "LNG": 127.21652829,
      "BRT_SUBID": "A",
      "ROUTE_ID": 305001718,
      "STOP_NAME": "수월마을",
      "SERVICE_ID": 30253,
      "NODE_ID": 312100253,
      "STOP_ORD": 22,
      "LAT": 35.7748418
    },
    {
      "ROUTE_NAME": "70",
      "ROUTE_ORD": 23,
      "STOP_ID": 312100219,
      "LNG": 127.21414966,
      "BRT_SUBID": "A",
      "ROUTE_ID": 305001718,
      "STOP_NAME": "산바위입구",
      "SERVICE_ID": 30219,
      "NODE_ID": 312100219,
      "STOP_ORD": 23,
      "LAT": 35.76907973
    },
    {
      "ROUTE_NAME": "70",
      "ROUTE_ORD": 24,
      "STOP_ID": 312100213,
      "LNG": 127.2127541,
      "BRT_SUBID": "A",
      "ROUTE_ID": 305001718,
      "STOP_NAME": "상원신마을",
      "SERVICE_ID": 30213,
      "NODE_ID": 312100213,
      "STOP_ORD": 24,
      "LAT": 35.7678054
    },
    {
      "ROUTE_NAME": "70",
      "ROUTE_ORD": 25,
      "STOP_ID": 312100217,
      "LNG": 127.2099731,
      "BRT_SUBID": "A",
      "ROUTE_ID": 305001718,
      "STOP_NAME": "상관농협",
      "SERVICE_ID": 30217,
      "NODE_ID": 312100217,
      "STOP_ORD": 25,
      "LAT": 35.7686679
    },
    {
      "ROUTE_NAME": "70",
      "ROUTE_ORD": 26,
      "STOP_ID": 312100227,
      "LNG": 127.20863961,
      "BRT_SUBID": "A",
      "ROUTE_ID": 305001718,
      "STOP_NAME": "상관주민센터",
      "SERVICE_ID": 30227,
      "NODE_ID": 312100227,
      "STOP_ORD": 26,
      "LAT": 35.77032849
    },
    {
      "ROUTE_NAME": "70",
      "ROUTE_ORD": 27,
      "STOP_ID": 312100245,
      "LNG": 127.20526319,
      "BRT_SUBID": "A",
      "ROUTE_ID": 305001718,
      "STOP_NAME": "상관농협로컬푸드",
      "SERVICE_ID": 30245,
      "NODE_ID": 312100245,
      "STOP_ORD": 27,
      "LAT": 35.77409709
    }
  ]
}