{
  "resultList": [
    {
      "ROUTE_NAME": "19",
      "ROUTE_ORD": 1,
      "STOP_ID": 311101241,
      "LNG": 126.99077459,
      "BRT_SUBID": "C",
      "ROUTE_ID": 305001807,
      "STOP_NAME": "춘강",
      "SERVICE_ID": 31240,
      "NODE_ID": 311101241,
      "STOP_ORD": 1,
      "LAT": 35.85802494
    },
    {
      "ROUTE_NAME": "19",
      "ROUTE_ORD": 2,
      "STOP_ID": 311101316,
      "LNG": 126.99027003,
      "BRT_SUBID": "C",
      "ROUTE_ID": 305001807,
      "STOP_NAME": "산지촌마을",
      "SERVICE_ID": 31315,
      "NODE_ID": 311101316,
      "STOP_ORD": 2,
      "LAT": 35.86404858
    },
    {
      "ROUTE_NAME": "19",
      "ROUTE_ORD": 3,
      "STOP_ID": 311101360,
      "LNG": 126.99186977,
      "BRT_SUBID": "C",
      "ROUTE_ID": 305001807,
      "STOP_NAME": "영천마을",
      "SERVICE_ID": 31359,
      "NODE_ID": 311101360,
      "STOP_ORD": 3,
      "LAT": 35.86779329
    },
    {
      "ROUTE_NAME": "19",
      "ROUTE_ORD": 4,
      "STOP_ID": 311101468,
      "LNG": 126.99608171,
      "BRT_SUBID": "C",
      "ROUTE_ID": 305001807,
      "STOP_NAME": "난산초교",
      "SERVICE_ID": 31467,
      "NODE_ID": 311101468,
      "STOP_ORD": 4,
      "LAT": 35.87709627
    },
    {
      "ROUTE_NAME": "19",
      "ROUTE_ORD": 5,
      "STOP_ID": 311101464,
      "LNG": 126.99889135,
      "BRT_SUBID": "C",
      "ROUTE_ID": 305001807,
      "STOP_NAME": "득자마을",
      "SERVICE_ID": 31463,
      "NODE_ID": 311101464,
      "STOP_ORD": 5,
      "LAT": 35.87678825
    },
    {
      "ROUTE_NAME": "19",
      "ROUTE_ORD": 6,
      "STOP_ID": 311101442,
      "LNG": 127.0050109,
      "BRT_SUBID": "C",
      "ROUTE_ID": 305001807,
      "STOP_NAME": "득룡교",
      "SERVICE_ID": 31441,
      "NODE_ID": 311101442,
      "STOP_ORD": 6,
      "LAT": 35.87523353
    },
    {
      "ROUTE_NAME": "19",
      "ROUTE_ORD": 7,
      "STOP_ID": 306101452,
      "LNG": 127.01766116,
      "BRT_SUBID": "C",
      "ROUTE_ID": 305001807,
      "STOP_NAME": "남정리입구",
      "SERVICE_ID": 31451,
      "NODE_ID": 306101452,
      "STOP_ORD": 7,
      "LAT": 35.87579598
    },
    {
      "ROUTE_NAME": "19",
      "ROUTE_ORD": 8,
      "STOP_ID": 305032451,
      "LNG": 127.0277171,
      "BRT_SUBID": "C",
      "ROUTE_ID": 305001807,
      "STOP_NAME": "매암마을",
      "SERVICE_ID": 36385,
      "NODE_ID": 305032451,
      "STOP_ORD": 8,
      "LAT": 35.8760376
    },
    {
      "ROUTE_NAME": "19",
      "ROUTE_ORD": 9,
      "STOP_ID": 306101460,
      "LNG": 127.03095478,
      "BRT_SUBID": "C",
      "ROUTE_ID": 305001807,
      "STOP_NAME": "성덕",
      "SERVICE_ID": 31459,
      "NODE_ID": 306101460,
      "STOP_ORD": 9,
      "LAT": 35.87621671
    },
    {
      "ROUTE_NAME": "19",
      "ROUTE_ORD": 10,
      "STOP_ID": 306101467,
      "LNG": 127.03972137,
      "BRT_SUBID": "C",
      "ROUTE_ID": 305001807,
      "STOP_NAME": "대흥리",
      "SERVICE_ID": 31466,
      "NODE_ID": 306101467,
      "STOP_ORD": 10,
      "LAT": 35.87700746
    },
    {
      "ROUTE_NAME": "19",
      "ROUTE_ORD": 11,
      "STOP_ID": 305032555,
      "LNG": 127.0409817,
      "BRT_SUBID": "C",
      "ROUTE_ID": 305001807,
      "STOP_NAME": "칠정경로당",
      "SERVICE_ID": 36489,
      "NODE_ID": 305032555,
      "STOP_ORD": 11,
      "LAT": 35.875484
    },
    {
      "ROUTE_NAME": "19",
      "ROUTE_ORD": 12,
      "STOP_ID": 305032556,
      "LNG": 127.0410481,
      "BRT_SUBID": "C",
      "ROUTE_ID": 305001807,
      "STOP_NAME": "칠정경로당",
      "SERVICE_ID": 36490,
      "NODE_ID": 305032556,
      "STOP_ORD": 12,
      "LAT": 35.8755113
    },
    {
      "ROUTE_NAME": "19",
      "ROUTE_ORD": 13,
      "STOP_ID": 306101436,
      "LNG": 127.05010024,
      "BRT_SUBID": "C",
      "ROUTE_ID": 305001807,
      "STOP_NAME": "번영로용덕마을",
      "SERVICE_ID": 31435,
      "NODE_ID": 306101436,
      "STOP_ORD": 13,
      "LAT": 35.87489681
    },
    {
      "ROUTE_NAME": "19",
      "ROUTE_ORD": 15,
      "STOP_ID": 306101420,
      "LNG": 127.06027,
      "BRT_SUBID": "C",
      "ROUTE_ID": 305001807,
      "STOP_NAME": "전주IC",
      "SERVICE_ID": 31419,
      "NODE_ID": 306101420,
      "STOP_ORD": 14,
      "LAT": 35.87384
    },
    {
      "ROUTE_NAME": "19",
      "ROUTE_ORD": 16,
      "STOP_ID": 305032290,
      "LNG": 127.063826,
      "BRT_SUBID": "C",
      "ROUTE_ID": 305001807,
      "STOP_NAME": "반월동농협",
      "SERVICE_ID": 32290,
      "NODE_ID": 305032290,
      "STOP_ORD": 15,
      "LAT": 35.873944
    },
    {
      "ROUTE_NAME": "19",
      "ROUTE_ORD": 17,
      "STOP_ID": 306101423,
      "LNG": 127.07029,
      "BRT_SUBID": "C",
      "ROUTE_ID": 305001807,
      "STOP_NAME": "반월동 삼오아파트",
      "SERVICE_ID": 31422,
      "NODE_ID": 306101423,
      "STOP_ORD": 16,
      "LAT": 35.873888
    },
    {
      "ROUTE_NAME": "19",
      "ROUTE_ORD": 18,
      "STOP_ID": 306101421,
      "LNG": 127.07261016,
      "BRT_SUBID": "C",
      "ROUTE_ID": 305001807,
      "STOP_NAME": "반월주공아파트.오네뜨아파트",
      "SERVICE_ID": 31420,
      "NODE_ID": 306101421,
      "STOP_ORD": 17,
      "LAT": 35.87383249
    },
    {
      "ROUTE_NAME": "19",
      "ROUTE_ORD": 19,
      "STOP_ID": 306101411,
      "LNG": 127.07591729,
      "BRT_SUBID": "C",
      "ROUTE_ID": 305001807,
      "STOP_NAME": "여의동우체국",
      "SERVICE_ID": 31410,
      "NODE_ID": 306101411,
      "STOP_ORD": 18,
      "LAT": 35.8723613
    },
    {
      "ROUTE_NAME": "19",
      "ROUTE_ORD": 20,
      "STOP_ID": 306101368,
      "LNG": 127.0779079,
      "BRT_SUBID": "C",
      "ROUTE_ID": 305001807,
      "STOP_NAME": "조촌초교.제일아파트",
      "SERVICE_ID": 31367,
      "NODE_ID": 306101368,
      "STOP_ORD": 19,
      "LAT": 35.86812128
    },
    {
      "ROUTE_NAME": "19",
      "ROUTE_ORD": 21,
      "STOP_ID": 306101362,
      "LNG": 127.07449234,
      "BRT_SUBID": "C",
      "ROUTE_ID": 305001807,
      "STOP_NAME": "대한산업보건협회.푸른솔아파트",
      "SERVICE_ID": 31361,
      "NODE_ID": 306101362,
      "STOP_ORD": 20,
      "LAT": 35.867854
    },
    {
      "ROUTE_NAME": "19",
      "ROUTE_ORD": 22,
      "STOP_ID": 305032184,
      "LNG": 127.069416,
      "BRT_SUBID": "C",
      "ROUTE_ID": 305001807,
      "STOP_NAME": "시외고속간이터미널",
      "SERVICE_ID": 32184,
      "NODE_ID": 305032184,
      "STOP_ORD": 21,
      "LAT": 35.870356
    },
    {
      "ROUTE_NAME": "19",
      "ROUTE_ORD": 23,
      "STOP_ID": 305032760,
      "LNG": 127.06575485,
      "BRT_SUBID": "C",
      "ROUTE_ID": 305001807,
      "STOP_NAME": "북전주농협 하나로마트",
      "SERVICE_ID": 36694,
      "NODE_ID": 305032760,
      "STOP_ORD": 22,
      "LAT": 35.872217
    },
    {
      "ROUTE_NAME": "19",
      "ROUTE_ORD": 24,
      "STOP_ID": 312032232,
      "LNG": 127.061579,
      "BRT_SUBID": "C",
      "ROUTE_ID": 305001807,
      "STOP_NAME": "원반월마을",
      "SERVICE_ID": 32232,
      "NODE_ID": 312032232,
      "STOP_ORD": 23,
      "LAT": 35.870345
    },
    {
      "ROUTE_NAME": "19",
      "ROUTE_ORD": 25,
      "STOP_ID": 306101339,
      "LNG": 127.063784,
      "BRT_SUBID": "C",
      "ROUTE_ID": 305001807,
      "STOP_NAME": "월드컵경기장남문",
      "SERVICE_ID": 31338,
      "NODE_ID": 306101339,
      "STOP_ORD": 24,
      "LAT": 35.866143
    },
    {
      "ROUTE_NAME": "19",
      "ROUTE_ORD": 26,
      "STOP_ID": 305032550,
      "LNG": 127.064192,
      "BRT_SUBID": "C",
      "ROUTE_ID": 305001807,
      "STOP_NAME": "월드컵경기장",
      "SERVICE_ID": 36484,
      "NODE_ID": 305032550,
      "STOP_ORD": 25,
      "LAT": 35.866274
    }
  ]
}