{
  "resultList": [
    {
      "ROUTE_NAME": "82-2",
      "ROUTE_ORD": 1,
      "STOP_ID": 312101840,
      "LNG": 127.26236777,
      "BRT_SUBID": "A",
      "ROUTE_ID": 305001675,
      "STOP_NAME": "앞멀",
      "SERVICE_ID": 31839,
      "NODE_ID": 312101840,
      "STOP_ORD": 1,
      "LAT": 35.94200004
    },
    {
      "ROUTE_NAME": "82-2",
      "ROUTE_ORD": 2,
      "STOP_ID": 305032348,
      "LNG": 127.2687053,
      "BRT_SUBID": "A",
      "ROUTE_ID": 305001675,
      "STOP_NAME": "단지",
      "SERVICE_ID": 36242,
      "NODE_ID": 305032348,
      "STOP_ORD": 2,
      "LAT": 35.9340647
    },
    {
      "ROUTE_NAME": "82-2",
      "ROUTE_ORD": 3,
      "STOP_ID": 312032328,
      "LNG": 127.27026603,
      "BRT_SUBID": "A",
      "ROUTE_ID": 305001675,
      "STOP_NAME": "수만마을",
      "SERVICE_ID": 32328,
      "NODE_ID": 312032328,
      "STOP_ORD": 3,
      "LAT": 35.93053641
    },
    {
      "ROUTE_NAME": "82-2",
      "ROUTE_ORD": 4,
      "STOP_ID": 312101992,
      "LNG": 127.27152484,
      "BRT_SUBID": "A",
      "ROUTE_ID": 305001675,
      "STOP_NAME": "입석마을",
      "SERVICE_ID": 31991,
      "NODE_ID": 312101992,
      "STOP_ORD": 4,
      "LAT": 35.92538892
    },
    {
      "ROUTE_NAME": "82-2",
      "ROUTE_ORD": 5,
      "STOP_ID": 312101733,
      "LNG": 127.26967033,
      "BRT_SUBID": "A",
      "ROUTE_ID": 305001675,
      "STOP_NAME": "지향마을",
      "SERVICE_ID": 31732,
      "NODE_ID": 312101733,
      "STOP_ORD": 5,
      "LAT": 35.92053338
    },
    {
      "ROUTE_NAME": "82-2",
      "ROUTE_ORD": 6,
      "STOP_ID": 312101646,
      "LNG": 127.25570224,
      "BRT_SUBID": "A",
      "ROUTE_ID": 305001675,
      "STOP_NAME": "위봉마을",
      "SERVICE_ID": 31645,
      "NODE_ID": 312101646,
      "STOP_ORD": 6,
      "LAT": 35.90551184
    },
    {
      "ROUTE_NAME": "82-2",
      "ROUTE_ORD": 7,
      "STOP_ID": 312032223,
      "LNG": 127.2523357,
      "BRT_SUBID": "A",
      "ROUTE_ID": 305001675,
      "STOP_NAME": "위봉산성",
      "SERVICE_ID": 32223,
      "NODE_ID": 312032223,
      "STOP_ORD": 7,
      "LAT": 35.90511034
    },
    {
      "ROUTE_NAME": "82-2",
      "ROUTE_ORD": 8,
      "STOP_ID": 305032745,
      "LNG": 127.24425488,
      "BRT_SUBID": "A",
      "ROUTE_ID": 305001675,
      "STOP_NAME": "오성풍류학교",
      "SERVICE_ID": 36679,
      "NODE_ID": 305032745,
      "STOP_ORD": 8,
      "LAT": 35.90436965
    },
    {
      "ROUTE_NAME": "82-2",
      "ROUTE_ORD": 9,
      "STOP_ID": 312101634,
      "LNG": 127.2401117,
      "BRT_SUBID": "A",
      "ROUTE_ID": 305001675,
      "STOP_NAME": "오성리",
      "SERVICE_ID": 31633,
      "NODE_ID": 312101634,
      "STOP_ORD": 9,
      "LAT": 35.90170537
    },
    {
      "ROUTE_NAME": "82-2",
      "ROUTE_ORD": 10,
      "STOP_ID": 305032350,
      "LNG": 127.2417911,
      "BRT_SUBID": "A",
      "ROUTE_ID": 305001675,
      "STOP_NAME": "백운암마을",
      "SERVICE_ID": 36244,
      "NODE_ID": 305032350,
      "STOP_ORD": 10,
      "LAT": 35.8956511
    },
    {
      "ROUTE_NAME": "82-2",
      "ROUTE_ORD": 11,
      "STOP_ID": 312101590,
      "LNG": 127.24264388,
      "BRT_SUBID": "A",
      "ROUTE_ID": 305001675,
      "STOP_NAME": "송광정심원",
      "SERVICE_ID": 31589,
      "NODE_ID": 312101590,
      "STOP_ORD": 11,
      "LAT": 35.89176118
    },
    {
      "ROUTE_NAME": "82-2",
      "ROUTE_ORD": 12,
      "STOP_ID": 312102002,
      "LNG": 127.24324561,
      "BRT_SUBID": "A",
      "ROUTE_ID": 305001675,
      "STOP_NAME": "송광마을",
      "SERVICE_ID": 32002,
      "NODE_ID": 312102002,
      "STOP_ORD": 12,
      "LAT": 35.88677485
    },
    {
      "ROUTE_NAME": "82-2",
      "ROUTE_ORD": 13,
      "STOP_ID": 312101526,
      "LNG": 127.24317502,
      "BRT_SUBID": "A",
      "ROUTE_ID": 305001675,
      "STOP_NAME": "송광사.송광초교",
      "SERVICE_ID": 31525,
      "NODE_ID": 312101526,
      "STOP_ORD": 13,
      "LAT": 35.88355097
    },
    {
      "ROUTE_NAME": "82-2",
      "ROUTE_ORD": 14,
      "STOP_ID": 312101520,
      "LNG": 127.24315533,
      "BRT_SUBID": "A",
      "ROUTE_ID": 305001675,
      "STOP_NAME": "송광사",
      "SERVICE_ID": 31519,
      "NODE_ID": 312101520,
      "STOP_ORD": 14,
      "LAT": 35.88260226
    },
    {
      "ROUTE_NAME": "82-2",
      "ROUTE_ORD": 15,
      "STOP_ID": 305032351,
      "LNG": 127.24380209,
      "BRT_SUBID": "A",
      "ROUTE_ID": 305001675,
      "STOP_NAME": "대흥리",
      "SERVICE_ID": 36245,
      "NODE_ID": 305032351,
      "STOP_ORD": 15,
      "LAT": 35.87953219
    },
    {
      "ROUTE_NAME": "82-2",
      "ROUTE_ORD": 16,
      "STOP_ID": 312101429,
      "LNG": 127.246171,
      "BRT_SUBID": "A",
      "ROUTE_ID": 305001675,
      "STOP_NAME": "전북교통문화연수원",
      "SERVICE_ID": 31428,
      "NODE_ID": 312101429,
      "STOP_ORD": 16,
      "LAT": 35.873675
    },
    {
      "ROUTE_NAME": "82-2",
      "ROUTE_ORD": 17,
      "STOP_ID": 312101385,
      "LNG": 127.24846245,
      "BRT_SUBID": "A",
      "ROUTE_ID": 305001675,
      "STOP_NAME": "마수마을",
      "SERVICE_ID": 31384,
      "NODE_ID": 312101385,
      "STOP_ORD": 17,
      "LAT": 35.86950082
    },
    {
      "ROUTE_NAME": "82-2",
      "ROUTE_ORD": 18,
      "STOP_ID": 305032510,
      "LNG": 127.2493261,
      "BRT_SUBID": "A",
      "ROUTE_ID": 305001675,
      "STOP_NAME": "봉덕교삼거리",
      "SERVICE_ID": 36444,
      "NODE_ID": 305032510,
      "STOP_ORD": 18,
      "LAT": 35.8678389
    },
    {
      "ROUTE_NAME": "82-2",
      "ROUTE_ORD": 19,
      "STOP_ID": 312101331,
      "LNG": 127.24722008,
      "BRT_SUBID": "A",
      "ROUTE_ID": 305001675,
      "STOP_NAME": "전북체육고 마수리",
      "SERVICE_ID": 31330,
      "NODE_ID": 312101331,
      "STOP_ORD": 19,
      "LAT": 35.8650848
    },
    {
      "ROUTE_NAME": "82-2",
      "ROUTE_ORD": 20,
      "STOP_ID": 312101286,
      "LNG": 127.24227084,
      "BRT_SUBID": "A",
      "ROUTE_ID": 305001675,
      "STOP_NAME": "용연마을",
      "SERVICE_ID": 31285,
      "NODE_ID": 312101286,
      "STOP_ORD": 20,
      "LAT": 35.86121946
    },
    {
      "ROUTE_NAME": "82-2",
      "ROUTE_ORD": 21,
      "STOP_ID": 312101276,
      "LNG": 127.23912268,
      "BRT_SUBID": "A",
      "ROUTE_ID": 305001675,
      "STOP_NAME": "인덕마을입구",
      "SERVICE_ID": 31275,
      "NODE_ID": 312101276,
      "STOP_ORD": 21,
      "LAT": 35.86022944
    },
    {
      "ROUTE_NAME": "82-2",
      "ROUTE_ORD": 22,
      "STOP_ID": 312101218,
      "LNG": 127.23316474,
      "BRT_SUBID": "A",
      "ROUTE_ID": 305001675,
      "STOP_NAME": "소양",
      "SERVICE_ID": 31217,
      "NODE_ID": 312101218,
      "STOP_ORD": 22,
      "LAT": 35.85581764
    },
    {
      "ROUTE_NAME": "82-2",
      "ROUTE_ORD": 23,
      "STOP_ID": 312101196,
      "LNG": 127.2291111,
      "BRT_SUBID": "A",
      "ROUTE_ID": 305001675,
      "STOP_NAME": "소양119지역대",
      "SERVICE_ID": 31195,
      "NODE_ID": 312101196,
      "STOP_ORD": 23,
      "LAT": 35.85458355
    },
    {
      "ROUTE_NAME": "82-2",
      "ROUTE_ORD": 24,
      "STOP_ID": 312101171,
      "LNG": 127.22516257,
      "BRT_SUBID": "A",
      "ROUTE_ID": 305001675,
      "STOP_NAME": "소양행정복지센터",
      "SERVICE_ID": 31170,
      "NODE_ID": 312101171,
      "STOP_ORD": 24,
      "LAT": 35.85349548
    },
    {
      "ROUTE_NAME": "82-2",
      "ROUTE_ORD": 25,
      "STOP_ID": 312101166,
      "LNG": 127.22481892,
      "BRT_SUBID": "A",
      "ROUTE_ID": 305001675,
      "STOP_NAME": "소양행정복지센터",
      "SERVICE_ID": 31165,
      "NODE_ID": 312101166,
      "STOP_ORD": 25,
      "LAT": 35.85333055
    },
    {
      "ROUTE_NAME": "82-2",
      "ROUTE_ORD": 26,
      "STOP_ID": 312101195,
      "LNG": 127.22892691,
      "BRT_SUBID": "A",
      "ROUTE_ID": 305001675,
      "STOP_NAME": "소양119지역대",
      "SERVICE_ID": 31194,
      "NODE_ID": 312101195,
      "STOP_ORD": 26,
      "LAT": 35.85441152
    },
    {
      "ROUTE_NAME": "82-2",
      "ROUTE_ORD": 27,
      "STOP_ID": 312101216,
      "LNG": 127.23294515,
      "BRT_SUBID": "A",
      "ROUTE_ID": 305001675,
      "STOP_NAME": "소양",
      "SERVICE_ID": 31215,
      "NODE_ID": 312101216,
      "STOP_ORD": 27,
      "LAT": 35.85562696
    },
    {
      "ROUTE_NAME": "82-2",
      "ROUTE_ORD": 28,
      "STOP_ID": 312101126,
      "LNG": 127.23898968,
      "BRT_SUBID": "A",
      "ROUTE_ID": 305001675,
      "STOP_NAME": "하망표",
      "SERVICE_ID": 31125,
      "NODE_ID": 312101126,
      "STOP_ORD": 28,
      "LAT": 35.85008537
    },
    {
      "ROUTE_NAME": "82-2",
      "ROUTE_ORD": 29,
      "STOP_ID": 312101032,
      "LNG": 127.2395354,
      "BRT_SUBID": "A",
      "ROUTE_ID": 305001675,
      "STOP_NAME": "상망표",
      "SERVICE_ID": 31031,
      "NODE_ID": 312101032,
      "STOP_ORD": 29,
      "LAT": 35.84107106
    }
  ]
}