{
  "resultList": [
    {
      "ROUTE_NAME": "101",
      "ROUTE_ORD": 1,
      "STOP_ID": 305132105,
      "LNG": 127.1226872,
      "BRT_SUBID": "0",
      "ROUTE_ID": 305001089,
      "STOP_NAME": "평화동종점",
      "SERVICE_ID": 32105,
      "NODE_ID": 305132105,
      "STOP_ORD": 1,
      "LAT": 35.77802464
    },
    {
      "ROUTE_NAME": "101",
      "ROUTE_ORD": 2,
      "STOP_ID": 305132106,
      "LNG": 127.1279211,
      "BRT_SUBID": "0",
      "ROUTE_ID": 305001089,
      "STOP_NAME": "문정마을",
      "SERVICE_ID": 32106,
      "NODE_ID": 305132106,
      "STOP_ORD": 2,
      "LAT": 35.77781936
    },
    {
      "ROUTE_NAME": "101",
      "ROUTE_ORD": 3,
      "STOP_ID": 305100279,
      "LNG": 127.129321,
      "BRT_SUBID": "0",
      "ROUTE_ID": 305001089,
      "STOP_NAME": "전주교도소",
      "SERVICE_ID": 30279,
      "NODE_ID": 305100279,
      "STOP_ORD": 3,
      "LAT": 35.779327
    },
    {
      "ROUTE_NAME": "101",
      "ROUTE_ORD": 4,
      "STOP_ID": 305100293,
      "LNG": 127.12998758,
      "BRT_SUBID": "0",
      "ROUTE_ID": 305001089,
      "STOP_NAME": "평화그린1차아파트",
      "SERVICE_ID": 30293,
      "NODE_ID": 305100293,
      "STOP_ORD": 4,
      "LAT": 35.78420517
    },
    {
      "ROUTE_NAME": "101",
      "ROUTE_ORD": 5,
      "STOP_ID": 305100300,
      "LNG": 127.134111,
      "BRT_SUBID": "0",
      "ROUTE_ID": 305001089,
      "STOP_NAME": "평화그린2차아파트",
      "SERVICE_ID": 30300,
      "NODE_ID": 305100300,
      "STOP_ORD": 5,
      "LAT": 35.785667
    },
    {
      "ROUTE_NAME": "101",
      "ROUTE_ORD": 6,
      "STOP_ID": 305100316,
      "LNG": 127.13535,
      "BRT_SUBID": "0",
      "ROUTE_ID": 305001089,
      "STOP_NAME": "평화동신성마을",
      "SERVICE_ID": 30316,
      "NODE_ID": 305100316,
      "STOP_ORD": 6,
      "LAT": 35.7886
    },
    {
      "ROUTE_NAME": "101",
      "ROUTE_ORD": 7,
      "STOP_ID": 305100333,
      "LNG": 127.13617225,
      "BRT_SUBID": "0",
      "ROUTE_ID": 305001089,
      "STOP_NAME": "평화우체국 평화건강생활지원센터",
      "SERVICE_ID": 30333,
      "NODE_ID": 305100333,
      "STOP_ORD": 7,
      "LAT": 35.79132522
    },
    {
      "ROUTE_NAME": "101",
      "ROUTE_ORD": 8,
      "STOP_ID": 305100380,
      "LNG": 127.13656873,
      "BRT_SUBID": "0",
      "ROUTE_ID": 305001089,
      "STOP_NAME": "평화2동주민센터",
      "SERVICE_ID": 30380,
      "NODE_ID": 305100380,
      "STOP_ORD": 8,
      "LAT": 35.79607586
    },
    {
      "ROUTE_NAME": "101",
      "ROUTE_ORD": 9,
      "STOP_ID": 305100401,
      "LNG": 127.1390222,
      "BRT_SUBID": "0",
      "ROUTE_ID": 305001089,
      "STOP_NAME": "완산여고",
      "SERVICE_ID": 30401,
      "NODE_ID": 305100401,
      "STOP_ORD": 9,
      "LAT": 35.79770557
    },
    {
      "ROUTE_NAME": "101",
      "ROUTE_ORD": 10,
      "STOP_ID": 305100411,
      "LNG": 127.14142127,
      "BRT_SUBID": "0",
      "ROUTE_ID": 305001089,
      "STOP_NAME": "평화주공1.2단지",
      "SERVICE_ID": 30411,
      "NODE_ID": 305100411,
      "STOP_ORD": 10,
      "LAT": 35.798558
    },
    {
      "ROUTE_NAME": "101",
      "ROUTE_ORD": 11,
      "STOP_ID": 305100427,
      "LNG": 127.143604,
      "BRT_SUBID": "0",
      "ROUTE_ID": 305001089,
      "STOP_NAME": "장승백이",
      "SERVICE_ID": 30427,
      "NODE_ID": 305100427,
      "STOP_ORD": 11,
      "LAT": 35.79936984
    },
    {
      "ROUTE_NAME": "101",
      "ROUTE_ORD": 12,
      "STOP_ID": 305100449,
      "LNG": 127.14638647,
      "BRT_SUBID": "0",
      "ROUTE_ID": 305001089,
      "STOP_NAME": "서서학우정목련아파트",
      "SERVICE_ID": 30449,
      "NODE_ID": 305100449,
      "STOP_ORD": 12,
      "LAT": 35.80104093
    },
    {
      "ROUTE_NAME": "101",
      "ROUTE_ORD": 13,
      "STOP_ID": 305100480,
      "LNG": 127.148477,
      "BRT_SUBID": "0",
      "ROUTE_ID": 305001089,
      "STOP_NAME": "서서학예그린아파트",
      "SERVICE_ID": 30480,
      "NODE_ID": 305100480,
      "STOP_ORD": 13,
      "LAT": 35.803542
    },
    {
      "ROUTE_NAME": "101",
      "ROUTE_ORD": 14,
      "STOP_ID": 305100497,
      "LNG": 127.14953021,
      "BRT_SUBID": "0",
      "ROUTE_ID": 305001089,
      "STOP_NAME": "공수내다리",
      "SERVICE_ID": 30497,
      "NODE_ID": 305100497,
      "STOP_ORD": 14,
      "LAT": 35.80524638
    },
    {
      "ROUTE_NAME": "101",
      "ROUTE_ORD": 15,
      "STOP_ID": 305032532,
      "LNG": 127.1498173,
      "BRT_SUBID": "0",
      "ROUTE_ID": 305001089,
      "STOP_NAME": "서학예술마을.전주교대입구",
      "SERVICE_ID": 36466,
      "NODE_ID": 305032532,
      "STOP_ORD": 15,
      "LAT": 35.8078031
    },
    {
      "ROUTE_NAME": "101",
      "ROUTE_ORD": 16,
      "STOP_ID": 305100558,
      "LNG": 127.14973099,
      "BRT_SUBID": "0",
      "ROUTE_ID": 305001089,
      "STOP_NAME": "남부시장",
      "SERVICE_ID": 30558,
      "NODE_ID": 305100558,
      "STOP_ORD": 16,
      "LAT": 35.81132263
    },
    {
      "ROUTE_NAME": "101",
      "ROUTE_ORD": 17,
      "STOP_ID": 305100602,
      "LNG": 127.14835688,
      "BRT_SUBID": "0",
      "ROUTE_ID": 305001089,
      "STOP_NAME": "전동성당.한옥마을",
      "SERVICE_ID": 30602,
      "NODE_ID": 305100602,
      "STOP_ORD": 17,
      "LAT": 35.81462071
    },
    {
      "ROUTE_NAME": "101",
      "ROUTE_ORD": 18,
      "STOP_ID": 305100649,
      "LNG": 127.145011,
      "BRT_SUBID": "0",
      "ROUTE_ID": 305001089,
      "STOP_NAME": "충경로 객사",
      "SERVICE_ID": 30649,
      "NODE_ID": 305100649,
      "STOP_ORD": 18,
      "LAT": 35.818102
    },
    {
      "ROUTE_NAME": "101",
      "ROUTE_ORD": 19,
      "STOP_ID": 305100644,
      "LNG": 127.141616,
      "BRT_SUBID": "0",
      "ROUTE_ID": 305001089,
      "STOP_NAME": "서문",
      "SERVICE_ID": 30644,
      "NODE_ID": 305100644,
      "STOP_ORD": 19,
      "LAT": 35.817115
    },
    {
      "ROUTE_NAME": "101",
      "ROUTE_ORD": 20,
      "STOP_ID": 305100625,
      "LNG": 127.13766517,
      "BRT_SUBID": "0",
      "ROUTE_ID": 305001089,
      "STOP_NAME": "신흥중고등학교",
      "SERVICE_ID": 30625,
      "NODE_ID": 305100625,
      "STOP_ORD": 20,
      "LAT": 35.81577568
    },
    {
      "ROUTE_NAME": "101",
      "ROUTE_ORD": 21,
      "STOP_ID": 305100587,
      "LNG": 127.133027,
      "BRT_SUBID": "0",
      "ROUTE_ID": 305001089,
      "STOP_NAME": "예수병원",
      "SERVICE_ID": 30587,
      "NODE_ID": 305100587,
      "STOP_ORD": 21,
      "LAT": 35.813639
    },
    {
      "ROUTE_NAME": "101",
      "ROUTE_ORD": 22,
      "STOP_ID": 305100564,
      "LNG": 127.13005,
      "BRT_SUBID": "0",
      "ROUTE_ID": 305001089,
      "STOP_NAME": "튼튼한방병원.나눔요양병원",
      "SERVICE_ID": 30564,
      "NODE_ID": 305100564,
      "STOP_ORD": 22,
      "LAT": 35.812378
    },
    {
      "ROUTE_NAME": "101",
      "ROUTE_ORD": 23,
      "STOP_ID": 305100565,
      "LNG": 127.1257966,
      "BRT_SUBID": "0",
      "ROUTE_ID": 305001089,
      "STOP_NAME": "풍림아이원",
      "SERVICE_ID": 30565,
      "NODE_ID": 305100565,
      "STOP_ORD": 23,
      "LAT": 35.8120153
    },
    {
      "ROUTE_NAME": "101",
      "ROUTE_ORD": 24,
      "STOP_ID": 305100595,
      "LNG": 127.123227,
      "BRT_SUBID": "0",
      "ROUTE_ID": 305001089,
      "STOP_NAME": "한마음병원.전주병원",
      "SERVICE_ID": 30595,
      "NODE_ID": 305100595,
      "STOP_ORD": 24,
      "LAT": 35.814087
    },
    {
      "ROUTE_NAME": "101",
      "ROUTE_ORD": 25,
      "STOP_ID": 305100647,
      "LNG": 127.123151,
      "BRT_SUBID": "0",
      "ROUTE_ID": 305001089,
      "STOP_NAME": "근영여고",
      "SERVICE_ID": 30647,
      "NODE_ID": 305100647,
      "STOP_ORD": 25,
      "LAT": 35.817515
    },
    {
      "ROUTE_NAME": "101",
      "ROUTE_ORD": 26,
      "STOP_ID": 305100697,
      "LNG": 127.123033,
      "BRT_SUBID": "0",
      "ROUTE_ID": 305001089,
      "STOP_NAME": "화산체육관.전주시립도서관꽃심",
      "SERVICE_ID": 30697,
      "NODE_ID": 305100697,
      "STOP_ORD": 26,
      "LAT": 35.820856
    },
    {
      "ROUTE_NAME": "101",
      "ROUTE_ORD": 27,
      "STOP_ID": 305100787,
      "LNG": 127.122996,
      "BRT_SUBID": "0",
      "ROUTE_ID": 305001089,
      "STOP_NAME": "서신우신아파트",
      "SERVICE_ID": 30787,
      "NODE_ID": 305100787,
      "STOP_ORD": 27,
      "LAT": 35.826728
    },
    {
      "ROUTE_NAME": "101",
      "ROUTE_ORD": 28,
      "STOP_ID": 305100883,
      "LNG": 127.121016,
      "BRT_SUBID": "0",
      "ROUTE_ID": 305001089,
      "STOP_NAME": "이마트",
      "SERVICE_ID": 30883,
      "NODE_ID": 305100883,
      "STOP_ORD": 28,
      "LAT": 35.832317
    },
    {
      "ROUTE_NAME": "101",
      "ROUTE_ORD": 29,
      "STOP_ID": 305100884,
      "LNG": 127.11764444,
      "BRT_SUBID": "0",
      "ROUTE_ID": 305001089,
      "STOP_NAME": "서신현대.동아아파트",
      "SERVICE_ID": 30884,
      "NODE_ID": 305100884,
      "STOP_ORD": 29,
      "LAT": 35.83230921
    },
    {
      "ROUTE_NAME": "101",
      "ROUTE_ORD": 30,
      "STOP_ID": 305100919,
      "LNG": 127.11538568,
      "BRT_SUBID": "0",
      "ROUTE_ID": 305001089,
      "STOP_NAME": "서신중흥아파트",
      "SERVICE_ID": 30919,
      "NODE_ID": 305100919,
      "STOP_ORD": 30,
      "LAT": 35.83408798
    },
    {
      "ROUTE_NAME": "101",
      "ROUTE_ORD": 31,
      "STOP_ID": 305100920,
      "LNG": 127.111001,
      "BRT_SUBID": "0",
      "ROUTE_ID": 305001089,
      "STOP_NAME": "서신광진아파트",
      "SERVICE_ID": 30920,
      "NODE_ID": 305100920,
      "STOP_ORD": 31,
      "LAT": 35.834017
    },
    {
      "ROUTE_NAME": "101",
      "ROUTE_ORD": 32,
      "STOP_ID": 305100998,
      "LNG": 127.10229825,
      "BRT_SUBID": "0",
      "ROUTE_ID": 305001089,
      "STOP_NAME": "전주세무서.한국환경공단",
      "SERVICE_ID": 30997,
      "NODE_ID": 305100998,
      "STOP_ORD": 32,
      "LAT": 35.83844825
    },
    {
      "ROUTE_NAME": "101",
      "ROUTE_ORD": 33,
      "STOP_ID": 306101040,
      "LNG": 127.096657,
      "BRT_SUBID": "0",
      "ROUTE_ID": 305001089,
      "STOP_NAME": "덕촌",
      "SERVICE_ID": 31039,
      "NODE_ID": 306101040,
      "STOP_ORD": 33,
      "LAT": 35.841973
    },
    {
      "ROUTE_NAME": "101",
      "ROUTE_ORD": 34,
      "STOP_ID": 306101058,
      "LNG": 127.094285,
      "BRT_SUBID": "0",
      "ROUTE_ID": 305001089,
      "STOP_NAME": "덕진경찰서",
      "SERVICE_ID": 31057,
      "NODE_ID": 306101058,
      "STOP_ORD": 34,
      "LAT": 35.843504
    },
    {
      "ROUTE_NAME": "101",
      "ROUTE_ORD": 35,
      "STOP_ID": 305032802,
      "LNG": 127.0902756,
      "BRT_SUBID": "0",
      "ROUTE_ID": 305001089,
      "STOP_NAME": "한국교통안전공단",
      "SERVICE_ID": 36736,
      "NODE_ID": 305032802,
      "STOP_ORD": 35,
      "LAT": 35.8460432
    },
    {
      "ROUTE_NAME": "101",
      "ROUTE_ORD": 36,
      "STOP_ID": 305032420,
      "LNG": 127.083975,
      "BRT_SUBID": "0",
      "ROUTE_ID": 305001089,
      "STOP_NAME": "전북정신건강복지센터",
      "SERVICE_ID": 36354,
      "NODE_ID": 305032420,
      "STOP_ORD": 36,
      "LAT": 35.848252
    },
    {
      "ROUTE_NAME": "101",
      "ROUTE_ORD": 37,
      "STOP_ID": 305032323,
      "LNG": 127.082795,
      "BRT_SUBID": "0",
      "ROUTE_ID": 305001089,
      "STOP_NAME": "JTV전주방송",
      "SERVICE_ID": 36215,
      "NODE_ID": 305032323,
      "STOP_ORD": 37,
      "LAT": 35.846304
    },
    {
      "ROUTE_NAME": "101",
      "ROUTE_ORD": 38,
      "STOP_ID": 305032413,
      "LNG": 127.078021,
      "BRT_SUBID": "0",
      "ROUTE_ID": 305001089,
      "STOP_NAME": "만성도시상가",
      "SERVICE_ID": 36347,
      "NODE_ID": 305032413,
      "STOP_ORD": 38,
      "LAT": 35.842382
    },
    {
      "ROUTE_NAME": "101",
      "ROUTE_ORD": 39,
      "STOP_ID": 305032414,
      "LNG": 127.077634,
      "BRT_SUBID": "0",
      "ROUTE_ID": 305001089,
      "STOP_NAME": "법원.검찰청.만성중흥S클래스",
      "SERVICE_ID": 36348,
      "NODE_ID": 305032414,
      "STOP_ORD": 39,
      "LAT": 35.844826
    },
    {
      "ROUTE_NAME": "101",
      "ROUTE_ORD": 40,
      "STOP_ID": 305032415,
      "LNG": 127.078965,
      "BRT_SUBID": "0",
      "ROUTE_ID": 305001089,
      "STOP_NAME": "만성골드클래스정문",
      "SERVICE_ID": 36349,
      "NODE_ID": 305032415,
      "STOP_ORD": 40,
      "LAT": 35.846276
    },
    {
      "ROUTE_NAME": "101",
      "ROUTE_ORD": 41,
      "STOP_ID": 305032421,
      "LNG": 127.0783,
      "BRT_SUBID": "0",
      "ROUTE_ID": 305001089,
      "STOP_NAME": "만성골드클래스후문",
      "SERVICE_ID": 36355,
      "NODE_ID": 305032421,
      "STOP_ORD": 41,
      "LAT": 35.849183
    },
    {
      "ROUTE_NAME": "101",
      "ROUTE_ORD": 42,
      "STOP_ID": 305032441,
      "LNG": 127.076336,
      "BRT_SUBID": "0",
      "ROUTE_ID": 305001089,
      "STOP_NAME": "용정마을.하나로마트",
      "SERVICE_ID": 36375,
      "NODE_ID": 305032441,
      "STOP_ORD": 42,
      "LAT": 35.851713
    },
    {
      "ROUTE_NAME": "101",
      "ROUTE_ORD": 43,
      "STOP_ID": 306101221,
      "LNG": 127.068102,
      "BRT_SUBID": "0",
      "ROUTE_ID": 305001089,
      "STOP_NAME": "화개네거리",
      "SERVICE_ID": 31220,
      "NODE_ID": 306101221,
      "STOP_ORD": 43,
      "LAT": 35.856316
    },
    {
      "ROUTE_NAME": "101",
      "ROUTE_ORD": 44,
      "STOP_ID": 306101253,
      "LNG": 127.063338,
      "BRT_SUBID": "0",
      "ROUTE_ID": 305001089,
      "STOP_NAME": "동재마을",
      "SERVICE_ID": 31252,
      "NODE_ID": 306101253,
      "STOP_ORD": 44,
      "LAT": 35.858898
    },
    {
      "ROUTE_NAME": "101",
      "ROUTE_ORD": 45,
      "STOP_ID": 306101292,
      "LNG": 127.062641,
      "BRT_SUBID": "0",
      "ROUTE_ID": 305001089,
      "STOP_NAME": "장동에코르아파트",
      "SERVICE_ID": 31291,
      "NODE_ID": 306101292,
      "STOP_ORD": 45,
      "LAT": 35.862507
    },
    {
      "ROUTE_NAME": "101",
      "ROUTE_ORD": 46,
      "STOP_ID": 306101339,
      "LNG": 127.063784,
      "BRT_SUBID": "0",
      "ROUTE_ID": 305001089,
      "STOP_NAME": "월드컵경기장남문",
      "SERVICE_ID": 31338,
      "NODE_ID": 306101339,
      "STOP_ORD": 46,
      "LAT": 35.866143
    },
    {
      "ROUTE_NAME": "101",
      "ROUTE_ORD": 47,
      "STOP_ID": 306101314,
      "LNG": 127.069593,
      "BRT_SUBID": "0",
      "ROUTE_ID": 305001089,
      "STOP_NAME": "면허시험장월드컵경기장",
      "SERVICE_ID": 31313,
      "NODE_ID": 306101314,
      "STOP_ORD": 47,
      "LAT": 35.863811
    },
    {
      "ROUTE_NAME": "101",
      "ROUTE_ORD": 48,
      "STOP_ID": 306101356,
      "LNG": 127.071524,
      "BRT_SUBID": "0",
      "ROUTE_ID": 305001089,
      "STOP_NAME": "호남제일문",
      "SERVICE_ID": 31355,
      "NODE_ID": 306101356,
      "STOP_ORD": 48,
      "LAT": 35.867767
    },
    {
      "ROUTE_NAME": "101",
      "ROUTE_ORD": 49,
      "STOP_ID": 306101392,
      "LNG": 127.073026,
      "BRT_SUBID": "0",
      "ROUTE_ID": 305001089,
      "STOP_NAME": "새전주요양병원",
      "SERVICE_ID": 31391,
      "NODE_ID": 306101392,
      "STOP_ORD": 49,
      "LAT": 35.870636
    },
    {
      "ROUTE_NAME": "101",
      "ROUTE_ORD": 50,
      "STOP_ID": 306101411,
      "LNG": 127.07591729,
      "BRT_SUBID": "0",
      "ROUTE_ID": 305001089,
      "STOP_NAME": "여의동우체국",
      "SERVICE_ID": 31410,
      "NODE_ID": 306101411,
      "STOP_ORD": 50,
      "LAT": 35.8723613
    },
    {
      "ROUTE_NAME": "101",
      "ROUTE_ORD": 51,
      "STOP_ID": 306101368,
      "LNG": 127.0779079,
      "BRT_SUBID": "0",
      "ROUTE_ID": 305001089,
      "STOP_NAME": "조촌초교.제일아파트",
      "SERVICE_ID": 31367,
      "NODE_ID": 306101368,
      "STOP_ORD": 51,
      "LAT": 35.86812128
    },
    {
      "ROUTE_NAME": "101",
      "ROUTE_ORD": 52,
      "STOP_ID": 306101326,
      "LNG": 127.08057177,
      "BRT_SUBID": "0",
      "ROUTE_ID": 305001089,
      "STOP_NAME": "전주공고",
      "SERVICE_ID": 31325,
      "NODE_ID": 306101326,
      "STOP_ORD": 52,
      "LAT": 35.8650508
    },
    {
      "ROUTE_NAME": "101",
      "ROUTE_ORD": 53,
      "STOP_ID": 306101299,
      "LNG": 127.0852655,
      "BRT_SUBID": "0",
      "ROUTE_ID": 305001089,
      "STOP_NAME": "도시첨단산업단지",
      "SERVICE_ID": 31298,
      "NODE_ID": 306101299,
      "STOP_ORD": 53,
      "LAT": 35.86308036
    },
    {
      "ROUTE_NAME": "101",
      "ROUTE_ORD": 54,
      "STOP_ID": 306101265,
      "LNG": 127.092633,
      "BRT_SUBID": "0",
      "ROUTE_ID": 305001089,
      "STOP_NAME": "기린대로경제통상진흥원",
      "SERVICE_ID": 31264,
      "NODE_ID": 306101265,
      "STOP_ORD": 54,
      "LAT": 35.859842
    },
    {
      "ROUTE_NAME": "101",
      "ROUTE_ORD": 55,
      "STOP_ID": 306101243,
      "LNG": 127.09646779,
      "BRT_SUBID": "0",
      "ROUTE_ID": 305001089,
      "STOP_NAME": "휴비스전주공장",
      "SERVICE_ID": 31242,
      "NODE_ID": 306101243,
      "STOP_ORD": 55,
      "LAT": 35.85805152
    },
    {
      "ROUTE_NAME": "101",
      "ROUTE_ORD": 56,
      "STOP_ID": 306101215,
      "LNG": 127.10059332,
      "BRT_SUBID": "0",
      "ROUTE_ID": 305001089,
      "STOP_NAME": "팔복예술공장",
      "SERVICE_ID": 31214,
      "NODE_ID": 306101215,
      "STOP_ORD": 56,
      "LAT": 35.85588544
    },
    {
      "ROUTE_NAME": "101",
      "ROUTE_ORD": 57,
      "STOP_ID": 306101162,
      "LNG": 127.105325,
      "BRT_SUBID": "0",
      "ROUTE_ID": 305001089,
      "STOP_NAME": "팔복근린상가",
      "SERVICE_ID": 31161,
      "NODE_ID": 306101162,
      "STOP_ORD": 57,
      "LAT": 35.853244
    },
    {
      "ROUTE_NAME": "101",
      "ROUTE_ORD": 58,
      "STOP_ID": 306101140,
      "LNG": 127.109526,
      "BRT_SUBID": "0",
      "ROUTE_ID": 305001089,
      "STOP_NAME": "추천대교",
      "SERVICE_ID": 31139,
      "NODE_ID": 306101140,
      "STOP_ORD": 58,
      "LAT": 35.851233
    },
    {
      "ROUTE_NAME": "101",
      "ROUTE_ORD": 59,
      "STOP_ID": 306101107,
      "LNG": 127.11385266,
      "BRT_SUBID": "0",
      "ROUTE_ID": 305001089,
      "STOP_NAME": "덕일초중",
      "SERVICE_ID": 31106,
      "NODE_ID": 306101107,
      "STOP_ORD": 59,
      "LAT": 35.84909503
    },
    {
      "ROUTE_NAME": "101",
      "ROUTE_ORD": 60,
      "STOP_ID": 306101090,
      "LNG": 127.116194,
      "BRT_SUBID": "0",
      "ROUTE_ID": 305001089,
      "STOP_NAME": "기린대로.원대한방병원",
      "SERVICE_ID": 31089,
      "NODE_ID": 306101090,
      "STOP_ORD": 60,
      "LAT": 35.84805
    },
    {
      "ROUTE_NAME": "101",
      "ROUTE_ORD": 61,
      "STOP_ID": 306101086,
      "LNG": 127.11969439,
      "BRT_SUBID": "0",
      "ROUTE_ID": 305001089,
      "STOP_NAME": "기린대로덕진공원",
      "SERVICE_ID": 31085,
      "NODE_ID": 306101086,
      "STOP_ORD": 61,
      "LAT": 35.84624591
    },
    {
      "ROUTE_NAME": "101",
      "ROUTE_ORD": 62,
      "STOP_ID": 306101044,
      "LNG": 127.12515768,
      "BRT_SUBID": "0",
      "ROUTE_ID": 305001089,
      "STOP_NAME": "전북대학교.농협앞",
      "SERVICE_ID": 31043,
      "NODE_ID": 306101044,
      "STOP_ORD": 62,
      "LAT": 35.84250102
    },
    {
      "ROUTE_NAME": "101",
      "ROUTE_ORD": 63,
      "STOP_ID": 305032080,
      "LNG": 127.13051093,
      "BRT_SUBID": "0",
      "ROUTE_ID": 305001089,
      "STOP_NAME": "전북대국제교류어학원",
      "SERVICE_ID": 32080,
      "NODE_ID": 305032080,
      "STOP_ORD": 63,
      "LAT": 35.84525276
    },
    {
      "ROUTE_NAME": "101",
      "ROUTE_ORD": 64,
      "STOP_ID": 316032081,
      "LNG": 127.1275173,
      "BRT_SUBID": "0",
      "ROUTE_ID": 305001089,
      "STOP_NAME": "전북대종점",
      "SERVICE_ID": 32081,
      "NODE_ID": 316032081,
      "STOP_ORD": 64,
      "LAT": 35.8495494
    }
  ]
}