{
  "resultList": [
    {
      "ROUTE_NAME": "6002",
      "ROUTE_ORD": 1,
      "STOP_ID": 305100526,
      "LNG": 127.09371706,
      "BRT_SUBID": "B",
      "ROUTE_ID": 305001606,
      "STOP_NAME": "비전대학교",
      "SERVICE_ID": 30526,
      "NODE_ID": 305100526,
      "STOP_ORD": 1,
      "LAT": 35.80764061
    },
    {
      "ROUTE_NAME": "6002",
      "ROUTE_ORD": 2,
      "STOP_ID": 305100516,
      "LNG": 127.09531268,
      "BRT_SUBID": "B",
      "ROUTE_ID": 305001606,
      "STOP_NAME": "비전대학교입구.데시앙아이린",
      "SERVICE_ID": 30516,
      "NODE_ID": 305100516,
      "STOP_ORD": 2,
      "LAT": 35.80661703
    },
    {
      "ROUTE_NAME": "6002",
      "ROUTE_ORD": 3,
      "STOP_ID": 305100479,
      "LNG": 127.097204,
      "BRT_SUBID": "B",
      "ROUTE_ID": 305001606,
      "STOP_NAME": "효자4동주민센터",
      "SERVICE_ID": 30479,
      "NODE_ID": 305100479,
      "STOP_ORD": 3,
      "LAT": 35.803999
    },
    {
      "ROUTE_NAME": "6002",
      "ROUTE_ORD": 4,
      "STOP_ID": 305032534,
      "LNG": 127.1033615,
      "BRT_SUBID": "B",
      "ROUTE_ID": 305001606,
      "STOP_NAME": "효천우미린1차아파트",
      "SERVICE_ID": 36468,
      "NODE_ID": 305032534,
      "STOP_ORD": 4,
      "LAT": 35.7982658
    },
    {
      "ROUTE_NAME": "6002",
      "ROUTE_ORD": 5,
      "STOP_ID": 305032500,
      "LNG": 127.105202,
      "BRT_SUBID": "B",
      "ROUTE_ID": 305001606,
      "STOP_NAME": "효천초등학교",
      "SERVICE_ID": 36434,
      "NODE_ID": 305032500,
      "STOP_ORD": 5,
      "LAT": 35.798608
    },
    {
      "ROUTE_NAME": "6002",
      "ROUTE_ORD": 6,
      "STOP_ID": 305032827,
      "LNG": 127.107356,
      "BRT_SUBID": "B",
      "ROUTE_ID": 305001606,
      "STOP_NAME": "효천리버클래스",
      "SERVICE_ID": 36761,
      "NODE_ID": 305032827,
      "STOP_ORD": 6,
      "LAT": 35.798608
    },
    {
      "ROUTE_NAME": "6002",
      "ROUTE_ORD": 7,
      "STOP_ID": 305100412,
      "LNG": 127.1108342,
      "BRT_SUBID": "B",
      "ROUTE_ID": 305001606,
      "STOP_NAME": "삼천호반리젠시빌",
      "SERVICE_ID": 30412,
      "NODE_ID": 305100412,
      "STOP_ORD": 7,
      "LAT": 35.79859981
    },
    {
      "ROUTE_NAME": "6002",
      "ROUTE_ORD": 8,
      "STOP_ID": 305100408,
      "LNG": 127.11349,
      "BRT_SUBID": "B",
      "ROUTE_ID": 305001606,
      "STOP_NAME": "삼천신일강변아파트",
      "SERVICE_ID": 30408,
      "NODE_ID": 305100408,
      "STOP_ORD": 8,
      "LAT": 35.798608
    },
    {
      "ROUTE_NAME": "6002",
      "ROUTE_ORD": 9,
      "STOP_ID": 305100407,
      "LNG": 127.11750939,
      "BRT_SUBID": "B",
      "ROUTE_ID": 305001606,
      "STOP_NAME": "완산소방서",
      "SERVICE_ID": 30407,
      "NODE_ID": 305100407,
      "STOP_ORD": 9,
      "LAT": 35.7985201
    },
    {
      "ROUTE_NAME": "6002",
      "ROUTE_ORD": 10,
      "STOP_ID": 305100406,
      "LNG": 127.12072311,
      "BRT_SUBID": "B",
      "ROUTE_ID": 305001606,
      "STOP_NAME": "효문중학교",
      "SERVICE_ID": 30406,
      "NODE_ID": 305100406,
      "STOP_ORD": 10,
      "LAT": 35.79850143
    },
    {
      "ROUTE_NAME": "6002",
      "ROUTE_ORD": 11,
      "STOP_ID": 305100393,
      "LNG": 127.12607,
      "BRT_SUBID": "B",
      "ROUTE_ID": 305001606,
      "STOP_NAME": "삼천오성대우아파트",
      "SERVICE_ID": 30393,
      "NODE_ID": 305100393,
      "STOP_ORD": 11,
      "LAT": 35.797242
    },
    {
      "ROUTE_NAME": "6002",
      "ROUTE_ORD": 12,
      "STOP_ID": 305100409,
      "LNG": 127.12791,
      "BRT_SUBID": "B",
      "ROUTE_ID": 305001606,
      "STOP_NAME": "삼천개나리아파트",
      "SERVICE_ID": 30409,
      "NODE_ID": 305100409,
      "STOP_ORD": 12,
      "LAT": 35.798534
    },
    {
      "ROUTE_NAME": "6002",
      "ROUTE_ORD": 13,
      "STOP_ID": 305100459,
      "LNG": 127.126901,
      "BRT_SUBID": "B",
      "ROUTE_ID": 305001606,
      "STOP_NAME": "효자광진공작아파트",
      "SERVICE_ID": 30459,
      "NODE_ID": 305100459,
      "STOP_ORD": 13,
      "LAT": 35.80141
    },
    {
      "ROUTE_NAME": "6002",
      "ROUTE_ORD": 14,
      "STOP_ID": 305100482,
      "LNG": 127.124316,
      "BRT_SUBID": "B",
      "ROUTE_ID": 305001606,
      "STOP_NAME": "효자광진맨션아파트",
      "SERVICE_ID": 30482,
      "NODE_ID": 305100482,
      "STOP_ORD": 14,
      "LAT": 35.803916
    },
    {
      "ROUTE_NAME": "6002",
      "ROUTE_ORD": 15,
      "STOP_ID": 305100533,
      "LNG": 127.123393,
      "BRT_SUBID": "B",
      "ROUTE_ID": 305001606,
      "STOP_NAME": "효자남양황실아파트",
      "SERVICE_ID": 30533,
      "NODE_ID": 305100533,
      "STOP_ORD": 15,
      "LAT": 35.808845
    },
    {
      "ROUTE_NAME": "6002",
      "ROUTE_ORD": 16,
      "STOP_ID": 305100563,
      "LNG": 127.12538429,
      "BRT_SUBID": "B",
      "ROUTE_ID": 305001606,
      "STOP_NAME": "전주상업정보고",
      "SERVICE_ID": 30563,
      "NODE_ID": 305100563,
      "STOP_ORD": 16,
      "LAT": 35.81186949
    },
    {
      "ROUTE_NAME": "6002",
      "ROUTE_ORD": 17,
      "STOP_ID": 305100562,
      "LNG": 127.128924,
      "BRT_SUBID": "B",
      "ROUTE_ID": 305001606,
      "STOP_NAME": "중화산동현대아파트",
      "SERVICE_ID": 30562,
      "NODE_ID": 305100562,
      "STOP_ORD": 17,
      "LAT": 35.811756
    },
    {
      "ROUTE_NAME": "6002",
      "ROUTE_ORD": 18,
      "STOP_ID": 305100578,
      "LNG": 127.132759,
      "BRT_SUBID": "B",
      "ROUTE_ID": 305001606,
      "STOP_NAME": "예수병원",
      "SERVICE_ID": 30578,
      "NODE_ID": 305100578,
      "STOP_ORD": 18,
      "LAT": 35.813291
    },
    {
      "ROUTE_NAME": "6002",
      "ROUTE_ORD": 19,
      "STOP_ID": 305100621,
      "LNG": 127.13765637,
      "BRT_SUBID": "B",
      "ROUTE_ID": 305001606,
      "STOP_NAME": "신흥중고등학교",
      "SERVICE_ID": 30621,
      "NODE_ID": 305100621,
      "STOP_ORD": 19,
      "LAT": 35.81550005
    },
    {
      "ROUTE_NAME": "6002",
      "ROUTE_ORD": 20,
      "STOP_ID": 305100640,
      "LNG": 127.14111827,
      "BRT_SUBID": "B",
      "ROUTE_ID": 305001606,
      "STOP_NAME": "서문",
      "SERVICE_ID": 30640,
      "NODE_ID": 305100640,
      "STOP_ORD": 20,
      "LAT": 35.8167323
    },
    {
      "ROUTE_NAME": "6002",
      "ROUTE_ORD": 21,
      "STOP_ID": 305100648,
      "LNG": 127.14542022,
      "BRT_SUBID": "B",
      "ROUTE_ID": 305001606,
      "STOP_NAME": "충경로 객사",
      "SERVICE_ID": 30648,
      "NODE_ID": 305100648,
      "STOP_ORD": 21,
      "LAT": 35.81798392
    },
    {
      "ROUTE_NAME": "6002",
      "ROUTE_ORD": 22,
      "STOP_ID": 305100657,
      "LNG": 127.14790878,
      "BRT_SUBID": "B",
      "ROUTE_ID": 305001606,
      "STOP_NAME": "충경로KT전주지사",
      "SERVICE_ID": 30657,
      "NODE_ID": 305100657,
      "STOP_ORD": 22,
      "LAT": 35.81872473
    },
    {
      "ROUTE_NAME": "6002",
      "ROUTE_ORD": 23,
      "STOP_ID": 305100677,
      "LNG": 127.15085875,
      "BRT_SUBID": "B",
      "ROUTE_ID": 305001606,
      "STOP_NAME": "동부시장",
      "SERVICE_ID": 30677,
      "NODE_ID": 305100677,
      "STOP_ORD": 23,
      "LAT": 35.81964957
    },
    {
      "ROUTE_NAME": "6002",
      "ROUTE_ORD": 24,
      "STOP_ID": 305100704,
      "LNG": 127.152248,
      "BRT_SUBID": "B",
      "ROUTE_ID": 305001606,
      "STOP_NAME": "기린대로 병무청",
      "SERVICE_ID": 30704,
      "NODE_ID": 305100704,
      "STOP_ORD": 24,
      "LAT": 35.82136
    },
    {
      "ROUTE_NAME": "6002",
      "ROUTE_ORD": 25,
      "STOP_ID": 306100761,
      "LNG": 127.14844268,
      "BRT_SUBID": "B",
      "ROUTE_ID": 305001606,
      "STOP_NAME": "전주시청.노송동시외버스정류소",
      "SERVICE_ID": 30761,
      "NODE_ID": 306100761,
      "STOP_ORD": 25,
      "LAT": 35.82471365
    },
    {
      "ROUTE_NAME": "6002",
      "ROUTE_ORD": 26,
      "STOP_ID": 306100792,
      "LNG": 127.14637385,
      "BRT_SUBID": "B",
      "ROUTE_ID": 305001606,
      "STOP_NAME": "전주농협",
      "SERVICE_ID": 30792,
      "NODE_ID": 306100792,
      "STOP_ORD": 26,
      "LAT": 35.82651832
    },
    {
      "ROUTE_NAME": "6002",
      "ROUTE_ORD": 27,
      "STOP_ID": 306100842,
      "LNG": 127.14299561,
      "BRT_SUBID": "B",
      "ROUTE_ID": 305001606,
      "STOP_NAME": "기린대로현대병원",
      "SERVICE_ID": 30842,
      "NODE_ID": 306100842,
      "STOP_ORD": 27,
      "LAT": 35.82930275
    },
    {
      "ROUTE_NAME": "6002",
      "ROUTE_ORD": 28,
      "STOP_ID": 306100862,
      "LNG": 127.14025275,
      "BRT_SUBID": "B",
      "ROUTE_ID": 305001606,
      "STOP_NAME": "전주전자상가",
      "SERVICE_ID": 30862,
      "NODE_ID": 306100862,
      "STOP_ORD": 28,
      "LAT": 35.83141746
    },
    {
      "ROUTE_NAME": "6002",
      "ROUTE_ORD": 29,
      "STOP_ID": 306100906,
      "LNG": 127.13783588,
      "BRT_SUBID": "B",
      "ROUTE_ID": 305001606,
      "STOP_NAME": "기린대로금암광장",
      "SERVICE_ID": 30906,
      "NODE_ID": 306100906,
      "STOP_ORD": 29,
      "LAT": 35.83345839
    },
    {
      "ROUTE_NAME": "6002",
      "ROUTE_ORD": 30,
      "STOP_ID": 306100969,
      "LNG": 127.13363898,
      "BRT_SUBID": "B",
      "ROUTE_ID": 305001606,
      "STOP_NAME": "금암동주민센터",
      "SERVICE_ID": 30969,
      "NODE_ID": 306100969,
      "STOP_ORD": 30,
      "LAT": 35.83678745
    },
    {
      "ROUTE_NAME": "6002",
      "ROUTE_ORD": 31,
      "STOP_ID": 306101004,
      "LNG": 127.131042,
      "BRT_SUBID": "B",
      "ROUTE_ID": 305001606,
      "STOP_NAME": "고속버스터미널입구.전북일보사",
      "SERVICE_ID": 31003,
      "NODE_ID": 306101004,
      "STOP_ORD": 31,
      "LAT": 35.838631
    },
    {
      "ROUTE_NAME": "6002",
      "ROUTE_ORD": 32,
      "STOP_ID": 306101035,
      "LNG": 127.127164,
      "BRT_SUBID": "B",
      "ROUTE_ID": 305001606,
      "STOP_NAME": "전북대학교.소나무한의원앞",
      "SERVICE_ID": 31034,
      "NODE_ID": 306101035,
      "STOP_ORD": 32,
      "LAT": 35.841467
    }
  ]
}