{
  "resultList": [
    {
      "ROUTE_NAME": "8490",
      "ROUTE_ORD": 1,
      "STOP_ID": 306101578,
      "LNG": 127.00220289,
      "BRT_SUBID": "0",
      "ROUTE_ID": 305001019,
      "STOP_NAME": "신유강",
      "SERVICE_ID": 31577,
      "NODE_ID": 306101578,
      "STOP_ORD": 1,
      "LAT": 35.89078306
    },
    {
      "ROUTE_NAME": "8490",
      "ROUTE_ORD": 2,
      "STOP_ID": 306101593,
      "LNG": 127.03910551,
      "BRT_SUBID": "0",
      "ROUTE_ID": 305001019,
      "STOP_NAME": "신성리",
      "SERVICE_ID": 31592,
      "NODE_ID": 306101593,
      "STOP_ORD": 2,
      "LAT": 35.89219012
    },
    {
      "ROUTE_NAME": "8490",
      "ROUTE_ORD": 3,
      "STOP_ID": 306101589,
      "LNG": 127.04540731,
      "BRT_SUBID": "0",
      "ROUTE_ID": 305001019,
      "STOP_NAME": "굴신마을",
      "SERVICE_ID": 31588,
      "NODE_ID": 306101589,
      "STOP_ORD": 3,
      "LAT": 35.89195941
    },
    {
      "ROUTE_NAME": "8490",
      "ROUTE_ORD": 4,
      "STOP_ID": 305032373,
      "LNG": 127.0592656,
      "BRT_SUBID": "0",
      "ROUTE_ID": 305001019,
      "STOP_NAME": "신평마을",
      "SERVICE_ID": 36307,
      "NODE_ID": 305032373,
      "STOP_ORD": 4,
      "LAT": 35.8939217
    },
    {
      "ROUTE_NAME": "8490",
      "ROUTE_ORD": 5,
      "STOP_ID": 306101606,
      "LNG": 127.0656409,
      "BRT_SUBID": "0",
      "ROUTE_ID": 305001019,
      "STOP_NAME": "만경강변.원화전",
      "SERVICE_ID": 31605,
      "NODE_ID": 306101606,
      "STOP_ORD": 5,
      "LAT": 35.8946013
    },
    {
      "ROUTE_NAME": "8490",
      "ROUTE_ORD": 6,
      "STOP_ID": 306101553,
      "LNG": 127.08865565,
      "BRT_SUBID": "0",
      "ROUTE_ID": 305001019,
      "STOP_NAME": "삼화동",
      "SERVICE_ID": 31552,
      "NODE_ID": 306101553,
      "STOP_ORD": 6,
      "LAT": 35.88779937
    },
    {
      "ROUTE_NAME": "8490",
      "ROUTE_ORD": 7,
      "STOP_ID": 306101527,
      "LNG": 127.09018706,
      "BRT_SUBID": "0",
      "ROUTE_ID": 305001019,
      "STOP_NAME": "평리",
      "SERVICE_ID": 31526,
      "NODE_ID": 306101527,
      "STOP_ORD": 7,
      "LAT": 35.88384509
    },
    {
      "ROUTE_NAME": "8490",
      "ROUTE_ORD": 8,
      "STOP_ID": 306101107,
      "LNG": 127.11385266,
      "BRT_SUBID": "0",
      "ROUTE_ID": 305001019,
      "STOP_NAME": "덕일초중",
      "SERVICE_ID": 31106,
      "NODE_ID": 306101107,
      "STOP_ORD": 8,
      "LAT": 35.84909503
    },
    {
      "ROUTE_NAME": "8490",
      "ROUTE_ORD": 9,
      "STOP_ID": 306101090,
      "LNG": 127.116194,
      "BRT_SUBID": "0",
      "ROUTE_ID": 305001019,
      "STOP_NAME": "기린대로.원대한방병원",
      "SERVICE_ID": 31089,
      "NODE_ID": 306101090,
      "STOP_ORD": 9,
      "LAT": 35.84805
    },
    {
      "ROUTE_NAME": "8490",
      "ROUTE_ORD": 10,
      "STOP_ID": 306101113,
      "LNG": 127.11968893,
      "BRT_SUBID": "0",
      "ROUTE_ID": 305001019,
      "STOP_NAME": "도립국악원",
      "SERVICE_ID": 31112,
      "NODE_ID": 306101113,
      "STOP_ORD": 10,
      "LAT": 35.84934543
    },
    {
      "ROUTE_NAME": "8490",
      "ROUTE_ORD": 11,
      "STOP_ID": 306132039,
      "LNG": 127.121698,
      "BRT_SUBID": "0",
      "ROUTE_ID": 305001019,
      "STOP_NAME": "전북대학교컨벤션센터",
      "SERVICE_ID": 32039,
      "NODE_ID": 306132039,
      "STOP_ORD": 11,
      "LAT": 35.851166
    },
    {
      "ROUTE_NAME": "8490",
      "ROUTE_ORD": 12,
      "STOP_ID": 306101155,
      "LNG": 127.126037,
      "BRT_SUBID": "0",
      "ROUTE_ID": 305001019,
      "STOP_NAME": "전북어린이창의체험관.덕암",
      "SERVICE_ID": 31154,
      "NODE_ID": 306101155,
      "STOP_ORD": 12,
      "LAT": 35.85265
    },
    {
      "ROUTE_NAME": "8490",
      "ROUTE_ORD": 13,
      "STOP_ID": 305032589,
      "LNG": 127.127906,
      "BRT_SUBID": "0",
      "ROUTE_ID": 305001019,
      "STOP_NAME": "어린이창의체험관",
      "SERVICE_ID": 36523,
      "NODE_ID": 305032589,
      "STOP_ORD": 13,
      "LAT": 35.854293
    }
  ]
}