{
  "resultList": [
    {
      "ROUTE_NAME": "77",
      "ROUTE_ORD": 1,
      "STOP_ID": 312100244,
      "LNG": 127.20512177,
      "BRT_SUBID": "0",
      "ROUTE_ID": 305001719,
      "STOP_NAME": "상관농협로컬푸드",
      "SERVICE_ID": 30244,
      "NODE_ID": 312100244,
      "STOP_ORD": 1,
      "LAT": 35.77402099
    },
    {
      "ROUTE_NAME": "77",
      "ROUTE_ORD": 2,
      "STOP_ID": 312100226,
      "LNG": 127.20857051,
      "BRT_SUBID": "0",
      "ROUTE_ID": 305001719,
      "STOP_NAME": "상관주민센터",
      "SERVICE_ID": 30226,
      "NODE_ID": 312100226,
      "STOP_ORD": 2,
      "LAT": 35.77011957
    },
    {
      "ROUTE_NAME": "77",
      "ROUTE_ORD": 3,
      "STOP_ID": 305032489,
      "LNG": 127.2103849,
      "BRT_SUBID": "0",
      "ROUTE_ID": 305001719,
      "STOP_NAME": "상관농협",
      "SERVICE_ID": 36423,
      "NODE_ID": 305032489,
      "STOP_ORD": 3,
      "LAT": 35.7682839
    },
    {
      "ROUTE_NAME": "77",
      "ROUTE_ORD": 4,
      "STOP_ID": 312100212,
      "LNG": 127.2127932,
      "BRT_SUBID": "0",
      "ROUTE_ID": 305001719,
      "STOP_NAME": "상원신마을",
      "SERVICE_ID": 30212,
      "NODE_ID": 312100212,
      "STOP_ORD": 4,
      "LAT": 35.7677018
    },
    {
      "ROUTE_NAME": "77",
      "ROUTE_ORD": 5,
      "STOP_ID": 312100218,
      "LNG": 127.21432598,
      "BRT_SUBID": "0",
      "ROUTE_ID": 305001719,
      "STOP_NAME": "산바위입구",
      "SERVICE_ID": 30218,
      "NODE_ID": 312100218,
      "STOP_ORD": 5,
      "LAT": 35.76905363
    },
    {
      "ROUTE_NAME": "77",
      "ROUTE_ORD": 6,
      "STOP_ID": 312100252,
      "LNG": 127.21670258,
      "BRT_SUBID": "0",
      "ROUTE_ID": 305001719,
      "STOP_NAME": "수월마을",
      "SERVICE_ID": 30252,
      "NODE_ID": 312100252,
      "STOP_ORD": 6,
      "LAT": 35.77478429
    },
    {
      "ROUTE_NAME": "77",
      "ROUTE_ORD": 7,
      "STOP_ID": 312100266,
      "LNG": 127.21921716,
      "BRT_SUBID": "0",
      "ROUTE_ID": 305001719,
      "STOP_NAME": "수원지",
      "SERVICE_ID": 30266,
      "NODE_ID": 312100266,
      "STOP_ORD": 7,
      "LAT": 35.77827929
    },
    {
      "ROUTE_NAME": "77",
      "ROUTE_ORD": 8,
      "STOP_ID": 305032357,
      "LNG": 127.2301822,
      "BRT_SUBID": "0",
      "ROUTE_ID": 305001719,
      "STOP_NAME": "전통춤전수관",
      "SERVICE_ID": 36254,
      "NODE_ID": 305032357,
      "STOP_ORD": 8,
      "LAT": 35.77744436
    },
    {
      "ROUTE_NAME": "77",
      "ROUTE_ORD": 9,
      "STOP_ID": 312100254,
      "LNG": 127.23192646,
      "BRT_SUBID": "0",
      "ROUTE_ID": 305001719,
      "STOP_NAME": "용정리",
      "SERVICE_ID": 30254,
      "NODE_ID": 312100254,
      "STOP_ORD": 9,
      "LAT": 35.77512982
    },
    {
      "ROUTE_NAME": "77",
      "ROUTE_ORD": 10,
      "STOP_ID": 312100240,
      "LNG": 127.23545066,
      "BRT_SUBID": "0",
      "ROUTE_ID": 305001719,
      "STOP_NAME": "마치신덕마을",
      "SERVICE_ID": 30240,
      "NODE_ID": 312100240,
      "STOP_ORD": 10,
      "LAT": 35.773491
    },
    {
      "ROUTE_NAME": "77",
      "ROUTE_ORD": 11,
      "STOP_ID": 312100256,
      "LNG": 127.24443924,
      "BRT_SUBID": "0",
      "ROUTE_ID": 305001719,
      "STOP_NAME": "마치마을",
      "SERVICE_ID": 30256,
      "NODE_ID": 312100256,
      "STOP_ORD": 11,
      "LAT": 35.77606635
    },
    {
      "ROUTE_NAME": "77",
      "ROUTE_ORD": 12,
      "STOP_ID": 312100294,
      "LNG": 127.25219846,
      "BRT_SUBID": "0",
      "ROUTE_ID": 305001719,
      "STOP_NAME": "정수리",
      "SERVICE_ID": 30294,
      "NODE_ID": 312100294,
      "STOP_ORD": 12,
      "LAT": 35.78440813
    },
    {
      "ROUTE_NAME": "77",
      "ROUTE_ORD": 14,
      "STOP_ID": 305032716,
      "LNG": 127.256393,
      "BRT_SUBID": "0",
      "ROUTE_ID": 305001719,
      "STOP_NAME": "대흥마을",
      "SERVICE_ID": 36650,
      "NODE_ID": 305032716,
      "STOP_ORD": 13,
      "LAT": 35.791672
    }
  ]
}