{
  "resultList": [
    {
      "ROUTE_NAME": "50",
      "ROUTE_ORD": 1,
      "STOP_ID": 305032701,
      "LNG": 127.235965,
      "BRT_SUBID": "0",
      "ROUTE_ID": 305001524,
      "STOP_NAME": "소양회차지",
      "SERVICE_ID": 36635,
      "NODE_ID": 305032701,
      "STOP_ORD": 1,
      "LAT": 35.855229
    },
    {
      "ROUTE_NAME": "50",
      "ROUTE_ORD": 2,
      "STOP_ID": 312101218,
      "LNG": 127.23316474,
      "BRT_SUBID": "0",
      "ROUTE_ID": 305001524,
      "STOP_NAME": "소양",
      "SERVICE_ID": 31217,
      "NODE_ID": 312101218,
      "STOP_ORD": 2,
      "LAT": 35.85581764
    },
    {
      "ROUTE_NAME": "50",
      "ROUTE_ORD": 3,
      "STOP_ID": 312101196,
      "LNG": 127.2291111,
      "BRT_SUBID": "0",
      "ROUTE_ID": 305001524,
      "STOP_NAME": "소양119지역대",
      "SERVICE_ID": 31195,
      "NODE_ID": 312101196,
      "STOP_ORD": 3,
      "LAT": 35.85458355
    },
    {
      "ROUTE_NAME": "50",
      "ROUTE_ORD": 4,
      "STOP_ID": 312101171,
      "LNG": 127.22516257,
      "BRT_SUBID": "0",
      "ROUTE_ID": 305001524,
      "STOP_NAME": "소양행정복지센터",
      "SERVICE_ID": 31170,
      "NODE_ID": 312101171,
      "STOP_ORD": 4,
      "LAT": 35.85349548
    },
    {
      "ROUTE_NAME": "50",
      "ROUTE_ORD": 5,
      "STOP_ID": 312101206,
      "LNG": 127.22187541,
      "BRT_SUBID": "0",
      "ROUTE_ID": 305001524,
      "STOP_NAME": "죽절리",
      "SERVICE_ID": 31205,
      "NODE_ID": 312101206,
      "STOP_ORD": 5,
      "LAT": 35.85492377
    },
    {
      "ROUTE_NAME": "50",
      "ROUTE_ORD": 6,
      "STOP_ID": 312101226,
      "LNG": 127.2086716,
      "BRT_SUBID": "0",
      "ROUTE_ID": 305001524,
      "STOP_NAME": "단암사",
      "SERVICE_ID": 31225,
      "NODE_ID": 312101226,
      "STOP_ORD": 6,
      "LAT": 35.8563787
    },
    {
      "ROUTE_NAME": "50",
      "ROUTE_ORD": 7,
      "STOP_ID": 312101258,
      "LNG": 127.19721877,
      "BRT_SUBID": "0",
      "ROUTE_ID": 305001524,
      "STOP_NAME": "마월리",
      "SERVICE_ID": 31257,
      "NODE_ID": 312101258,
      "STOP_ORD": 7,
      "LAT": 35.85917531
    },
    {
      "ROUTE_NAME": "50",
      "ROUTE_ORD": 8,
      "STOP_ID": 312101257,
      "LNG": 127.18912355,
      "BRT_SUBID": "0",
      "ROUTE_ID": 305001524,
      "STOP_NAME": "복고시기마을",
      "SERVICE_ID": 31256,
      "NODE_ID": 312101257,
      "STOP_ORD": 8,
      "LAT": 35.85916459
    },
    {
      "ROUTE_NAME": "50",
      "ROUTE_ORD": 9,
      "STOP_ID": 312101238,
      "LNG": 127.18529138,
      "BRT_SUBID": "0",
      "ROUTE_ID": 305001524,
      "STOP_NAME": "용교",
      "SERVICE_ID": 31237,
      "NODE_ID": 312101238,
      "STOP_ORD": 9,
      "LAT": 35.85779362
    },
    {
      "ROUTE_NAME": "50",
      "ROUTE_ORD": 10,
      "STOP_ID": 312101282,
      "LNG": 127.1782447,
      "BRT_SUBID": "0",
      "ROUTE_ID": 305001524,
      "STOP_NAME": "상삼마을",
      "SERVICE_ID": 31281,
      "NODE_ID": 312101282,
      "STOP_ORD": 10,
      "LAT": 35.86069463
    },
    {
      "ROUTE_NAME": "50",
      "ROUTE_ORD": 11,
      "STOP_ID": 312101291,
      "LNG": 127.17459517,
      "BRT_SUBID": "0",
      "ROUTE_ID": 305001524,
      "STOP_NAME": "하이삼거리",
      "SERVICE_ID": 31290,
      "NODE_ID": 312101291,
      "STOP_ORD": 11,
      "LAT": 35.8621785
    },
    {
      "ROUTE_NAME": "50",
      "ROUTE_ORD": 12,
      "STOP_ID": 312101312,
      "LNG": 127.17076223,
      "BRT_SUBID": "0",
      "ROUTE_ID": 305001524,
      "STOP_NAME": "구억정미소",
      "SERVICE_ID": 31311,
      "NODE_ID": 312101312,
      "STOP_ORD": 12,
      "LAT": 35.86379562
    },
    {
      "ROUTE_NAME": "50",
      "ROUTE_ORD": 13,
      "STOP_ID": 312101340,
      "LNG": 127.16684529,
      "BRT_SUBID": "0",
      "ROUTE_ID": 305001524,
      "STOP_NAME": "용정마을",
      "SERVICE_ID": 31339,
      "NODE_ID": 312101340,
      "STOP_ORD": 13,
      "LAT": 35.86606524
    },
    {
      "ROUTE_NAME": "50",
      "ROUTE_ORD": 14,
      "STOP_ID": 312101371,
      "LNG": 127.16480495,
      "BRT_SUBID": "0",
      "ROUTE_ID": 305001524,
      "STOP_NAME": "구억마을",
      "SERVICE_ID": 31370,
      "NODE_ID": 312101371,
      "STOP_ORD": 14,
      "LAT": 35.86822038
    },
    {
      "ROUTE_NAME": "50",
      "ROUTE_ORD": 15,
      "STOP_ID": 312101397,
      "LNG": 127.16381439,
      "BRT_SUBID": "0",
      "ROUTE_ID": 305001524,
      "STOP_NAME": "금성자동차학원",
      "SERVICE_ID": 31396,
      "NODE_ID": 312101397,
      "STOP_ORD": 15,
      "LAT": 35.87077149
    },
    {
      "ROUTE_NAME": "50",
      "ROUTE_ORD": 16,
      "STOP_ID": 312101424,
      "LNG": 127.1597444,
      "BRT_SUBID": "0",
      "ROUTE_ID": 305001524,
      "STOP_NAME": "소양교",
      "SERVICE_ID": 31423,
      "NODE_ID": 312101424,
      "STOP_ORD": 16,
      "LAT": 35.8738314
    },
    {
      "ROUTE_NAME": "50",
      "ROUTE_ORD": 17,
      "STOP_ID": 312101508,
      "LNG": 127.15612134,
      "BRT_SUBID": "0",
      "ROUTE_ID": 305001524,
      "STOP_NAME": "용진",
      "SERVICE_ID": 31507,
      "NODE_ID": 312101508,
      "STOP_ORD": 17,
      "LAT": 35.88157573
    },
    {
      "ROUTE_NAME": "50",
      "ROUTE_ORD": 18,
      "STOP_ID": 312101537,
      "LNG": 127.15634238,
      "BRT_SUBID": "0",
      "ROUTE_ID": 305001524,
      "STOP_NAME": "운교마을",
      "SERVICE_ID": 31536,
      "NODE_ID": 312101537,
      "STOP_ORD": 18,
      "LAT": 35.88414581
    },
    {
      "ROUTE_NAME": "50",
      "ROUTE_ORD": 19,
      "STOP_ID": 312101555,
      "LNG": 127.15661063,
      "BRT_SUBID": "0",
      "ROUTE_ID": 305001524,
      "STOP_NAME": "상운리입구",
      "SERVICE_ID": 31554,
      "NODE_ID": 312101555,
      "STOP_ORD": 19,
      "LAT": 35.88820668
    },
    {
      "ROUTE_NAME": "50",
      "ROUTE_ORD": 20,
      "STOP_ID": 305032454,
      "LNG": 127.1572692,
      "BRT_SUBID": "0",
      "ROUTE_ID": 305001524,
      "STOP_NAME": "녹동마을.상운리입구",
      "SERVICE_ID": 36388,
      "NODE_ID": 305032454,
      "STOP_ORD": 20,
      "LAT": 35.8884837
    },
    {
      "ROUTE_NAME": "50",
      "ROUTE_ORD": 21,
      "STOP_ID": 312101566,
      "LNG": 127.16112758,
      "BRT_SUBID": "0",
      "ROUTE_ID": 305001524,
      "STOP_NAME": "봉서로 상운리",
      "SERVICE_ID": 31565,
      "NODE_ID": 312101566,
      "STOP_ORD": 21,
      "LAT": 35.88938144
    },
    {
      "ROUTE_NAME": "50",
      "ROUTE_ORD": 22,
      "STOP_ID": 312101570,
      "LNG": 127.1669746,
      "BRT_SUBID": "0",
      "ROUTE_ID": 305001524,
      "STOP_NAME": "시천마을",
      "SERVICE_ID": 31569,
      "NODE_ID": 312101570,
      "STOP_ORD": 22,
      "LAT": 35.88972799
    },
    {
      "ROUTE_NAME": "50",
      "ROUTE_ORD": 23,
      "STOP_ID": 305032741,
      "LNG": 127.17379966,
      "BRT_SUBID": "0",
      "ROUTE_ID": 305001524,
      "STOP_NAME": "도계마을입구",
      "SERVICE_ID": 36675,
      "NODE_ID": 305032741,
      "STOP_ORD": 23,
      "LAT": 35.89080684
    },
    {
      "ROUTE_NAME": "50",
      "ROUTE_ORD": 24,
      "STOP_ID": 312101576,
      "LNG": 127.17758986,
      "BRT_SUBID": "0",
      "ROUTE_ID": 305001524,
      "STOP_NAME": "도계마을",
      "SERVICE_ID": 31575,
      "NODE_ID": 312101576,
      "STOP_ORD": 24,
      "LAT": 35.89055594
    },
    {
      "ROUTE_NAME": "50",
      "ROUTE_ORD": 25,
      "STOP_ID": 312101586,
      "LNG": 127.18141087,
      "BRT_SUBID": "0",
      "ROUTE_ID": 305001524,
      "STOP_NAME": "간중초교",
      "SERVICE_ID": 31585,
      "NODE_ID": 312101586,
      "STOP_ORD": 25,
      "LAT": 35.89163192
    },
    {
      "ROUTE_NAME": "50",
      "ROUTE_ORD": 26,
      "STOP_ID": 312101596,
      "LNG": 127.18415443,
      "BRT_SUBID": "0",
      "ROUTE_ID": 305001524,
      "STOP_NAME": "원간중리",
      "SERVICE_ID": 31595,
      "NODE_ID": 312101596,
      "STOP_ORD": 26,
      "LAT": 35.89240138
    },
    {
      "ROUTE_NAME": "50",
      "ROUTE_ORD": 27,
      "STOP_ID": 305032518,
      "LNG": 127.1873329,
      "BRT_SUBID": "0",
      "ROUTE_ID": 305001524,
      "STOP_NAME": "두억삼거리",
      "SERVICE_ID": 36452,
      "NODE_ID": 305032518,
      "STOP_ORD": 27,
      "LAT": 35.8932992
    },
    {
      "ROUTE_NAME": "50",
      "ROUTE_ORD": 28,
      "STOP_ID": 312101614,
      "LNG": 127.19150044,
      "BRT_SUBID": "0",
      "ROUTE_ID": 305001524,
      "STOP_NAME": "두억마을",
      "SERVICE_ID": 31613,
      "NODE_ID": 312101614,
      "STOP_ORD": 28,
      "LAT": 35.89588831
    },
    {
      "ROUTE_NAME": "50",
      "ROUTE_ORD": 29,
      "STOP_ID": 312132040,
      "LNG": 127.19041444,
      "BRT_SUBID": "0",
      "ROUTE_ID": 305001524,
      "STOP_NAME": "신촌마을",
      "SERVICE_ID": 32040,
      "NODE_ID": 312132040,
      "STOP_ORD": 29,
      "LAT": 35.89807174
    },
    {
      "ROUTE_NAME": "50",
      "ROUTE_ORD": 30,
      "STOP_ID": 312101635,
      "LNG": 127.18501009,
      "BRT_SUBID": "0",
      "ROUTE_ID": 305001524,
      "STOP_NAME": "신봉마을",
      "SERVICE_ID": 31634,
      "NODE_ID": 312101635,
      "STOP_ORD": 30,
      "LAT": 35.90349994
    },
    {
      "ROUTE_NAME": "50",
      "ROUTE_ORD": 31,
      "STOP_ID": 312101652,
      "LNG": 127.17877556,
      "BRT_SUBID": "0",
      "ROUTE_ID": 305001524,
      "STOP_NAME": "덕암마을",
      "SERVICE_ID": 31651,
      "NODE_ID": 312101652,
      "STOP_ORD": 31,
      "LAT": 35.90388552
    },
    {
      "ROUTE_NAME": "50",
      "ROUTE_ORD": 32,
      "STOP_ID": 312101642,
      "LNG": 127.17092453,
      "BRT_SUBID": "0",
      "ROUTE_ID": 305001524,
      "STOP_NAME": "지암마을",
      "SERVICE_ID": 31641,
      "NODE_ID": 312101642,
      "STOP_ORD": 32,
      "LAT": 35.90451218
    },
    {
      "ROUTE_NAME": "50",
      "ROUTE_ORD": 33,
      "STOP_ID": 305032742,
      "LNG": 127.1673034,
      "BRT_SUBID": "0",
      "ROUTE_ID": 305001524,
      "STOP_NAME": "운곡모아미래도1.2차아파트",
      "SERVICE_ID": 36676,
      "NODE_ID": 305032742,
      "STOP_ORD": 33,
      "LAT": 35.90378502
    },
    {
      "ROUTE_NAME": "50",
      "ROUTE_ORD": 34,
      "STOP_ID": 312102030,
      "LNG": 127.16176944,
      "BRT_SUBID": "0",
      "ROUTE_ID": 305001524,
      "STOP_NAME": "완주군청",
      "SERVICE_ID": 32030,
      "NODE_ID": 312102030,
      "STOP_ORD": 34,
      "LAT": 35.90364372
    },
    {
      "ROUTE_NAME": "50",
      "ROUTE_ORD": 35,
      "STOP_ID": 312102031,
      "LNG": 127.15812971,
      "BRT_SUBID": "0",
      "ROUTE_ID": 305001524,
      "STOP_NAME": "운곡마을",
      "SERVICE_ID": 32031,
      "NODE_ID": 312102031,
      "STOP_ORD": 35,
      "LAT": 35.90422213
    },
    {
      "ROUTE_NAME": "50",
      "ROUTE_ORD": 36,
      "STOP_ID": 312101638,
      "LNG": 127.15698152,
      "BRT_SUBID": "0",
      "ROUTE_ID": 305001524,
      "STOP_NAME": "복합문화지구누에.용봉초교",
      "SERVICE_ID": 31637,
      "NODE_ID": 312101638,
      "STOP_ORD": 36,
      "LAT": 35.90458201
    },
    {
      "ROUTE_NAME": "50",
      "ROUTE_ORD": 37,
      "STOP_ID": 312101657,
      "LNG": 127.15813098,
      "BRT_SUBID": "0",
      "ROUTE_ID": 305001524,
      "STOP_NAME": "구만리",
      "SERVICE_ID": 31656,
      "NODE_ID": 312101657,
      "STOP_ORD": 37,
      "LAT": 35.90832815
    },
    {
      "ROUTE_NAME": "50",
      "ROUTE_ORD": 38,
      "STOP_ID": 312101692,
      "LNG": 127.16295586,
      "BRT_SUBID": "0",
      "ROUTE_ID": 305001524,
      "STOP_NAME": "서당리",
      "SERVICE_ID": 31691,
      "NODE_ID": 312101692,
      "STOP_ORD": 38,
      "LAT": 35.91337289
    },
    {
      "ROUTE_NAME": "50",
      "ROUTE_ORD": 39,
      "STOP_ID": 312101736,
      "LNG": 127.16819719,
      "BRT_SUBID": "0",
      "ROUTE_ID": 305001524,
      "STOP_NAME": "하이트맥주",
      "SERVICE_ID": 31735,
      "NODE_ID": 312101736,
      "STOP_ORD": 39,
      "LAT": 35.92086102
    },
    {
      "ROUTE_NAME": "50",
      "ROUTE_ORD": 40,
      "STOP_ID": 312101754,
      "LNG": 127.17202222,
      "BRT_SUBID": "0",
      "ROUTE_ID": 305001524,
      "STOP_NAME": "용진원주아파트",
      "SERVICE_ID": 31753,
      "NODE_ID": 312101754,
      "STOP_ORD": 40,
      "LAT": 35.92528691
    },
    {
      "ROUTE_NAME": "50",
      "ROUTE_ORD": 41,
      "STOP_ID": 312101771,
      "LNG": 127.1725101,
      "BRT_SUBID": "0",
      "ROUTE_ID": 305001524,
      "STOP_NAME": "용복마을",
      "SERVICE_ID": 31770,
      "NODE_ID": 312101771,
      "STOP_ORD": 41,
      "LAT": 35.927856
    },
    {
      "ROUTE_NAME": "50",
      "ROUTE_ORD": 42,
      "STOP_ID": 312101800,
      "LNG": 127.17316506,
      "BRT_SUBID": "0",
      "ROUTE_ID": 305001524,
      "STOP_NAME": "용진대영아파트",
      "SERVICE_ID": 31799,
      "NODE_ID": 312101800,
      "STOP_ORD": 42,
      "LAT": 35.93370355
    },
    {
      "ROUTE_NAME": "50",
      "ROUTE_ORD": 43,
      "STOP_ID": 312101821,
      "LNG": 127.17401387,
      "BRT_SUBID": "0",
      "ROUTE_ID": 305001524,
      "STOP_NAME": "완주국민체육센터",
      "SERVICE_ID": 31820,
      "NODE_ID": 312101821,
      "STOP_ORD": 43,
      "LAT": 35.93788059
    },
    {
      "ROUTE_NAME": "50",
      "ROUTE_ORD": 44,
      "STOP_ID": 312101841,
      "LNG": 127.16858868,
      "BRT_SUBID": "0",
      "ROUTE_ID": 305001524,
      "STOP_NAME": "봉동신진맨션아파트",
      "SERVICE_ID": 31840,
      "NODE_ID": 312101841,
      "STOP_ORD": 44,
      "LAT": 35.94217268
    },
    {
      "ROUTE_NAME": "50",
      "ROUTE_ORD": 45,
      "STOP_ID": 312101830,
      "LNG": 127.16750322,
      "BRT_SUBID": "0",
      "ROUTE_ID": 305001524,
      "STOP_NAME": "완주고봉동파출소",
      "SERVICE_ID": 31829,
      "NODE_ID": 312101830,
      "STOP_ORD": 45,
      "LAT": 35.93950244
    },
    {
      "ROUTE_NAME": "50",
      "ROUTE_ORD": 46,
      "STOP_ID": 312101820,
      "LNG": 127.16815446,
      "BRT_SUBID": "0",
      "ROUTE_ID": 305001524,
      "STOP_NAME": "봉동전통시장",
      "SERVICE_ID": 31819,
      "NODE_ID": 312101820,
      "STOP_ORD": 46,
      "LAT": 35.93783158
    },
    {
      "ROUTE_NAME": "50",
      "ROUTE_ORD": 47,
      "STOP_ID": 312101792,
      "LNG": 127.168542,
      "BRT_SUBID": "0",
      "ROUTE_ID": 305001524,
      "STOP_NAME": "보상마을",
      "SERVICE_ID": 31791,
      "NODE_ID": 312101792,
      "STOP_ORD": 47,
      "LAT": 35.9319952
    },
    {
      "ROUTE_NAME": "50",
      "ROUTE_ORD": 48,
      "STOP_ID": 312101768,
      "LNG": 127.16602905,
      "BRT_SUBID": "0",
      "ROUTE_ID": 305001524,
      "STOP_NAME": "완주경찰서",
      "SERVICE_ID": 31767,
      "NODE_ID": 312101768,
      "STOP_ORD": 48,
      "LAT": 35.92743643
    },
    {
      "ROUTE_NAME": "50",
      "ROUTE_ORD": 49,
      "STOP_ID": 312101764,
      "LNG": 127.16395544,
      "BRT_SUBID": "0",
      "ROUTE_ID": 305001524,
      "STOP_NAME": "낙평리",
      "SERVICE_ID": 31763,
      "NODE_ID": 312101764,
      "STOP_ORD": 49,
      "LAT": 35.92685216
    },
    {
      "ROUTE_NAME": "50",
      "ROUTE_ORD": 50,
      "STOP_ID": 312101782,
      "LNG": 127.16123509,
      "BRT_SUBID": "0",
      "ROUTE_ID": 305001524,
      "STOP_NAME": "봉동주공아파트",
      "SERVICE_ID": 31781,
      "NODE_ID": 312101782,
      "STOP_ORD": 50,
      "LAT": 35.92952914
    }
  ]
}