{
  "resultList": [
    {
      "ROUTE_NAME": "24",
      "ROUTE_ORD": 1,
      "STOP_ID": 311100415,
      "LNG": 127.01882666,
      "BRT_SUBID": "A",
      "ROUTE_ID": 305001358,
      "STOP_NAME": "구암",
      "SERVICE_ID": 30415,
      "NODE_ID": 311100415,
      "STOP_ORD": 1,
      "LAT": 35.79870643
    },
    {
      "ROUTE_NAME": "24",
      "ROUTE_ORD": 2,
      "STOP_ID": 305032825,
      "LNG": 127.017588,
      "BRT_SUBID": "A",
      "ROUTE_ID": 305001358,
      "STOP_NAME": "구암마을입구",
      "SERVICE_ID": 36759,
      "NODE_ID": 305032825,
      "STOP_ORD": 2,
      "LAT": 35.800439
    },
    {
      "ROUTE_NAME": "24",
      "ROUTE_ORD": 3,
      "STOP_ID": 312100466,
      "LNG": 127.01589931,
      "BRT_SUBID": "A",
      "ROUTE_ID": 305001358,
      "STOP_NAME": "동둔마을",
      "SERVICE_ID": 30466,
      "NODE_ID": 312100466,
      "STOP_ORD": 3,
      "LAT": 35.80297515
    },
    {
      "ROUTE_NAME": "24",
      "ROUTE_ORD": 4,
      "STOP_ID": 311100491,
      "LNG": 127.01231786,
      "BRT_SUBID": "A",
      "ROUTE_ID": 305001358,
      "STOP_NAME": "서둔마을",
      "SERVICE_ID": 30491,
      "NODE_ID": 311100491,
      "STOP_ORD": 4,
      "LAT": 35.80470559
    },
    {
      "ROUTE_NAME": "24",
      "ROUTE_ORD": 5,
      "STOP_ID": 311100524,
      "LNG": 127.00938273,
      "BRT_SUBID": "A",
      "ROUTE_ID": 305001358,
      "STOP_NAME": "산동교회",
      "SERVICE_ID": 30524,
      "NODE_ID": 311100524,
      "STOP_ORD": 5,
      "LAT": 35.80723286
    },
    {
      "ROUTE_NAME": "24",
      "ROUTE_ORD": 6,
      "STOP_ID": 311100540,
      "LNG": 127.0049013,
      "BRT_SUBID": "A",
      "ROUTE_ID": 305001358,
      "STOP_NAME": "신흥마을",
      "SERVICE_ID": 30540,
      "NODE_ID": 311100540,
      "STOP_ORD": 6,
      "LAT": 35.80916228
    },
    {
      "ROUTE_NAME": "24",
      "ROUTE_ORD": 7,
      "STOP_ID": 312100656,
      "LNG": 126.99911661,
      "BRT_SUBID": "A",
      "ROUTE_ID": 305001358,
      "STOP_NAME": "애통리",
      "SERVICE_ID": 30656,
      "NODE_ID": 312100656,
      "STOP_ORD": 7,
      "LAT": 35.81866984
    },
    {
      "ROUTE_NAME": "24",
      "ROUTE_ORD": 8,
      "STOP_ID": 312100679,
      "LNG": 127.00427055,
      "BRT_SUBID": "A",
      "ROUTE_ID": 305001358,
      "STOP_NAME": "은교마을",
      "SERVICE_ID": 30679,
      "NODE_ID": 312100679,
      "STOP_ORD": 8,
      "LAT": 35.81983089
    },
    {
      "ROUTE_NAME": "24",
      "ROUTE_ORD": 9,
      "STOP_ID": 305032799,
      "LNG": 127.011272,
      "BRT_SUBID": "A",
      "ROUTE_ID": 305001358,
      "STOP_NAME": "신일해피트리",
      "SERVICE_ID": 36732,
      "NODE_ID": 305032799,
      "STOP_ORD": 9,
      "LAT": 35.817147
    },
    {
      "ROUTE_NAME": "24",
      "ROUTE_ORD": 10,
      "STOP_ID": 305032797,
      "LNG": 127.01231,
      "BRT_SUBID": "A",
      "ROUTE_ID": 305001358,
      "STOP_NAME": "양우내안애",
      "SERVICE_ID": 36731,
      "NODE_ID": 305032797,
      "STOP_ORD": 10,
      "LAT": 35.816225
    },
    {
      "ROUTE_NAME": "24",
      "ROUTE_ORD": 11,
      "STOP_ID": 305032796,
      "LNG": 127.012397,
      "BRT_SUBID": "A",
      "ROUTE_ID": 305001358,
      "STOP_NAME": "양우내안애",
      "SERVICE_ID": 36730,
      "NODE_ID": 305032796,
      "STOP_ORD": 11,
      "LAT": 35.816289
    },
    {
      "ROUTE_NAME": "24",
      "ROUTE_ORD": 12,
      "STOP_ID": 305032798,
      "LNG": 127.011362,
      "BRT_SUBID": "A",
      "ROUTE_ID": 305001358,
      "STOP_NAME": "신일해피트리",
      "SERVICE_ID": 36733,
      "NODE_ID": 305032798,
      "STOP_ORD": 12,
      "LAT": 35.817218
    },
    {
      "ROUTE_NAME": "24",
      "ROUTE_ORD": 13,
      "STOP_ID": 312100690,
      "LNG": 127.00778106,
      "BRT_SUBID": "A",
      "ROUTE_ID": 305001358,
      "STOP_NAME": "BYC",
      "SERVICE_ID": 30690,
      "NODE_ID": 312100690,
      "STOP_ORD": 13,
      "LAT": 35.82043092
    },
    {
      "ROUTE_NAME": "24",
      "ROUTE_ORD": 14,
      "STOP_ID": 312100692,
      "LNG": 127.013546,
      "BRT_SUBID": "A",
      "ROUTE_ID": 305001358,
      "STOP_NAME": "모고지마을",
      "SERVICE_ID": 30692,
      "NODE_ID": 312100692,
      "STOP_ORD": 14,
      "LAT": 35.820608
    },
    {
      "ROUTE_NAME": "24",
      "ROUTE_ORD": 15,
      "STOP_ID": 312032819,
      "LNG": 127.0269439,
      "BRT_SUBID": "A",
      "ROUTE_ID": 305001358,
      "STOP_NAME": "신마산",
      "SERVICE_ID": 36289,
      "NODE_ID": 312032819,
      "STOP_ORD": 15,
      "LAT": 35.8210274
    },
    {
      "ROUTE_NAME": "24",
      "ROUTE_ORD": 16,
      "STOP_ID": 312100689,
      "LNG": 127.02352732,
      "BRT_SUBID": "A",
      "ROUTE_ID": 305001358,
      "STOP_NAME": "이서",
      "SERVICE_ID": 30689,
      "NODE_ID": 312100689,
      "STOP_ORD": 16,
      "LAT": 35.82040564
    },
    {
      "ROUTE_NAME": "24",
      "ROUTE_ORD": 17,
      "STOP_ID": 312132265,
      "LNG": 127.0206476,
      "BRT_SUBID": "A",
      "ROUTE_ID": 305001358,
      "STOP_NAME": "이서종점",
      "SERVICE_ID": 32265,
      "NODE_ID": 312132265,
      "STOP_ORD": 17,
      "LAT": 35.8198475
    },
    {
      "ROUTE_NAME": "24",
      "ROUTE_ORD": 18,
      "STOP_ID": 305032675,
      "LNG": 127.0199833,
      "BRT_SUBID": "A",
      "ROUTE_ID": 305001358,
      "STOP_NAME": "이서회차지",
      "SERVICE_ID": 36609,
      "NODE_ID": 305032675,
      "STOP_ORD": 18,
      "LAT": 35.817095
    }
  ]
}