{
  "resultList": [
    {
      "ROUTE_NAME": "31",
      "ROUTE_ORD": 1,
      "STOP_ID": 312101649,
      "LNG": 127.06532692,
      "BRT_SUBID": "0",
      "ROUTE_ID": 305001873,
      "STOP_NAME": "삼례역",
      "SERVICE_ID": 31648,
      "NODE_ID": 312101649,
      "STOP_ORD": 1,
      "LAT": 35.90536937
    },
    {
      "ROUTE_NAME": "31",
      "ROUTE_ORD": 2,
      "STOP_ID": 312032817,
      "LNG": 127.0654271,
      "BRT_SUBID": "0",
      "ROUTE_ID": 305001873,
      "STOP_NAME": "삼례문화예술촌",
      "SERVICE_ID": 36287,
      "NODE_ID": 312032817,
      "STOP_ORD": 2,
      "LAT": 35.9069489
    },
    {
      "ROUTE_NAME": "31",
      "ROUTE_ORD": 3,
      "STOP_ID": 312101660,
      "LNG": 127.07022405,
      "BRT_SUBID": "0",
      "ROUTE_ID": 305001873,
      "STOP_NAME": "전북하이텍고교.삼례파출소",
      "SERVICE_ID": 31659,
      "NODE_ID": 312101660,
      "STOP_ORD": 3,
      "LAT": 35.90891226
    },
    {
      "ROUTE_NAME": "31",
      "ROUTE_ORD": 4,
      "STOP_ID": 312101666,
      "LNG": 127.07177901,
      "BRT_SUBID": "0",
      "ROUTE_ID": 305001873,
      "STOP_NAME": "한별고등학교",
      "SERVICE_ID": 31665,
      "NODE_ID": 312101666,
      "STOP_ORD": 4,
      "LAT": 35.90989749
    },
    {
      "ROUTE_NAME": "31",
      "ROUTE_ORD": 5,
      "STOP_ID": 312102009,
      "LNG": 127.0733218,
      "BRT_SUBID": "0",
      "ROUTE_ID": 305001873,
      "STOP_NAME": "삼봉로.삼례시장",
      "SERVICE_ID": 32009,
      "NODE_ID": 312102009,
      "STOP_ORD": 5,
      "LAT": 35.91095521
    },
    {
      "ROUTE_NAME": "31",
      "ROUTE_ORD": 6,
      "STOP_ID": 312101674,
      "LNG": 127.0749043,
      "BRT_SUBID": "0",
      "ROUTE_ID": 305001873,
      "STOP_NAME": "삼례터미널",
      "SERVICE_ID": 31673,
      "NODE_ID": 312101674,
      "STOP_ORD": 6,
      "LAT": 35.9099229
    },
    {
      "ROUTE_NAME": "31",
      "ROUTE_ORD": 7,
      "STOP_ID": 312101677,
      "LNG": 127.07488992,
      "BRT_SUBID": "0",
      "ROUTE_ID": 305001873,
      "STOP_NAME": "삼례농협",
      "SERVICE_ID": 31676,
      "NODE_ID": 312101677,
      "STOP_ORD": 7,
      "LAT": 35.91188075
    },
    {
      "ROUTE_NAME": "31",
      "ROUTE_ORD": 8,
      "STOP_ID": 312032793,
      "LNG": 127.0776336,
      "BRT_SUBID": "0",
      "ROUTE_ID": 305001873,
      "STOP_NAME": "삼례읍행정복지센터.삼례중입구",
      "SERVICE_ID": 36262,
      "NODE_ID": 312032793,
      "STOP_ORD": 8,
      "LAT": 35.9137472
    },
    {
      "ROUTE_NAME": "31",
      "ROUTE_ORD": 9,
      "STOP_ID": 312101705,
      "LNG": 127.08102906,
      "BRT_SUBID": "0",
      "ROUTE_ID": 305001873,
      "STOP_NAME": "삼례대영아파트",
      "SERVICE_ID": 31704,
      "NODE_ID": 312101705,
      "STOP_ORD": 9,
      "LAT": 35.91594425
    },
    {
      "ROUTE_NAME": "31",
      "ROUTE_ORD": 10,
      "STOP_ID": 312101707,
      "LNG": 127.08227641,
      "BRT_SUBID": "0",
      "ROUTE_ID": 305001873,
      "STOP_NAME": "삼례동원아파트",
      "SERVICE_ID": 31706,
      "NODE_ID": 312101707,
      "STOP_ORD": 10,
      "LAT": 35.91665242
    },
    {
      "ROUTE_NAME": "31",
      "ROUTE_ORD": 11,
      "STOP_ID": 312101715,
      "LNG": 127.08407175,
      "BRT_SUBID": "0",
      "ROUTE_ID": 305001873,
      "STOP_NAME": "완주군청소년수련관",
      "SERVICE_ID": 31714,
      "NODE_ID": 312101715,
      "STOP_ORD": 11,
      "LAT": 35.91782432
    },
    {
      "ROUTE_NAME": "31",
      "ROUTE_ORD": 12,
      "STOP_ID": 312101722,
      "LNG": 127.08672909,
      "BRT_SUBID": "0",
      "ROUTE_ID": 305001873,
      "STOP_NAME": "삼례IC네거리",
      "SERVICE_ID": 31721,
      "NODE_ID": 312101722,
      "STOP_ORD": 12,
      "LAT": 35.91919292
    },
    {
      "ROUTE_NAME": "31",
      "ROUTE_ORD": 13,
      "STOP_ID": 312101723,
      "LNG": 127.08999897,
      "BRT_SUBID": "0",
      "ROUTE_ID": 305001873,
      "STOP_NAME": "농원입구",
      "SERVICE_ID": 31722,
      "NODE_ID": 312101723,
      "STOP_ORD": 13,
      "LAT": 35.91948337
    },
    {
      "ROUTE_NAME": "31",
      "ROUTE_ORD": 14,
      "STOP_ID": 312101718,
      "LNG": 127.09486981,
      "BRT_SUBID": "0",
      "ROUTE_ID": 305001873,
      "STOP_NAME": "완주군공설운동장.별산리",
      "SERVICE_ID": 31717,
      "NODE_ID": 312101718,
      "STOP_ORD": 14,
      "LAT": 35.9188789
    },
    {
      "ROUTE_NAME": "31",
      "ROUTE_ORD": 15,
      "STOP_ID": 312101776,
      "LNG": 127.0961787,
      "BRT_SUBID": "0",
      "ROUTE_ID": 305001873,
      "STOP_NAME": "월산리",
      "SERVICE_ID": 31775,
      "NODE_ID": 312101776,
      "STOP_ORD": 15,
      "LAT": 35.92807912
    },
    {
      "ROUTE_NAME": "31",
      "ROUTE_ORD": 16,
      "STOP_ID": 312101796,
      "LNG": 127.10040645,
      "BRT_SUBID": "0",
      "ROUTE_ID": 305001873,
      "STOP_NAME": "학동마을",
      "SERVICE_ID": 31795,
      "NODE_ID": 312101796,
      "STOP_ORD": 16,
      "LAT": 35.93280133
    },
    {
      "ROUTE_NAME": "31",
      "ROUTE_ORD": 17,
      "STOP_ID": 312101807,
      "LNG": 127.10383173,
      "BRT_SUBID": "0",
      "ROUTE_ID": 305001873,
      "STOP_NAME": "정산마을",
      "SERVICE_ID": 31806,
      "NODE_ID": 312101807,
      "STOP_ORD": 17,
      "LAT": 35.93498615
    },
    {
      "ROUTE_NAME": "31",
      "ROUTE_ORD": 18,
      "STOP_ID": 312101983,
      "LNG": 127.10702223,
      "BRT_SUBID": "0",
      "ROUTE_ID": 305001873,
      "STOP_NAME": "원구암",
      "SERVICE_ID": 31982,
      "NODE_ID": 312101983,
      "STOP_ORD": 18,
      "LAT": 35.94076091
    },
    {
      "ROUTE_NAME": "31",
      "ROUTE_ORD": 19,
      "STOP_ID": 312101805,
      "LNG": 127.1118894,
      "BRT_SUBID": "0",
      "ROUTE_ID": 305001873,
      "STOP_NAME": "청등마을",
      "SERVICE_ID": 31804,
      "NODE_ID": 312101805,
      "STOP_ORD": 19,
      "LAT": 35.93464277
    },
    {
      "ROUTE_NAME": "31",
      "ROUTE_ORD": 20,
      "STOP_ID": 312101779,
      "LNG": 127.11060537,
      "BRT_SUBID": "0",
      "ROUTE_ID": 305001873,
      "STOP_NAME": "신정리",
      "SERVICE_ID": 31778,
      "NODE_ID": 312101779,
      "STOP_ORD": 20,
      "LAT": 35.92862804
    },
    {
      "ROUTE_NAME": "31",
      "ROUTE_ORD": 21,
      "STOP_ID": 312101742,
      "LNG": 127.1142459,
      "BRT_SUBID": "0",
      "ROUTE_ID": 305001873,
      "STOP_NAME": "삼봉행복주택아파트",
      "SERVICE_ID": 31741,
      "NODE_ID": 312101742,
      "STOP_ORD": 21,
      "LAT": 35.92367689
    },
    {
      "ROUTE_NAME": "31",
      "ROUTE_ORD": 22,
      "STOP_ID": 305032735,
      "LNG": 127.11557394,
      "BRT_SUBID": "0",
      "ROUTE_ID": 305001873,
      "STOP_NAME": "삼봉1단지아파트",
      "SERVICE_ID": 36669,
      "NODE_ID": 305032735,
      "STOP_ORD": 22,
      "LAT": 35.92258511
    },
    {
      "ROUTE_NAME": "31",
      "ROUTE_ORD": 23,
      "STOP_ID": 305032736,
      "LNG": 127.11706207,
      "BRT_SUBID": "0",
      "ROUTE_ID": 305001873,
      "STOP_NAME": "삼봉중흥S클래스아파트",
      "SERVICE_ID": 36670,
      "NODE_ID": 305032736,
      "STOP_ORD": 23,
      "LAT": 35.9211259
    },
    {
      "ROUTE_NAME": "31",
      "ROUTE_ORD": 24,
      "STOP_ID": 305032738,
      "LNG": 127.12104986,
      "BRT_SUBID": "0",
      "ROUTE_ID": 305001873,
      "STOP_NAME": "삼봉우미린아파트",
      "SERVICE_ID": 36672,
      "NODE_ID": 305032738,
      "STOP_ORD": 24,
      "LAT": 35.92412535
    },
    {
      "ROUTE_NAME": "31",
      "ROUTE_ORD": 25,
      "STOP_ID": 312101761,
      "LNG": 127.12141062,
      "BRT_SUBID": "0",
      "ROUTE_ID": 305001873,
      "STOP_NAME": "삼봉로완주소방서",
      "SERVICE_ID": 31760,
      "NODE_ID": 312101761,
      "STOP_ORD": 25,
      "LAT": 35.92635782
    },
    {
      "ROUTE_NAME": "31",
      "ROUTE_ORD": 26,
      "STOP_ID": 312101772,
      "LNG": 127.1253209,
      "BRT_SUBID": "0",
      "ROUTE_ID": 305001873,
      "STOP_NAME": "과학로.구.청완초교",
      "SERVICE_ID": 31771,
      "NODE_ID": 312101772,
      "STOP_ORD": 26,
      "LAT": 35.9289018
    },
    {
      "ROUTE_NAME": "31",
      "ROUTE_ORD": 27,
      "STOP_ID": 312101795,
      "LNG": 127.12539617,
      "BRT_SUBID": "0",
      "ROUTE_ID": 305001873,
      "STOP_NAME": "원수계리",
      "SERVICE_ID": 31794,
      "NODE_ID": 312101795,
      "STOP_ORD": 27,
      "LAT": 35.93270207
    },
    {
      "ROUTE_NAME": "31",
      "ROUTE_ORD": 28,
      "STOP_ID": 312101826,
      "LNG": 127.12563217,
      "BRT_SUBID": "0",
      "ROUTE_ID": 305001873,
      "STOP_NAME": "금강고려화학",
      "SERVICE_ID": 31825,
      "NODE_ID": 312101826,
      "STOP_ORD": 28,
      "LAT": 35.93881728
    },
    {
      "ROUTE_NAME": "31",
      "ROUTE_ORD": 29,
      "STOP_ID": 312101846,
      "LNG": 127.12559102,
      "BRT_SUBID": "0",
      "ROUTE_ID": 305001873,
      "STOP_NAME": "에스엠코어전주공장",
      "SERVICE_ID": 31845,
      "NODE_ID": 312101846,
      "STOP_ORD": 29,
      "LAT": 35.94576854
    },
    {
      "ROUTE_NAME": "31",
      "ROUTE_ORD": 30,
      "STOP_ID": 305032478,
      "LNG": 127.1256453,
      "BRT_SUBID": "0",
      "ROUTE_ID": 305001873,
      "STOP_NAME": "배매산",
      "SERVICE_ID": 36412,
      "NODE_ID": 305032478,
      "STOP_ORD": 30,
      "LAT": 35.9508351
    },
    {
      "ROUTE_NAME": "31",
      "ROUTE_ORD": 31,
      "STOP_ID": 305032380,
      "LNG": 127.1255444,
      "BRT_SUBID": "0",
      "ROUTE_ID": 305001873,
      "STOP_NAME": "데크항공사거리",
      "SERVICE_ID": 36314,
      "NODE_ID": 305032380,
      "STOP_ORD": 31,
      "LAT": 35.95485309
    },
    {
      "ROUTE_NAME": "31",
      "ROUTE_ORD": 32,
      "STOP_ID": 305032300,
      "LNG": 127.1258239,
      "BRT_SUBID": "0",
      "ROUTE_ID": 305001873,
      "STOP_NAME": "새완주병원",
      "SERVICE_ID": 32300,
      "NODE_ID": 305032300,
      "STOP_ORD": 32,
      "LAT": 35.9576391
    },
    {
      "ROUTE_NAME": "31",
      "ROUTE_ORD": 33,
      "STOP_ID": 305032488,
      "LNG": 127.126515,
      "BRT_SUBID": "0",
      "ROUTE_ID": 305001873,
      "STOP_NAME": "둔산코아루1차아파트",
      "SERVICE_ID": 36422,
      "NODE_ID": 305032488,
      "STOP_ORD": 33,
      "LAT": 35.9618481
    },
    {
      "ROUTE_NAME": "31",
      "ROUTE_ORD": 34,
      "STOP_ID": 312101914,
      "LNG": 127.122735,
      "BRT_SUBID": "0",
      "ROUTE_ID": 305001873,
      "STOP_NAME": "둔산코아루2차아파트",
      "SERVICE_ID": 31913,
      "NODE_ID": 312101914,
      "STOP_ORD": 34,
      "LAT": 35.96226927
    }
  ]
}