{
  "resultList": [
    {
      "ROUTE_NAME": "386",
      "ROUTE_ORD": 1,
      "STOP_ID": 305100650,
      "LNG": 127.091818,
      "BRT_SUBID": "0",
      "ROUTE_ID": 305001758,
      "STOP_NAME": "전주대학교",
      "SERVICE_ID": 30650,
      "NODE_ID": 305100650,
      "STOP_ORD": 1,
      "LAT": 35.81849
    },
    {
      "ROUTE_NAME": "386",
      "ROUTE_ORD": 2,
      "STOP_ID": 305100609,
      "LNG": 127.09452694,
      "BRT_SUBID": "0",
      "ROUTE_ID": 305001758,
      "STOP_NAME": "영생고 전주대사대부고",
      "SERVICE_ID": 30609,
      "NODE_ID": 305100609,
      "STOP_ORD": 2,
      "LAT": 35.81512963
    },
    {
      "ROUTE_NAME": "386",
      "ROUTE_ORD": 3,
      "STOP_ID": 305100584,
      "LNG": 127.09807381,
      "BRT_SUBID": "0",
      "ROUTE_ID": 305001758,
      "STOP_NAME": "호남제일고",
      "SERVICE_ID": 30584,
      "NODE_ID": 305100584,
      "STOP_ORD": 3,
      "LAT": 35.81348304
    },
    {
      "ROUTE_NAME": "386",
      "ROUTE_ORD": 4,
      "STOP_ID": 305102000,
      "LNG": 127.104499,
      "BRT_SUBID": "0",
      "ROUTE_ID": 305001758,
      "STOP_NAME": "전북선거관리위원회",
      "SERVICE_ID": 32000,
      "NODE_ID": 305102000,
      "STOP_ORD": 4,
      "LAT": 35.813544
    },
    {
      "ROUTE_NAME": "386",
      "ROUTE_ORD": 5,
      "STOP_ID": 305100582,
      "LNG": 127.10812742,
      "BRT_SUBID": "0",
      "ROUTE_ID": 305001758,
      "STOP_NAME": "효자엘드아파트",
      "SERVICE_ID": 30582,
      "NODE_ID": 305100582,
      "STOP_ORD": 5,
      "LAT": 35.81345643
    },
    {
      "ROUTE_NAME": "386",
      "ROUTE_ORD": 6,
      "STOP_ID": 305100580,
      "LNG": 127.11299794,
      "BRT_SUBID": "0",
      "ROUTE_ID": 305001758,
      "STOP_NAME": "거마평로이동교",
      "SERVICE_ID": 30580,
      "NODE_ID": 305100580,
      "STOP_ORD": 6,
      "LAT": 35.81342648
    },
    {
      "ROUTE_NAME": "386",
      "ROUTE_ORD": 7,
      "STOP_ID": 305100552,
      "LNG": 127.11455012,
      "BRT_SUBID": "0",
      "ROUTE_ID": 305001758,
      "STOP_NAME": "서전주중",
      "SERVICE_ID": 30552,
      "NODE_ID": 305100552,
      "STOP_ORD": 7,
      "LAT": 35.81094588
    },
    {
      "ROUTE_NAME": "386",
      "ROUTE_ORD": 9,
      "STOP_ID": 305100515,
      "LNG": 127.11813,
      "BRT_SUBID": "0",
      "ROUTE_ID": 305001758,
      "STOP_NAME": "안행교",
      "SERVICE_ID": 30515,
      "NODE_ID": 305100515,
      "STOP_ORD": 8,
      "LAT": 35.806361
    },
    {
      "ROUTE_NAME": "386",
      "ROUTE_ORD": 11,
      "STOP_ID": 305100505,
      "LNG": 127.122202,
      "BRT_SUBID": "0",
      "ROUTE_ID": 305001758,
      "STOP_NAME": "효자광장.전주시청소년상담센터",
      "SERVICE_ID": 30505,
      "NODE_ID": 305100505,
      "STOP_ORD": 9,
      "LAT": 35.805883
    },
    {
      "ROUTE_NAME": "386",
      "ROUTE_ORD": 12,
      "STOP_ID": 305100508,
      "LNG": 127.127207,
      "BRT_SUBID": "0",
      "ROUTE_ID": 305001758,
      "STOP_NAME": "서부시장",
      "SERVICE_ID": 30508,
      "NODE_ID": 305100508,
      "STOP_ORD": 10,
      "LAT": 35.805909
    },
    {
      "ROUTE_NAME": "386",
      "ROUTE_ORD": 14,
      "STOP_ID": 305100521,
      "LNG": 127.13090392,
      "BRT_SUBID": "0",
      "ROUTE_ID": 305001758,
      "STOP_NAME": "효자주공3단지",
      "SERVICE_ID": 30521,
      "NODE_ID": 305100521,
      "STOP_ORD": 11,
      "LAT": 35.80703339
    },
    {
      "ROUTE_NAME": "386",
      "ROUTE_ORD": 16,
      "STOP_ID": 305100537,
      "LNG": 127.13690696,
      "BRT_SUBID": "0",
      "ROUTE_ID": 305001758,
      "STOP_NAME": "용머리고개.완산동주민센터",
      "SERVICE_ID": 30537,
      "NODE_ID": 305100537,
      "STOP_ORD": 12,
      "LAT": 35.80905101
    },
    {
      "ROUTE_NAME": "386",
      "ROUTE_ORD": 17,
      "STOP_ID": 305100567,
      "LNG": 127.13925744,
      "BRT_SUBID": "0",
      "ROUTE_ID": 305001758,
      "STOP_NAME": "완산동시외버스정류소",
      "SERVICE_ID": 30567,
      "NODE_ID": 305100567,
      "STOP_ORD": 13,
      "LAT": 35.81220216
    },
    {
      "ROUTE_NAME": "386",
      "ROUTE_ORD": 18,
      "STOP_ID": 305100600,
      "LNG": 127.139711,
      "BRT_SUBID": "0",
      "ROUTE_ID": 305001758,
      "STOP_NAME": "완산교",
      "SERVICE_ID": 36003,
      "NODE_ID": 305100600,
      "STOP_ORD": 14,
      "LAT": 35.814388
    },
    {
      "ROUTE_NAME": "386",
      "ROUTE_ORD": 19,
      "STOP_ID": 305100640,
      "LNG": 127.14111827,
      "BRT_SUBID": "0",
      "ROUTE_ID": 305001758,
      "STOP_NAME": "서문",
      "SERVICE_ID": 30640,
      "NODE_ID": 305100640,
      "STOP_ORD": 15,
      "LAT": 35.8167323
    },
    {
      "ROUTE_NAME": "386",
      "ROUTE_ORD": 20,
      "STOP_ID": 305100648,
      "LNG": 127.14542022,
      "BRT_SUBID": "0",
      "ROUTE_ID": 305001758,
      "STOP_NAME": "충경로 객사",
      "SERVICE_ID": 30648,
      "NODE_ID": 305100648,
      "STOP_ORD": 16,
      "LAT": 35.81798392
    },
    {
      "ROUTE_NAME": "386",
      "ROUTE_ORD": 21,
      "STOP_ID": 305100701,
      "LNG": 127.146138,
      "BRT_SUBID": "0",
      "ROUTE_ID": 305001758,
      "STOP_NAME": "전북은행경원지점",
      "SERVICE_ID": 30701,
      "NODE_ID": 305100701,
      "STOP_ORD": 17,
      "LAT": 35.821052
    },
    {
      "ROUTE_NAME": "386",
      "ROUTE_ORD": 22,
      "STOP_ID": 306100752,
      "LNG": 127.144695,
      "BRT_SUBID": "0",
      "ROUTE_ID": 305001758,
      "STOP_NAME": "중앙시장.세이브존",
      "SERVICE_ID": 30752,
      "NODE_ID": 306100752,
      "STOP_ORD": 18,
      "LAT": 35.824475
    },
    {
      "ROUTE_NAME": "386",
      "ROUTE_ORD": 23,
      "STOP_ID": 306100861,
      "LNG": 127.13871665,
      "BRT_SUBID": "0",
      "ROUTE_ID": 305001758,
      "STOP_NAME": "전북청소년상담센터",
      "SERVICE_ID": 30861,
      "NODE_ID": 306100861,
      "STOP_ORD": 19,
      "LAT": 35.83141844
    },
    {
      "ROUTE_NAME": "386",
      "ROUTE_ORD": 24,
      "STOP_ID": 306100911,
      "LNG": 127.137297,
      "BRT_SUBID": "0",
      "ROUTE_ID": 305001758,
      "STOP_NAME": "금암광장",
      "SERVICE_ID": 30911,
      "NODE_ID": 306100911,
      "STOP_ORD": 20,
      "LAT": 35.833069
    },
    {
      "ROUTE_NAME": "386",
      "ROUTE_ORD": 25,
      "STOP_ID": 306100969,
      "LNG": 127.13363898,
      "BRT_SUBID": "0",
      "ROUTE_ID": 305001758,
      "STOP_NAME": "금암동주민센터",
      "SERVICE_ID": 30969,
      "NODE_ID": 306100969,
      "STOP_ORD": 21,
      "LAT": 35.83678745
    },
    {
      "ROUTE_NAME": "386",
      "ROUTE_ORD": 26,
      "STOP_ID": 306101004,
      "LNG": 127.131042,
      "BRT_SUBID": "0",
      "ROUTE_ID": 305001758,
      "STOP_NAME": "고속버스터미널입구.전북일보사",
      "SERVICE_ID": 31003,
      "NODE_ID": 306101004,
      "STOP_ORD": 22,
      "LAT": 35.838631
    },
    {
      "ROUTE_NAME": "386",
      "ROUTE_ORD": 27,
      "STOP_ID": 306101051,
      "LNG": 127.125222,
      "BRT_SUBID": "0",
      "ROUTE_ID": 305001758,
      "STOP_NAME": "전북대학교.덕진성당앞",
      "SERVICE_ID": 31050,
      "NODE_ID": 306101051,
      "STOP_ORD": 23,
      "LAT": 35.842863
    },
    {
      "ROUTE_NAME": "386",
      "ROUTE_ORD": 28,
      "STOP_ID": 306101084,
      "LNG": 127.12136775,
      "BRT_SUBID": "0",
      "ROUTE_ID": 305001758,
      "STOP_NAME": "기린대로덕진공원",
      "SERVICE_ID": 31083,
      "NODE_ID": 306101084,
      "STOP_ORD": 24,
      "LAT": 35.84574561
    },
    {
      "ROUTE_NAME": "386",
      "ROUTE_ORD": 29,
      "STOP_ID": 306101095,
      "LNG": 127.11676511,
      "BRT_SUBID": "0",
      "ROUTE_ID": 305001758,
      "STOP_NAME": "기린대로.원대한방병원",
      "SERVICE_ID": 31094,
      "NODE_ID": 306101095,
      "STOP_ORD": 25,
      "LAT": 35.84824786
    },
    {
      "ROUTE_NAME": "386",
      "ROUTE_ORD": 30,
      "STOP_ID": 306101115,
      "LNG": 127.11426908,
      "BRT_SUBID": "0",
      "ROUTE_ID": 305001758,
      "STOP_NAME": "전일여객",
      "SERVICE_ID": 31114,
      "NODE_ID": 306101115,
      "STOP_ORD": 26,
      "LAT": 35.84944843
    },
    {
      "ROUTE_NAME": "386",
      "ROUTE_ORD": 31,
      "STOP_ID": 306101143,
      "LNG": 127.109783,
      "BRT_SUBID": "0",
      "ROUTE_ID": 305001758,
      "STOP_NAME": "추천대교",
      "SERVICE_ID": 31142,
      "NODE_ID": 306101143,
      "STOP_ORD": 27,
      "LAT": 35.851533
    },
    {
      "ROUTE_NAME": "386",
      "ROUTE_ORD": 32,
      "STOP_ID": 306101192,
      "LNG": 127.105331,
      "BRT_SUBID": "0",
      "ROUTE_ID": 305001758,
      "STOP_NAME": "팔복동주민센터",
      "SERVICE_ID": 31191,
      "NODE_ID": 306101192,
      "STOP_ORD": 28,
      "LAT": 35.853711
    },
    {
      "ROUTE_NAME": "386",
      "ROUTE_ORD": 33,
      "STOP_ID": 306101231,
      "LNG": 127.100755,
      "BRT_SUBID": "0",
      "ROUTE_ID": 305001758,
      "STOP_NAME": "팔복예술공장.동명기계",
      "SERVICE_ID": 31230,
      "NODE_ID": 306101231,
      "STOP_ORD": 29,
      "LAT": 35.856229
    },
    {
      "ROUTE_NAME": "386",
      "ROUTE_ORD": 34,
      "STOP_ID": 306101248,
      "LNG": 127.09646937,
      "BRT_SUBID": "0",
      "ROUTE_ID": 305001758,
      "STOP_NAME": "휴비스전주공장",
      "SERVICE_ID": 31247,
      "NODE_ID": 306101248,
      "STOP_ORD": 30,
      "LAT": 35.85843146
    },
    {
      "ROUTE_NAME": "386",
      "ROUTE_ORD": 35,
      "STOP_ID": 306101272,
      "LNG": 127.09288621,
      "BRT_SUBID": "0",
      "ROUTE_ID": 305001758,
      "STOP_NAME": "기린대로경제통상진흥원",
      "SERVICE_ID": 31271,
      "NODE_ID": 306101272,
      "STOP_ORD": 31,
      "LAT": 35.86015131
    },
    {
      "ROUTE_NAME": "386",
      "ROUTE_ORD": 36,
      "STOP_ID": 306101306,
      "LNG": 127.08507649,
      "BRT_SUBID": "0",
      "ROUTE_ID": 305001758,
      "STOP_NAME": "도시첨단산업단지",
      "SERVICE_ID": 31305,
      "NODE_ID": 306101306,
      "STOP_ORD": 32,
      "LAT": 35.86358541
    },
    {
      "ROUTE_NAME": "386",
      "ROUTE_ORD": 37,
      "STOP_ID": 306101332,
      "LNG": 127.08067229,
      "BRT_SUBID": "0",
      "ROUTE_ID": 305001758,
      "STOP_NAME": "전주공고",
      "SERVICE_ID": 31331,
      "NODE_ID": 306101332,
      "STOP_ORD": 33,
      "LAT": 35.86542536
    },
    {
      "ROUTE_NAME": "386",
      "ROUTE_ORD": 38,
      "STOP_ID": 306101353,
      "LNG": 127.077388,
      "BRT_SUBID": "0",
      "ROUTE_ID": 305001758,
      "STOP_NAME": "조촌초교",
      "SERVICE_ID": 31352,
      "NODE_ID": 306101353,
      "STOP_ORD": 34,
      "LAT": 35.8692523
    },
    {
      "ROUTE_NAME": "386",
      "ROUTE_ORD": 39,
      "STOP_ID": 306101407,
      "LNG": 127.07658384,
      "BRT_SUBID": "0",
      "ROUTE_ID": 305001758,
      "STOP_NAME": "여의동우체국전북은행",
      "SERVICE_ID": 31406,
      "NODE_ID": 306101407,
      "STOP_ORD": 35,
      "LAT": 35.8714162
    },
    {
      "ROUTE_NAME": "386",
      "ROUTE_ORD": 40,
      "STOP_ID": 306101450,
      "LNG": 127.0757897,
      "BRT_SUBID": "0",
      "ROUTE_ID": 305001758,
      "STOP_NAME": "반월초교.세움펠리피아2차",
      "SERVICE_ID": 31449,
      "NODE_ID": 306101450,
      "STOP_ORD": 36,
      "LAT": 35.87566609
    },
    {
      "ROUTE_NAME": "386",
      "ROUTE_ORD": 41,
      "STOP_ID": 306101538,
      "LNG": 127.0772,
      "BRT_SUBID": "0",
      "ROUTE_ID": 305001758,
      "STOP_NAME": "구중리",
      "SERVICE_ID": 31537,
      "NODE_ID": 306101538,
      "STOP_ORD": 37,
      "LAT": 35.8846204
    },
    {
      "ROUTE_NAME": "386",
      "ROUTE_ORD": 42,
      "STOP_ID": 306101581,
      "LNG": 127.07717972,
      "BRT_SUBID": "0",
      "ROUTE_ID": 305001758,
      "STOP_NAME": "화전리",
      "SERVICE_ID": 31580,
      "NODE_ID": 306101581,
      "STOP_ORD": 38,
      "LAT": 35.89108025
    },
    {
      "ROUTE_NAME": "386",
      "ROUTE_ORD": 43,
      "STOP_ID": 312101631,
      "LNG": 127.07680278,
      "BRT_SUBID": "0",
      "ROUTE_ID": 305001758,
      "STOP_NAME": "비비정",
      "SERVICE_ID": 31630,
      "NODE_ID": 312101631,
      "STOP_ORD": 39,
      "LAT": 35.90065887
    },
    {
      "ROUTE_NAME": "386",
      "ROUTE_ORD": 44,
      "STOP_ID": 312101648,
      "LNG": 127.07552036,
      "BRT_SUBID": "0",
      "ROUTE_ID": 305001758,
      "STOP_NAME": "삼례우성아파트",
      "SERVICE_ID": 31647,
      "NODE_ID": 312101648,
      "STOP_ORD": 40,
      "LAT": 35.90676984
    },
    {
      "ROUTE_NAME": "386",
      "ROUTE_ORD": 45,
      "STOP_ID": 312101672,
      "LNG": 127.07322032,
      "BRT_SUBID": "0",
      "ROUTE_ID": 305001758,
      "STOP_NAME": "삼례시장",
      "SERVICE_ID": 31671,
      "NODE_ID": 312101672,
      "STOP_ORD": 41,
      "LAT": 35.91021521
    },
    {
      "ROUTE_NAME": "386",
      "ROUTE_ORD": 46,
      "STOP_ID": 305032332,
      "LNG": 127.0723103,
      "BRT_SUBID": "0",
      "ROUTE_ID": 305001758,
      "STOP_NAME": "삼례사거리",
      "SERVICE_ID": 36224,
      "NODE_ID": 305032332,
      "STOP_ORD": 42,
      "LAT": 35.9110678
    },
    {
      "ROUTE_NAME": "386",
      "ROUTE_ORD": 47,
      "STOP_ID": 305032392,
      "LNG": 127.0681731,
      "BRT_SUBID": "0",
      "ROUTE_ID": 305001758,
      "STOP_NAME": "우석대학교",
      "SERVICE_ID": 36326,
      "NODE_ID": 305032392,
      "STOP_ORD": 43,
      "LAT": 35.9149452
    },
    {
      "ROUTE_NAME": "386",
      "ROUTE_ORD": 48,
      "STOP_ID": 308101734,
      "LNG": 127.05748103,
      "BRT_SUBID": "0",
      "ROUTE_ID": 305001758,
      "STOP_NAME": "왕궁온천",
      "SERVICE_ID": 31733,
      "NODE_ID": 308101734,
      "STOP_ORD": 44,
      "LAT": 35.9208612
    },
    {
      "ROUTE_NAME": "386",
      "ROUTE_ORD": 49,
      "STOP_ID": 308101747,
      "LNG": 127.0532862,
      "BRT_SUBID": "0",
      "ROUTE_ID": 305001758,
      "STOP_NAME": "익산더반포레정문",
      "SERVICE_ID": 31746,
      "NODE_ID": 308101747,
      "STOP_ORD": 45,
      "LAT": 35.9237561
    },
    {
      "ROUTE_NAME": "386",
      "ROUTE_ORD": 50,
      "STOP_ID": 305032507,
      "LNG": 127.0537998,
      "BRT_SUBID": "0",
      "ROUTE_ID": 305001758,
      "STOP_NAME": "익산더반포레아파트",
      "SERVICE_ID": 36441,
      "NODE_ID": 305032507,
      "STOP_ORD": 46,
      "LAT": 35.9240826
    }
  ]
}