{
  "resultList": [
    {
      "ROUTE_NAME": "43",
      "ROUTE_ORD": 1,
      "STOP_ID": 305032550,
      "LNG": 127.064192,
      "BRT_SUBID": "A",
      "ROUTE_ID": 305001843,
      "STOP_NAME": "월드컵경기장",
      "SERVICE_ID": 36484,
      "NODE_ID": 305032550,
      "STOP_ORD": 1,
      "LAT": 35.866274
    },
    {
      "ROUTE_NAME": "43",
      "ROUTE_ORD": 2,
      "STOP_ID": 306101346,
      "LNG": 127.063925,
      "BRT_SUBID": "A",
      "ROUTE_ID": 305001843,
      "STOP_NAME": "월드컵경기장남문",
      "SERVICE_ID": 31345,
      "NODE_ID": 306101346,
      "STOP_ORD": 2,
      "LAT": 35.866239
    },
    {
      "ROUTE_NAME": "43",
      "ROUTE_ORD": 3,
      "STOP_ID": 312032231,
      "LNG": 127.061884,
      "BRT_SUBID": "A",
      "ROUTE_ID": 305001843,
      "STOP_NAME": "원반월마을",
      "SERVICE_ID": 32231,
      "NODE_ID": 312032231,
      "STOP_ORD": 3,
      "LAT": 35.870514
    },
    {
      "ROUTE_NAME": "43",
      "ROUTE_ORD": 4,
      "STOP_ID": 305032183,
      "LNG": 127.068676,
      "BRT_SUBID": "A",
      "ROUTE_ID": 305001843,
      "STOP_NAME": "시외고속간이터미널",
      "SERVICE_ID": 32183,
      "NODE_ID": 305032183,
      "STOP_ORD": 4,
      "LAT": 35.87033
    },
    {
      "ROUTE_NAME": "43",
      "ROUTE_ORD": 5,
      "STOP_ID": 306101352,
      "LNG": 127.07484278,
      "BRT_SUBID": "A",
      "ROUTE_ID": 305001843,
      "STOP_NAME": "대한산업보건협회.푸른솔아파트",
      "SERVICE_ID": 31351,
      "NODE_ID": 306101352,
      "STOP_ORD": 5,
      "LAT": 35.86722828
    },
    {
      "ROUTE_NAME": "43",
      "ROUTE_ORD": 6,
      "STOP_ID": 306101353,
      "LNG": 127.077388,
      "BRT_SUBID": "A",
      "ROUTE_ID": 305001843,
      "STOP_NAME": "조촌초교",
      "SERVICE_ID": 31352,
      "NODE_ID": 306101353,
      "STOP_ORD": 6,
      "LAT": 35.8692523
    },
    {
      "ROUTE_NAME": "43",
      "ROUTE_ORD": 7,
      "STOP_ID": 306101407,
      "LNG": 127.07658384,
      "BRT_SUBID": "A",
      "ROUTE_ID": 305001843,
      "STOP_NAME": "여의동우체국전북은행",
      "SERVICE_ID": 31406,
      "NODE_ID": 306101407,
      "STOP_ORD": 7,
      "LAT": 35.8714162
    },
    {
      "ROUTE_NAME": "43",
      "ROUTE_ORD": 8,
      "STOP_ID": 306101425,
      "LNG": 127.07245896,
      "BRT_SUBID": "A",
      "ROUTE_ID": 305001843,
      "STOP_NAME": "반월주공아파트.오네뜨아파트",
      "SERVICE_ID": 31424,
      "NODE_ID": 306101425,
      "STOP_ORD": 8,
      "LAT": 35.87412321
    },
    {
      "ROUTE_NAME": "43",
      "ROUTE_ORD": 9,
      "STOP_ID": 306101426,
      "LNG": 127.07016309,
      "BRT_SUBID": "A",
      "ROUTE_ID": 305001843,
      "STOP_NAME": "반월동 삼오아파트",
      "SERVICE_ID": 31425,
      "NODE_ID": 306101426,
      "STOP_ORD": 9,
      "LAT": 35.8741509
    },
    {
      "ROUTE_NAME": "43",
      "ROUTE_ORD": 10,
      "STOP_ID": 305032291,
      "LNG": 127.06404241,
      "BRT_SUBID": "A",
      "ROUTE_ID": 305001843,
      "STOP_NAME": "반월동농협",
      "SERVICE_ID": 32291,
      "NODE_ID": 305032291,
      "STOP_ORD": 10,
      "LAT": 35.87422617
    },
    {
      "ROUTE_NAME": "43",
      "ROUTE_ORD": 11,
      "STOP_ID": 306101427,
      "LNG": 127.060559,
      "BRT_SUBID": "A",
      "ROUTE_ID": 305001843,
      "STOP_NAME": "전주IC",
      "SERVICE_ID": 31426,
      "NODE_ID": 306101427,
      "STOP_ORD": 11,
      "LAT": 35.874188
    },
    {
      "ROUTE_NAME": "43",
      "ROUTE_ORD": 12,
      "STOP_ID": 306101433,
      "LNG": 127.05519734,
      "BRT_SUBID": "A",
      "ROUTE_ID": 305001843,
      "STOP_NAME": "cbs기독교방송",
      "SERVICE_ID": 31432,
      "NODE_ID": 306101433,
      "STOP_ORD": 12,
      "LAT": 35.87469125
    },
    {
      "ROUTE_NAME": "43",
      "ROUTE_ORD": 13,
      "STOP_ID": 306101448,
      "LNG": 127.04963988,
      "BRT_SUBID": "A",
      "ROUTE_ID": 305001843,
      "STOP_NAME": "용덕마을입구",
      "SERVICE_ID": 31447,
      "NODE_ID": 306101448,
      "STOP_ORD": 13,
      "LAT": 35.87562024
    },
    {
      "ROUTE_NAME": "43",
      "ROUTE_ORD": 14,
      "STOP_ID": 306101410,
      "LNG": 127.05029419,
      "BRT_SUBID": "A",
      "ROUTE_ID": 305001843,
      "STOP_NAME": "한국도로공사 전주수목원",
      "SERVICE_ID": 31409,
      "NODE_ID": 306101410,
      "STOP_ORD": 14,
      "LAT": 35.87270421
    },
    {
      "ROUTE_NAME": "43",
      "ROUTE_ORD": 15,
      "STOP_ID": 306101373,
      "LNG": 127.04716206,
      "BRT_SUBID": "A",
      "ROUTE_ID": 305001843,
      "STOP_NAME": "청복마을입구",
      "SERVICE_ID": 31372,
      "NODE_ID": 306101373,
      "STOP_ORD": 15,
      "LAT": 35.86845692
    },
    {
      "ROUTE_NAME": "43",
      "ROUTE_ORD": 16,
      "STOP_ID": 306101345,
      "LNG": 127.04608744,
      "BRT_SUBID": "A",
      "ROUTE_ID": 305001843,
      "STOP_NAME": "부동마을",
      "SERVICE_ID": 31344,
      "NODE_ID": 306101345,
      "STOP_ORD": 16,
      "LAT": 35.866307
    },
    {
      "ROUTE_NAME": "43",
      "ROUTE_ORD": 17,
      "STOP_ID": 306101290,
      "LNG": 127.04114798,
      "BRT_SUBID": "A",
      "ROUTE_ID": 305001843,
      "STOP_NAME": "팔선마을",
      "SERVICE_ID": 31289,
      "NODE_ID": 306101290,
      "STOP_ORD": 17,
      "LAT": 35.86222694
    },
    {
      "ROUTE_NAME": "43",
      "ROUTE_ORD": 18,
      "STOP_ID": 305032560,
      "LNG": 127.0425256,
      "BRT_SUBID": "A",
      "ROUTE_ID": 305001843,
      "STOP_NAME": "팔선마을경로당",
      "SERVICE_ID": 36494,
      "NODE_ID": 305032560,
      "STOP_ORD": 18,
      "LAT": 35.8593656
    },
    {
      "ROUTE_NAME": "43",
      "ROUTE_ORD": 19,
      "STOP_ID": 305032559,
      "LNG": 127.0426251,
      "BRT_SUBID": "A",
      "ROUTE_ID": 305001843,
      "STOP_NAME": "팔선마을경로당",
      "SERVICE_ID": 36493,
      "NODE_ID": 305032559,
      "STOP_ORD": 19,
      "LAT": 35.859402
    },
    {
      "ROUTE_NAME": "43",
      "ROUTE_ORD": 20,
      "STOP_ID": 306101240,
      "LNG": 127.0350032,
      "BRT_SUBID": "A",
      "ROUTE_ID": 305001843,
      "STOP_NAME": "원동마을",
      "SERVICE_ID": 31239,
      "NODE_ID": 306101240,
      "STOP_ORD": 20,
      "LAT": 35.8578175
    },
    {
      "ROUTE_NAME": "43",
      "ROUTE_ORD": 21,
      "STOP_ID": 306101224,
      "LNG": 127.03471506,
      "BRT_SUBID": "A",
      "ROUTE_ID": 305001843,
      "STOP_NAME": "회룡마을",
      "SERVICE_ID": 31223,
      "NODE_ID": 306101224,
      "STOP_ORD": 21,
      "LAT": 35.85639092
    },
    {
      "ROUTE_NAME": "43",
      "ROUTE_ORD": 22,
      "STOP_ID": 306101137,
      "LNG": 127.0345557,
      "BRT_SUBID": "A",
      "ROUTE_ID": 305001843,
      "STOP_NAME": "득정마을",
      "SERVICE_ID": 31136,
      "NODE_ID": 306101137,
      "STOP_ORD": 22,
      "LAT": 35.8510131
    },
    {
      "ROUTE_NAME": "43",
      "ROUTE_ORD": 23,
      "STOP_ID": 305032476,
      "LNG": 127.0336722,
      "BRT_SUBID": "A",
      "ROUTE_ID": 305001843,
      "STOP_NAME": "수청마을",
      "SERVICE_ID": 36410,
      "NODE_ID": 305032476,
      "STOP_ORD": 23,
      "LAT": 35.8477432
    },
    {
      "ROUTE_NAME": "43",
      "ROUTE_ORD": 24,
      "STOP_ID": 312101061,
      "LNG": 127.03112939,
      "BRT_SUBID": "A",
      "ROUTE_ID": 305001843,
      "STOP_NAME": "반교리",
      "SERVICE_ID": 31060,
      "NODE_ID": 312101061,
      "STOP_ORD": 24,
      "LAT": 35.84409633
    },
    {
      "ROUTE_NAME": "43",
      "ROUTE_ORD": 25,
      "STOP_ID": 312101093,
      "LNG": 127.02452852,
      "BRT_SUBID": "A",
      "ROUTE_ID": 305001843,
      "STOP_NAME": "홍개",
      "SERVICE_ID": 31092,
      "NODE_ID": 312101093,
      "STOP_ORD": 25,
      "LAT": 35.84805191
    }
  ]
}