{
  "resultList": [
    {
      "ROUTE_NAME": "20",
      "ROUTE_ORD": 1,
      "STOP_ID": 311101153,
      "LNG": 126.99927032,
      "BRT_SUBID": "0",
      "ROUTE_ID": 305001527,
      "STOP_NAME": "원마다리",
      "SERVICE_ID": 31152,
      "NODE_ID": 311101153,
      "STOP_ORD": 1,
      "LAT": 35.84533872
    },
    {
      "ROUTE_NAME": "20",
      "ROUTE_ORD": 2,
      "STOP_ID": 311101161,
      "LNG": 126.99636443,
      "BRT_SUBID": "0",
      "ROUTE_ID": 305001527,
      "STOP_NAME": "마다리",
      "SERVICE_ID": 31160,
      "NODE_ID": 311101161,
      "STOP_ORD": 2,
      "LAT": 35.84578316
    },
    {
      "ROUTE_NAME": "20",
      "ROUTE_ORD": 3,
      "STOP_ID": 311101105,
      "LNG": 126.99154853,
      "BRT_SUBID": "0",
      "ROUTE_ID": 305001527,
      "STOP_NAME": "신흥리",
      "SERVICE_ID": 31104,
      "NODE_ID": 311101105,
      "STOP_ORD": 3,
      "LAT": 35.84844671
    },
    {
      "ROUTE_NAME": "20",
      "ROUTE_ORD": 4,
      "STOP_ID": 311101065,
      "LNG": 126.9907045,
      "BRT_SUBID": "0",
      "ROUTE_ID": 305001527,
      "STOP_NAME": "비룡마을",
      "SERVICE_ID": 31064,
      "NODE_ID": 311101065,
      "STOP_ORD": 4,
      "LAT": 35.84463282
    },
    {
      "ROUTE_NAME": "20",
      "ROUTE_ORD": 5,
      "STOP_ID": 311101007,
      "LNG": 126.98939406,
      "BRT_SUBID": "0",
      "ROUTE_ID": 305001527,
      "STOP_NAME": "천수동마을입구",
      "SERVICE_ID": 31006,
      "NODE_ID": 311101007,
      "STOP_ORD": 5,
      "LAT": 35.83890592
    },
    {
      "ROUTE_NAME": "20",
      "ROUTE_ORD": 6,
      "STOP_ID": 311100970,
      "LNG": 126.98716849,
      "BRT_SUBID": "0",
      "ROUTE_ID": 305001527,
      "STOP_NAME": "신암마을",
      "SERVICE_ID": 30970,
      "NODE_ID": 311100970,
      "STOP_ORD": 6,
      "LAT": 35.83690614
    },
    {
      "ROUTE_NAME": "20",
      "ROUTE_ORD": 7,
      "STOP_ID": 311100822,
      "LNG": 126.994904,
      "BRT_SUBID": "0",
      "ROUTE_ID": 305001527,
      "STOP_NAME": "송삼마을",
      "SERVICE_ID": 30822,
      "NODE_ID": 311100822,
      "STOP_ORD": 7,
      "LAT": 35.828733
    },
    {
      "ROUTE_NAME": "20",
      "ROUTE_ORD": 8,
      "STOP_ID": 305032387,
      "LNG": 126.9994795,
      "BRT_SUBID": "0",
      "ROUTE_ID": 305001527,
      "STOP_NAME": "원이문",
      "SERVICE_ID": 36321,
      "NODE_ID": 305032387,
      "STOP_ORD": 8,
      "LAT": 35.8316228
    },
    {
      "ROUTE_NAME": "20",
      "ROUTE_ORD": 9,
      "STOP_ID": 312100901,
      "LNG": 127.00554682,
      "BRT_SUBID": "0",
      "ROUTE_ID": 305001527,
      "STOP_NAME": "이문리",
      "SERVICE_ID": 30901,
      "NODE_ID": 312100901,
      "STOP_ORD": 9,
      "LAT": 35.83326306
    },
    {
      "ROUTE_NAME": "20",
      "ROUTE_ORD": 10,
      "STOP_ID": 312100958,
      "LNG": 127.00500726,
      "BRT_SUBID": "0",
      "ROUTE_ID": 305001527,
      "STOP_NAME": "산정리종점",
      "SERVICE_ID": 30958,
      "NODE_ID": 312100958,
      "STOP_ORD": 10,
      "LAT": 35.83619416
    },
    {
      "ROUTE_NAME": "20",
      "ROUTE_ORD": 11,
      "STOP_ID": 312100959,
      "LNG": 127.00488691,
      "BRT_SUBID": "0",
      "ROUTE_ID": 305001527,
      "STOP_NAME": "산정리종점",
      "SERVICE_ID": 30959,
      "NODE_ID": 312100959,
      "STOP_ORD": 11,
      "LAT": 35.8362964
    },
    {
      "ROUTE_NAME": "20",
      "ROUTE_ORD": 12,
      "STOP_ID": 312100903,
      "LNG": 127.00537972,
      "BRT_SUBID": "0",
      "ROUTE_ID": 305001527,
      "STOP_NAME": "이문리",
      "SERVICE_ID": 30903,
      "NODE_ID": 312100903,
      "STOP_ORD": 12,
      "LAT": 35.83331727
    },
    {
      "ROUTE_NAME": "20",
      "ROUTE_ORD": 13,
      "STOP_ID": 305032389,
      "LNG": 126.9994014,
      "BRT_SUBID": "0",
      "ROUTE_ID": 305001527,
      "STOP_NAME": "원이문",
      "SERVICE_ID": 36323,
      "NODE_ID": 305032389,
      "STOP_ORD": 13,
      "LAT": 35.8317307
    },
    {
      "ROUTE_NAME": "20",
      "ROUTE_ORD": 14,
      "STOP_ID": 305032381,
      "LNG": 126.9967549,
      "BRT_SUBID": "0",
      "ROUTE_ID": 305001527,
      "STOP_NAME": "기전대재활승마장",
      "SERVICE_ID": 36315,
      "NODE_ID": 305032381,
      "STOP_ORD": 14,
      "LAT": 35.8245861
    },
    {
      "ROUTE_NAME": "20",
      "ROUTE_ORD": 15,
      "STOP_ID": 312100656,
      "LNG": 126.99911661,
      "BRT_SUBID": "0",
      "ROUTE_ID": 305001527,
      "STOP_NAME": "애통리",
      "SERVICE_ID": 30656,
      "NODE_ID": 312100656,
      "STOP_ORD": 15,
      "LAT": 35.81866984
    },
    {
      "ROUTE_NAME": "20",
      "ROUTE_ORD": 16,
      "STOP_ID": 312100679,
      "LNG": 127.00427055,
      "BRT_SUBID": "0",
      "ROUTE_ID": 305001527,
      "STOP_NAME": "은교마을",
      "SERVICE_ID": 30679,
      "NODE_ID": 312100679,
      "STOP_ORD": 16,
      "LAT": 35.81983089
    },
    {
      "ROUTE_NAME": "20",
      "ROUTE_ORD": 17,
      "STOP_ID": 312100690,
      "LNG": 127.00778106,
      "BRT_SUBID": "0",
      "ROUTE_ID": 305001527,
      "STOP_NAME": "BYC",
      "SERVICE_ID": 30690,
      "NODE_ID": 312100690,
      "STOP_ORD": 17,
      "LAT": 35.82043092
    },
    {
      "ROUTE_NAME": "20",
      "ROUTE_ORD": 18,
      "STOP_ID": 312100692,
      "LNG": 127.013546,
      "BRT_SUBID": "0",
      "ROUTE_ID": 305001527,
      "STOP_NAME": "모고지마을",
      "SERVICE_ID": 30692,
      "NODE_ID": 312100692,
      "STOP_ORD": 18,
      "LAT": 35.820608
    },
    {
      "ROUTE_NAME": "20",
      "ROUTE_ORD": 19,
      "STOP_ID": 312032819,
      "LNG": 127.0269439,
      "BRT_SUBID": "0",
      "ROUTE_ID": 305001527,
      "STOP_NAME": "신마산",
      "SERVICE_ID": 36289,
      "NODE_ID": 312032819,
      "STOP_ORD": 19,
      "LAT": 35.8210274
    },
    {
      "ROUTE_NAME": "20",
      "ROUTE_ORD": 20,
      "STOP_ID": 312100689,
      "LNG": 127.02352732,
      "BRT_SUBID": "0",
      "ROUTE_ID": 305001527,
      "STOP_NAME": "이서",
      "SERVICE_ID": 30689,
      "NODE_ID": 312100689,
      "STOP_ORD": 20,
      "LAT": 35.82040564
    },
    {
      "ROUTE_NAME": "20",
      "ROUTE_ORD": 21,
      "STOP_ID": 312132265,
      "LNG": 127.0206476,
      "BRT_SUBID": "0",
      "ROUTE_ID": 305001527,
      "STOP_NAME": "이서종점",
      "SERVICE_ID": 32265,
      "NODE_ID": 312132265,
      "STOP_ORD": 21,
      "LAT": 35.8198475
    },
    {
      "ROUTE_NAME": "20",
      "ROUTE_ORD": 22,
      "STOP_ID": 305032675,
      "LNG": 127.0199833,
      "BRT_SUBID": "0",
      "ROUTE_ID": 305001527,
      "STOP_NAME": "이서회차지",
      "SERVICE_ID": 36609,
      "NODE_ID": 305032675,
      "STOP_ORD": 22,
      "LAT": 35.817095
    }
  ]
}