{
  "resultList": [
    {
      "ROUTE_NAME": "554",
      "ROUTE_ORD": 1,
      "STOP_ID": 312101911,
      "LNG": 127.12275813,
      "BRT_SUBID": "0",
      "ROUTE_ID": 305001648,
      "STOP_NAME": "둔산코아루2차아파트",
      "SERVICE_ID": 31910,
      "NODE_ID": 312101911,
      "STOP_ORD": 1,
      "LAT": 35.96190743
    },
    {
      "ROUTE_NAME": "554",
      "ROUTE_ORD": 2,
      "STOP_ID": 312101906,
      "LNG": 127.12703871,
      "BRT_SUBID": "0",
      "ROUTE_ID": 305001648,
      "STOP_NAME": "둔산코아루1차아파트",
      "SERVICE_ID": 31905,
      "NODE_ID": 312101906,
      "STOP_ORD": 2,
      "LAT": 35.96138092
    },
    {
      "ROUTE_NAME": "554",
      "ROUTE_ORD": 3,
      "STOP_ID": 312101998,
      "LNG": 127.12970697,
      "BRT_SUBID": "0",
      "ROUTE_ID": 305001648,
      "STOP_NAME": "뷰텍",
      "SERVICE_ID": 31998,
      "NODE_ID": 312101998,
      "STOP_ORD": 3,
      "LAT": 35.95863393
    },
    {
      "ROUTE_NAME": "554",
      "ROUTE_ORD": 4,
      "STOP_ID": 312101879,
      "LNG": 127.13178226,
      "BRT_SUBID": "0",
      "ROUTE_ID": 305001648,
      "STOP_NAME": "대륜산업",
      "SERVICE_ID": 31878,
      "NODE_ID": 312101879,
      "STOP_ORD": 4,
      "LAT": 35.95519702
    },
    {
      "ROUTE_NAME": "554",
      "ROUTE_ORD": 5,
      "STOP_ID": 312101882,
      "LNG": 127.1390251,
      "BRT_SUBID": "0",
      "ROUTE_ID": 305001648,
      "STOP_NAME": "현대자동차출고장",
      "SERVICE_ID": 31881,
      "NODE_ID": 312101882,
      "STOP_ORD": 5,
      "LAT": 35.95523386
    },
    {
      "ROUTE_NAME": "554",
      "ROUTE_ORD": 6,
      "STOP_ID": 312101855,
      "LNG": 127.13940283,
      "BRT_SUBID": "0",
      "ROUTE_ID": 305001648,
      "STOP_NAME": "동아정밀공업",
      "SERVICE_ID": 31854,
      "NODE_ID": 312101855,
      "STOP_ORD": 6,
      "LAT": 35.9462808
    },
    {
      "ROUTE_NAME": "554",
      "ROUTE_ORD": 7,
      "STOP_ID": 312101849,
      "LNG": 127.1346691,
      "BRT_SUBID": "0",
      "ROUTE_ID": 305001648,
      "STOP_NAME": "현대자동차",
      "SERVICE_ID": 31848,
      "NODE_ID": 312101849,
      "STOP_ORD": 7,
      "LAT": 35.9438611
    },
    {
      "ROUTE_NAME": "554",
      "ROUTE_ORD": 8,
      "STOP_ID": 312101844,
      "LNG": 127.12514126,
      "BRT_SUBID": "0",
      "ROUTE_ID": 305001648,
      "STOP_NAME": "중앙공원",
      "SERVICE_ID": 31843,
      "NODE_ID": 312101844,
      "STOP_ORD": 8,
      "LAT": 35.94334576
    },
    {
      "ROUTE_NAME": "554",
      "ROUTE_ORD": 9,
      "STOP_ID": 312101829,
      "LNG": 127.12513539,
      "BRT_SUBID": "0",
      "ROUTE_ID": 305001648,
      "STOP_NAME": "금강고려화학",
      "SERVICE_ID": 31828,
      "NODE_ID": 312101829,
      "STOP_ORD": 9,
      "LAT": 35.93950364
    },
    {
      "ROUTE_NAME": "554",
      "ROUTE_ORD": 10,
      "STOP_ID": 312101794,
      "LNG": 127.12515956,
      "BRT_SUBID": "0",
      "ROUTE_ID": 305001648,
      "STOP_NAME": "원수계리",
      "SERVICE_ID": 31793,
      "NODE_ID": 312101794,
      "STOP_ORD": 10,
      "LAT": 35.93268856
    },
    {
      "ROUTE_NAME": "554",
      "ROUTE_ORD": 11,
      "STOP_ID": 312101773,
      "LNG": 127.12499475,
      "BRT_SUBID": "0",
      "ROUTE_ID": 305001648,
      "STOP_NAME": "과학로.구.청완초교",
      "SERVICE_ID": 31772,
      "NODE_ID": 312101773,
      "STOP_ORD": 11,
      "LAT": 35.92790433
    },
    {
      "ROUTE_NAME": "554",
      "ROUTE_ORD": 12,
      "STOP_ID": 305032539,
      "LNG": 127.1247817,
      "BRT_SUBID": "0",
      "ROUTE_ID": 305001648,
      "STOP_NAME": "과학로완주소방서",
      "SERVICE_ID": 36473,
      "NODE_ID": 305032539,
      "STOP_ORD": 12,
      "LAT": 35.9257085
    },
    {
      "ROUTE_NAME": "554",
      "ROUTE_ORD": 13,
      "STOP_ID": 312101750,
      "LNG": 127.1249879,
      "BRT_SUBID": "0",
      "ROUTE_ID": 305001648,
      "STOP_NAME": "완주군보건소.명탄마을",
      "SERVICE_ID": 31749,
      "NODE_ID": 312101750,
      "STOP_ORD": 13,
      "LAT": 35.9224174
    },
    {
      "ROUTE_NAME": "554",
      "ROUTE_ORD": 14,
      "STOP_ID": 312101708,
      "LNG": 127.12494269,
      "BRT_SUBID": "0",
      "ROUTE_ID": 305001648,
      "STOP_NAME": "장포리",
      "SERVICE_ID": 31707,
      "NODE_ID": 312101708,
      "STOP_ORD": 14,
      "LAT": 35.91678768
    },
    {
      "ROUTE_NAME": "554",
      "ROUTE_ORD": 15,
      "STOP_ID": 312101693,
      "LNG": 127.12497138,
      "BRT_SUBID": "0",
      "ROUTE_ID": 305001648,
      "STOP_NAME": "송정마을",
      "SERVICE_ID": 31692,
      "NODE_ID": 312101693,
      "STOP_ORD": 15,
      "LAT": 35.91342974
    },
    {
      "ROUTE_NAME": "554",
      "ROUTE_ORD": 16,
      "STOP_ID": 312101656,
      "LNG": 127.12495923,
      "BRT_SUBID": "0",
      "ROUTE_ID": 305001648,
      "STOP_NAME": "회포대교",
      "SERVICE_ID": 31655,
      "NODE_ID": 312101656,
      "STOP_ORD": 16,
      "LAT": 35.90821084
    },
    {
      "ROUTE_NAME": "554",
      "ROUTE_ORD": 17,
      "STOP_ID": 306101617,
      "LNG": 127.12519115,
      "BRT_SUBID": "0",
      "ROUTE_ID": 305001648,
      "STOP_NAME": "은평마을",
      "SERVICE_ID": 31616,
      "NODE_ID": 306101617,
      "STOP_ORD": 17,
      "LAT": 35.89615413
    },
    {
      "ROUTE_NAME": "554",
      "ROUTE_ORD": 18,
      "STOP_ID": 306101547,
      "LNG": 127.12895708,
      "BRT_SUBID": "0",
      "ROUTE_ID": 305001648,
      "STOP_NAME": "과학로.전당네거리",
      "SERVICE_ID": 31546,
      "NODE_ID": 306101547,
      "STOP_ORD": 18,
      "LAT": 35.8867556
    },
    {
      "ROUTE_NAME": "554",
      "ROUTE_ORD": 19,
      "STOP_ID": 306101524,
      "LNG": 127.128543,
      "BRT_SUBID": "0",
      "ROUTE_ID": 305001648,
      "STOP_NAME": "백석제",
      "SERVICE_ID": 31523,
      "NODE_ID": 306101524,
      "STOP_ORD": 19,
      "LAT": 35.884032
    },
    {
      "ROUTE_NAME": "554",
      "ROUTE_ORD": 20,
      "STOP_ID": 305032406,
      "LNG": 127.130533,
      "BRT_SUBID": "0",
      "ROUTE_ID": 305001648,
      "STOP_NAME": "에코스위첸",
      "SERVICE_ID": 36340,
      "NODE_ID": 305032406,
      "STOP_ORD": 20,
      "LAT": 35.879056
    },
    {
      "ROUTE_NAME": "554",
      "ROUTE_ORD": 21,
      "STOP_ID": 305032529,
      "LNG": 127.132571,
      "BRT_SUBID": "0",
      "ROUTE_ID": 305001648,
      "STOP_NAME": "세병호입구",
      "SERVICE_ID": 36463,
      "NODE_ID": 305032529,
      "STOP_ORD": 21,
      "LAT": 35.878908
    },
    {
      "ROUTE_NAME": "554",
      "ROUTE_ORD": 22,
      "STOP_ID": 305032405,
      "LNG": 127.134905,
      "BRT_SUBID": "0",
      "ROUTE_ID": 305001648,
      "STOP_NAME": "자연초등학교",
      "SERVICE_ID": 36339,
      "NODE_ID": 305032405,
      "STOP_ORD": 22,
      "LAT": 35.876937
    },
    {
      "ROUTE_NAME": "554",
      "ROUTE_ORD": 23,
      "STOP_ID": 305032404,
      "LNG": 127.136044,
      "BRT_SUBID": "0",
      "ROUTE_ID": 305001648,
      "STOP_NAME": "에코자이2차",
      "SERVICE_ID": 36338,
      "NODE_ID": 305032404,
      "STOP_ORD": 23,
      "LAT": 35.8756041
    },
    {
      "ROUTE_NAME": "554",
      "ROUTE_ORD": 24,
      "STOP_ID": 305032403,
      "LNG": 127.1337863,
      "BRT_SUBID": "0",
      "ROUTE_ID": 305001648,
      "STOP_NAME": "에코데시앙5블럭",
      "SERVICE_ID": 36337,
      "NODE_ID": 305032403,
      "STOP_ORD": 24,
      "LAT": 35.8727121
    },
    {
      "ROUTE_NAME": "554",
      "ROUTE_ORD": 25,
      "STOP_ID": 305032402,
      "LNG": 127.130173,
      "BRT_SUBID": "0",
      "ROUTE_ID": 305001648,
      "STOP_NAME": "에코데시앙4블럭",
      "SERVICE_ID": 36336,
      "NODE_ID": 305032402,
      "STOP_ORD": 25,
      "LAT": 35.872901
    },
    {
      "ROUTE_NAME": "554",
      "ROUTE_ORD": 26,
      "STOP_ID": 305032429,
      "LNG": 127.127513,
      "BRT_SUBID": "0",
      "ROUTE_ID": 305001648,
      "STOP_NAME": "에코시티상가",
      "SERVICE_ID": 36363,
      "NODE_ID": 305032429,
      "STOP_ORD": 26,
      "LAT": 35.871358
    },
    {
      "ROUTE_NAME": "554",
      "ROUTE_ORD": 27,
      "STOP_ID": 306101369,
      "LNG": 127.12722076,
      "BRT_SUBID": "0",
      "ROUTE_ID": 305001648,
      "STOP_NAME": "송천주공아파트",
      "SERVICE_ID": 31368,
      "NODE_ID": 306101369,
      "STOP_ORD": 27,
      "LAT": 35.86810687
    },
    {
      "ROUTE_NAME": "554",
      "ROUTE_ORD": 28,
      "STOP_ID": 306101342,
      "LNG": 127.12706103,
      "BRT_SUBID": "0",
      "ROUTE_ID": 305001648,
      "STOP_NAME": "송천현대아파트",
      "SERVICE_ID": 31341,
      "NODE_ID": 306101342,
      "STOP_ORD": 28,
      "LAT": 35.86617907
    },
    {
      "ROUTE_NAME": "554",
      "ROUTE_ORD": 29,
      "STOP_ID": 306101318,
      "LNG": 127.1264262,
      "BRT_SUBID": "0",
      "ROUTE_ID": 305001648,
      "STOP_NAME": "송천주공2단지",
      "SERVICE_ID": 31317,
      "NODE_ID": 306101318,
      "STOP_ORD": 29,
      "LAT": 35.86405704
    },
    {
      "ROUTE_NAME": "554",
      "ROUTE_ORD": 30,
      "STOP_ID": 306101313,
      "LNG": 127.12372569,
      "BRT_SUBID": "0",
      "ROUTE_ID": 305001648,
      "STOP_NAME": "송북초교",
      "SERVICE_ID": 31312,
      "NODE_ID": 306101313,
      "STOP_ORD": 30,
      "LAT": 35.8639091
    },
    {
      "ROUTE_NAME": "554",
      "ROUTE_ORD": 31,
      "STOP_ID": 306101274,
      "LNG": 127.121075,
      "BRT_SUBID": "0",
      "ROUTE_ID": 305001648,
      "STOP_NAME": "전라고",
      "SERVICE_ID": 31273,
      "NODE_ID": 306101274,
      "STOP_ORD": 31,
      "LAT": 35.860368
    },
    {
      "ROUTE_NAME": "554",
      "ROUTE_ORD": 32,
      "STOP_ID": 306101211,
      "LNG": 127.11982418,
      "BRT_SUBID": "0",
      "ROUTE_ID": 305001648,
      "STOP_NAME": "송천삼거리 롯데마트",
      "SERVICE_ID": 31210,
      "NODE_ID": 306101211,
      "STOP_ORD": 32,
      "LAT": 35.85538448
    },
    {
      "ROUTE_NAME": "554",
      "ROUTE_ORD": 33,
      "STOP_ID": 306101163,
      "LNG": 127.119477,
      "BRT_SUBID": "0",
      "ROUTE_ID": 305001648,
      "STOP_NAME": "송천 센트럴파크",
      "SERVICE_ID": 31162,
      "NODE_ID": 306101163,
      "STOP_ORD": 33,
      "LAT": 35.853192
    },
    {
      "ROUTE_NAME": "554",
      "ROUTE_ORD": 34,
      "STOP_ID": 306101106,
      "LNG": 127.119015,
      "BRT_SUBID": "0",
      "ROUTE_ID": 305001648,
      "STOP_NAME": "도립국악원",
      "SERVICE_ID": 31105,
      "NODE_ID": 306101106,
      "STOP_ORD": 34,
      "LAT": 35.849157
    },
    {
      "ROUTE_NAME": "554",
      "ROUTE_ORD": 35,
      "STOP_ID": 306101086,
      "LNG": 127.11969439,
      "BRT_SUBID": "0",
      "ROUTE_ID": 305001648,
      "STOP_NAME": "기린대로덕진공원",
      "SERVICE_ID": 31085,
      "NODE_ID": 306101086,
      "STOP_ORD": 35,
      "LAT": 35.84624591
    },
    {
      "ROUTE_NAME": "554",
      "ROUTE_ORD": 36,
      "STOP_ID": 306101044,
      "LNG": 127.12515768,
      "BRT_SUBID": "0",
      "ROUTE_ID": 305001648,
      "STOP_NAME": "전북대학교.농협앞",
      "SERVICE_ID": 31043,
      "NODE_ID": 306101044,
      "STOP_ORD": 36,
      "LAT": 35.84250102
    },
    {
      "ROUTE_NAME": "554",
      "ROUTE_ORD": 37,
      "STOP_ID": 306100993,
      "LNG": 127.13141174,
      "BRT_SUBID": "0",
      "ROUTE_ID": 305001648,
      "STOP_NAME": "고속터미널입구.금암동주민센터",
      "SERVICE_ID": 30992,
      "NODE_ID": 306100993,
      "STOP_ORD": 37,
      "LAT": 35.8379584
    },
    {
      "ROUTE_NAME": "554",
      "ROUTE_ORD": 38,
      "STOP_ID": 306100915,
      "LNG": 127.136648,
      "BRT_SUBID": "0",
      "ROUTE_ID": 305001648,
      "STOP_NAME": "금암광장.청담한방병원",
      "SERVICE_ID": 30915,
      "NODE_ID": 306100915,
      "STOP_ORD": 38,
      "LAT": 35.833708
    },
    {
      "ROUTE_NAME": "554",
      "ROUTE_ORD": 39,
      "STOP_ID": 306100851,
      "LNG": 127.139175,
      "BRT_SUBID": "0",
      "ROUTE_ID": 305001648,
      "STOP_NAME": "한국은행.전북청소년상담센터",
      "SERVICE_ID": 30851,
      "NODE_ID": 306100851,
      "STOP_ORD": 39,
      "LAT": 35.830433
    },
    {
      "ROUTE_NAME": "554",
      "ROUTE_ORD": 40,
      "STOP_ID": 306100743,
      "LNG": 127.14462905,
      "BRT_SUBID": "0",
      "ROUTE_ID": 305001648,
      "STOP_NAME": "중앙시장.중앙성당.방송대",
      "SERVICE_ID": 30743,
      "NODE_ID": 306100743,
      "STOP_ORD": 40,
      "LAT": 35.82397975
    },
    {
      "ROUTE_NAME": "554",
      "ROUTE_ORD": 41,
      "STOP_ID": 305100675,
      "LNG": 127.14647881,
      "BRT_SUBID": "0",
      "ROUTE_ID": 305001648,
      "STOP_NAME": "외환은행",
      "SERVICE_ID": 30675,
      "NODE_ID": 305100675,
      "STOP_ORD": 41,
      "LAT": 35.81950149
    },
    {
      "ROUTE_NAME": "554",
      "ROUTE_ORD": 42,
      "STOP_ID": 305100649,
      "LNG": 127.145011,
      "BRT_SUBID": "0",
      "ROUTE_ID": 305001648,
      "STOP_NAME": "충경로 객사",
      "SERVICE_ID": 30649,
      "NODE_ID": 305100649,
      "STOP_ORD": 42,
      "LAT": 35.818102
    },
    {
      "ROUTE_NAME": "554",
      "ROUTE_ORD": 43,
      "STOP_ID": 305100644,
      "LNG": 127.141616,
      "BRT_SUBID": "0",
      "ROUTE_ID": 305001648,
      "STOP_NAME": "서문",
      "SERVICE_ID": 30644,
      "NODE_ID": 305100644,
      "STOP_ORD": 43,
      "LAT": 35.817115
    },
    {
      "ROUTE_NAME": "554",
      "ROUTE_ORD": 44,
      "STOP_ID": 305100625,
      "LNG": 127.13766517,
      "BRT_SUBID": "0",
      "ROUTE_ID": 305001648,
      "STOP_NAME": "신흥중고등학교",
      "SERVICE_ID": 30625,
      "NODE_ID": 305100625,
      "STOP_ORD": 44,
      "LAT": 35.81577568
    },
    {
      "ROUTE_NAME": "554",
      "ROUTE_ORD": 45,
      "STOP_ID": 305100587,
      "LNG": 127.133027,
      "BRT_SUBID": "0",
      "ROUTE_ID": 305001648,
      "STOP_NAME": "예수병원",
      "SERVICE_ID": 30587,
      "NODE_ID": 305100587,
      "STOP_ORD": 45,
      "LAT": 35.813639
    },
    {
      "ROUTE_NAME": "554",
      "ROUTE_ORD": 46,
      "STOP_ID": 305032324,
      "LNG": 127.131734,
      "BRT_SUBID": "0",
      "ROUTE_ID": 305001648,
      "STOP_NAME": "중화산영무예다음현대아파트",
      "SERVICE_ID": 36216,
      "NODE_ID": 305032324,
      "STOP_ORD": 46,
      "LAT": 35.811107
    },
    {
      "ROUTE_NAME": "554",
      "ROUTE_ORD": 47,
      "STOP_ID": 305100525,
      "LNG": 127.130662,
      "BRT_SUBID": "0",
      "ROUTE_ID": 305001648,
      "STOP_NAME": "효자주공3단지",
      "SERVICE_ID": 30525,
      "NODE_ID": 305100525,
      "STOP_ORD": 47,
      "LAT": 35.807223
    },
    {
      "ROUTE_NAME": "554",
      "ROUTE_ORD": 48,
      "STOP_ID": 305100509,
      "LNG": 127.125855,
      "BRT_SUBID": "0",
      "ROUTE_ID": 305001648,
      "STOP_NAME": "서부시장",
      "SERVICE_ID": 30509,
      "NODE_ID": 305100509,
      "STOP_ORD": 48,
      "LAT": 35.805948
    },
    {
      "ROUTE_NAME": "554",
      "ROUTE_ORD": 49,
      "STOP_ID": 305100514,
      "LNG": 127.120957,
      "BRT_SUBID": "0",
      "ROUTE_ID": 305001648,
      "STOP_NAME": "효자광장.전주시청소년상담센터",
      "SERVICE_ID": 30514,
      "NODE_ID": 305100514,
      "STOP_ORD": 49,
      "LAT": 35.806287
    },
    {
      "ROUTE_NAME": "554",
      "ROUTE_ORD": 50,
      "STOP_ID": 305100520,
      "LNG": 127.1175812,
      "BRT_SUBID": "0",
      "ROUTE_ID": 305001648,
      "STOP_NAME": "안행교",
      "SERVICE_ID": 30520,
      "NODE_ID": 305100520,
      "STOP_ORD": 50,
      "LAT": 35.80670585
    },
    {
      "ROUTE_NAME": "554",
      "ROUTE_ORD": 51,
      "STOP_ID": 305100507,
      "LNG": 127.11285154,
      "BRT_SUBID": "0",
      "ROUTE_ID": 305001648,
      "STOP_NAME": "효자롯데아파트",
      "SERVICE_ID": 30507,
      "NODE_ID": 305100507,
      "STOP_ORD": 51,
      "LAT": 35.80587545
    },
    {
      "ROUTE_NAME": "554",
      "ROUTE_ORD": 52,
      "STOP_ID": 305100488,
      "LNG": 127.107847,
      "BRT_SUBID": "0",
      "ROUTE_ID": 305001648,
      "STOP_NAME": "우전초교",
      "SERVICE_ID": 30488,
      "NODE_ID": 305100488,
      "STOP_ORD": 52,
      "LAT": 35.804469
    },
    {
      "ROUTE_NAME": "554",
      "ROUTE_ORD": 53,
      "STOP_ID": 305032535,
      "LNG": 127.1046471,
      "BRT_SUBID": "0",
      "ROUTE_ID": 305001648,
      "STOP_NAME": "전주완산수영장",
      "SERVICE_ID": 36469,
      "NODE_ID": 305032535,
      "STOP_ORD": 53,
      "LAT": 35.8023769
    },
    {
      "ROUTE_NAME": "554",
      "ROUTE_ORD": 54,
      "STOP_ID": 305032501,
      "LNG": 127.105932,
      "BRT_SUBID": "0",
      "ROUTE_ID": 305001648,
      "STOP_NAME": "효천우미린2차아파트",
      "SERVICE_ID": 36435,
      "NODE_ID": 305032501,
      "STOP_ORD": 54,
      "LAT": 35.799935
    },
    {
      "ROUTE_NAME": "554",
      "ROUTE_ORD": 55,
      "STOP_ID": 305032499,
      "LNG": 127.104188,
      "BRT_SUBID": "0",
      "ROUTE_ID": 305001648,
      "STOP_NAME": "효천초등학교",
      "SERVICE_ID": 36433,
      "NODE_ID": 305032499,
      "STOP_ORD": 55,
      "LAT": 35.798878
    },
    {
      "ROUTE_NAME": "554",
      "ROUTE_ORD": 56,
      "STOP_ID": 305032492,
      "LNG": 127.101372,
      "BRT_SUBID": "0",
      "ROUTE_ID": 305001648,
      "STOP_NAME": "효천우미린1차아파트",
      "SERVICE_ID": 36426,
      "NODE_ID": 305032492,
      "STOP_ORD": 56,
      "LAT": 35.798974
    },
    {
      "ROUTE_NAME": "554",
      "ROUTE_ORD": 57,
      "STOP_ID": 305100454,
      "LNG": 127.097413,
      "BRT_SUBID": "0",
      "ROUTE_ID": 305001648,
      "STOP_NAME": "위더스골프클럽",
      "SERVICE_ID": 30454,
      "NODE_ID": 305100454,
      "STOP_ORD": 57,
      "LAT": 35.801654
    },
    {
      "ROUTE_NAME": "554",
      "ROUTE_ORD": 58,
      "STOP_ID": 305100438,
      "LNG": 127.09231084,
      "BRT_SUBID": "0",
      "ROUTE_ID": 305001648,
      "STOP_NAME": "전주박물관전주역사박물관",
      "SERVICE_ID": 30438,
      "NODE_ID": 305100438,
      "STOP_ORD": 58,
      "LAT": 35.79995508
    },
    {
      "ROUTE_NAME": "554",
      "ROUTE_ORD": 59,
      "STOP_ID": 305100405,
      "LNG": 127.08995138,
      "BRT_SUBID": "0",
      "ROUTE_ID": 305001648,
      "STOP_NAME": "완산고입구",
      "SERVICE_ID": 30405,
      "NODE_ID": 305100405,
      "STOP_ORD": 59,
      "LAT": 35.79851665
    },
    {
      "ROUTE_NAME": "554",
      "ROUTE_ORD": 60,
      "STOP_ID": 305100384,
      "LNG": 127.08650417,
      "BRT_SUBID": "0",
      "ROUTE_ID": 305001648,
      "STOP_NAME": "삼산리입구",
      "SERVICE_ID": 30384,
      "NODE_ID": 305100384,
      "STOP_ORD": 60,
      "LAT": 35.79649443
    },
    {
      "ROUTE_NAME": "554",
      "ROUTE_ORD": 61,
      "STOP_ID": 312032085,
      "LNG": 127.0830408,
      "BRT_SUBID": "0",
      "ROUTE_ID": 305001648,
      "STOP_NAME": "정여립로 신흥리",
      "SERVICE_ID": 32085,
      "NODE_ID": 312032085,
      "STOP_ORD": 61,
      "LAT": 35.7983161
    },
    {
      "ROUTE_NAME": "554",
      "ROUTE_ORD": 62,
      "STOP_ID": 305132091,
      "LNG": 127.079973,
      "BRT_SUBID": "0",
      "ROUTE_ID": 305001648,
      "STOP_NAME": "정여립로안산마을",
      "SERVICE_ID": 32091,
      "NODE_ID": 305132091,
      "STOP_ORD": 62,
      "LAT": 35.801554
    },
    {
      "ROUTE_NAME": "554",
      "ROUTE_ORD": 63,
      "STOP_ID": 305032320,
      "LNG": 127.0796587,
      "BRT_SUBID": "0",
      "ROUTE_ID": 305001648,
      "STOP_NAME": "삼천동종점",
      "SERVICE_ID": 36212,
      "NODE_ID": 305032320,
      "STOP_ORD": 63,
      "LAT": 35.8018819
    }
  ]
}