{
  "resultList": [
    {
      "ROUTE_NAME": "30",
      "ROUTE_ORD": 1,
      "STOP_ID": 312101911,
      "LNG": 127.12275813,
      "BRT_SUBID": "C",
      "ROUTE_ID": 305001066,
      "STOP_NAME": "둔산코아루2차아파트",
      "SERVICE_ID": 31910,
      "NODE_ID": 312101911,
      "STOP_ORD": 1,
      "LAT": 35.96190743
    },
    {
      "ROUTE_NAME": "30",
      "ROUTE_ORD": 2,
      "STOP_ID": 312101906,
      "LNG": 127.12703871,
      "BRT_SUBID": "C",
      "ROUTE_ID": 305001066,
      "STOP_NAME": "둔산코아루1차아파트",
      "SERVICE_ID": 31905,
      "NODE_ID": 312101906,
      "STOP_ORD": 2,
      "LAT": 35.96138092
    },
    {
      "ROUTE_NAME": "30",
      "ROUTE_ORD": 3,
      "STOP_ID": 312101998,
      "LNG": 127.12970697,
      "BRT_SUBID": "C",
      "ROUTE_ID": 305001066,
      "STOP_NAME": "뷰텍",
      "SERVICE_ID": 31998,
      "NODE_ID": 312101998,
      "STOP_ORD": 3,
      "LAT": 35.95863393
    },
    {
      "ROUTE_NAME": "30",
      "ROUTE_ORD": 4,
      "STOP_ID": 312101879,
      "LNG": 127.13178226,
      "BRT_SUBID": "C",
      "ROUTE_ID": 305001066,
      "STOP_NAME": "대륜산업",
      "SERVICE_ID": 31878,
      "NODE_ID": 312101879,
      "STOP_ORD": 4,
      "LAT": 35.95519702
    },
    {
      "ROUTE_NAME": "30",
      "ROUTE_ORD": 5,
      "STOP_ID": 312101882,
      "LNG": 127.1390251,
      "BRT_SUBID": "C",
      "ROUTE_ID": 305001066,
      "STOP_NAME": "현대자동차출고장",
      "SERVICE_ID": 31881,
      "NODE_ID": 312101882,
      "STOP_ORD": 5,
      "LAT": 35.95523386
    },
    {
      "ROUTE_NAME": "30",
      "ROUTE_ORD": 6,
      "STOP_ID": 312101855,
      "LNG": 127.13940283,
      "BRT_SUBID": "C",
      "ROUTE_ID": 305001066,
      "STOP_NAME": "동아정밀공업",
      "SERVICE_ID": 31854,
      "NODE_ID": 312101855,
      "STOP_ORD": 6,
      "LAT": 35.9462808
    },
    {
      "ROUTE_NAME": "30",
      "ROUTE_ORD": 7,
      "STOP_ID": 312101849,
      "LNG": 127.1346691,
      "BRT_SUBID": "C",
      "ROUTE_ID": 305001066,
      "STOP_NAME": "현대자동차",
      "SERVICE_ID": 31848,
      "NODE_ID": 312101849,
      "STOP_ORD": 7,
      "LAT": 35.9438611
    },
    {
      "ROUTE_NAME": "30",
      "ROUTE_ORD": 8,
      "STOP_ID": 312101844,
      "LNG": 127.12514126,
      "BRT_SUBID": "C",
      "ROUTE_ID": 305001066,
      "STOP_NAME": "중앙공원",
      "SERVICE_ID": 31843,
      "NODE_ID": 312101844,
      "STOP_ORD": 8,
      "LAT": 35.94334576
    },
    {
      "ROUTE_NAME": "30",
      "ROUTE_ORD": 9,
      "STOP_ID": 312101829,
      "LNG": 127.12513539,
      "BRT_SUBID": "C",
      "ROUTE_ID": 305001066,
      "STOP_NAME": "금강고려화학",
      "SERVICE_ID": 31828,
      "NODE_ID": 312101829,
      "STOP_ORD": 9,
      "LAT": 35.93950364
    },
    {
      "ROUTE_NAME": "30",
      "ROUTE_ORD": 10,
      "STOP_ID": 312101794,
      "LNG": 127.12515956,
      "BRT_SUBID": "C",
      "ROUTE_ID": 305001066,
      "STOP_NAME": "원수계리",
      "SERVICE_ID": 31793,
      "NODE_ID": 312101794,
      "STOP_ORD": 10,
      "LAT": 35.93268856
    },
    {
      "ROUTE_NAME": "30",
      "ROUTE_ORD": 11,
      "STOP_ID": 312101773,
      "LNG": 127.12499475,
      "BRT_SUBID": "C",
      "ROUTE_ID": 305001066,
      "STOP_NAME": "과학로.구.청완초교",
      "SERVICE_ID": 31772,
      "NODE_ID": 312101773,
      "STOP_ORD": 11,
      "LAT": 35.92790433
    },
    {
      "ROUTE_NAME": "30",
      "ROUTE_ORD": 12,
      "STOP_ID": 312101762,
      "LNG": 127.121558,
      "BRT_SUBID": "C",
      "ROUTE_ID": 305001066,
      "STOP_NAME": "삼봉로완주소방서",
      "SERVICE_ID": 31761,
      "NODE_ID": 312101762,
      "STOP_ORD": 12,
      "LAT": 35.926604
    },
    {
      "ROUTE_NAME": "30",
      "ROUTE_ORD": 13,
      "STOP_ID": 305032739,
      "LNG": 127.12072592,
      "BRT_SUBID": "C",
      "ROUTE_ID": 305001066,
      "STOP_NAME": "삼봉비엘로스아파트",
      "SERVICE_ID": 36673,
      "NODE_ID": 305032739,
      "STOP_ORD": 13,
      "LAT": 35.92422706
    },
    {
      "ROUTE_NAME": "30",
      "ROUTE_ORD": 14,
      "STOP_ID": 305032737,
      "LNG": 127.11831234,
      "BRT_SUBID": "C",
      "ROUTE_ID": 305001066,
      "STOP_NAME": "삼봉중흥S클래스아파트",
      "SERVICE_ID": 36671,
      "NODE_ID": 305032737,
      "STOP_ORD": 14,
      "LAT": 35.92180737
    },
    {
      "ROUTE_NAME": "30",
      "ROUTE_ORD": 15,
      "STOP_ID": 305032734,
      "LNG": 127.11575118,
      "BRT_SUBID": "C",
      "ROUTE_ID": 305001066,
      "STOP_NAME": "삼봉1단지아파트",
      "SERVICE_ID": 36668,
      "NODE_ID": 305032734,
      "STOP_ORD": 15,
      "LAT": 35.9225534
    },
    {
      "ROUTE_NAME": "30",
      "ROUTE_ORD": 16,
      "STOP_ID": 312101743,
      "LNG": 127.11370852,
      "BRT_SUBID": "C",
      "ROUTE_ID": 305001066,
      "STOP_NAME": "삼봉행복주택아파트",
      "SERVICE_ID": 31742,
      "NODE_ID": 312101743,
      "STOP_ORD": 16,
      "LAT": 35.92368641
    },
    {
      "ROUTE_NAME": "30",
      "ROUTE_ORD": 17,
      "STOP_ID": 312101739,
      "LNG": 127.10780672,
      "BRT_SUBID": "C",
      "ROUTE_ID": 305001066,
      "STOP_NAME": "청등마을입구",
      "SERVICE_ID": 31738,
      "NODE_ID": 312101739,
      "STOP_ORD": 17,
      "LAT": 35.92212414
    },
    {
      "ROUTE_NAME": "30",
      "ROUTE_ORD": 18,
      "STOP_ID": 312101737,
      "LNG": 127.10491872,
      "BRT_SUBID": "C",
      "ROUTE_ID": 305001066,
      "STOP_NAME": "석전리",
      "SERVICE_ID": 31736,
      "NODE_ID": 312101737,
      "STOP_ORD": 18,
      "LAT": 35.92130611
    },
    {
      "ROUTE_NAME": "30",
      "ROUTE_ORD": 19,
      "STOP_ID": 312101721,
      "LNG": 127.09489278,
      "BRT_SUBID": "C",
      "ROUTE_ID": 305001066,
      "STOP_NAME": "완주군공설운동장.별산리",
      "SERVICE_ID": 31720,
      "NODE_ID": 312101721,
      "STOP_ORD": 19,
      "LAT": 35.91914535
    },
    {
      "ROUTE_NAME": "30",
      "ROUTE_ORD": 20,
      "STOP_ID": 312101745,
      "LNG": 127.09261872,
      "BRT_SUBID": "C",
      "ROUTE_ID": 305001066,
      "STOP_NAME": "농원1구",
      "SERVICE_ID": 31744,
      "NODE_ID": 312101745,
      "STOP_ORD": 20,
      "LAT": 35.92343856
    },
    {
      "ROUTE_NAME": "30",
      "ROUTE_ORD": 21,
      "STOP_ID": 312101758,
      "LNG": 127.09027536,
      "BRT_SUBID": "C",
      "ROUTE_ID": 305001066,
      "STOP_NAME": "농원2구",
      "SERVICE_ID": 31757,
      "NODE_ID": 312101758,
      "STOP_ORD": 21,
      "LAT": 35.92603042
    },
    {
      "ROUTE_NAME": "30",
      "ROUTE_ORD": 22,
      "STOP_ID": 312101984,
      "LNG": 127.08866793,
      "BRT_SUBID": "C",
      "ROUTE_ID": 305001066,
      "STOP_NAME": "농원종점",
      "SERVICE_ID": 31983,
      "NODE_ID": 312101984,
      "STOP_ORD": 22,
      "LAT": 35.92735564
    },
    {
      "ROUTE_NAME": "30",
      "ROUTE_ORD": 23,
      "STOP_ID": 312101757,
      "LNG": 127.09019942,
      "BRT_SUBID": "C",
      "ROUTE_ID": 305001066,
      "STOP_NAME": "농원2구",
      "SERVICE_ID": 31756,
      "NODE_ID": 312101757,
      "STOP_ORD": 23,
      "LAT": 35.92588932
    },
    {
      "ROUTE_NAME": "30",
      "ROUTE_ORD": 24,
      "STOP_ID": 312101744,
      "LNG": 127.09247486,
      "BRT_SUBID": "C",
      "ROUTE_ID": 305001066,
      "STOP_NAME": "농원1구",
      "SERVICE_ID": 31743,
      "NODE_ID": 312101744,
      "STOP_ORD": 24,
      "LAT": 35.92339396
    },
    {
      "ROUTE_NAME": "30",
      "ROUTE_ORD": 25,
      "STOP_ID": 312101725,
      "LNG": 127.0900371,
      "BRT_SUBID": "C",
      "ROUTE_ID": 305001066,
      "STOP_NAME": "농원입구",
      "SERVICE_ID": 31724,
      "NODE_ID": 312101725,
      "STOP_ORD": 25,
      "LAT": 35.91964643
    },
    {
      "ROUTE_NAME": "30",
      "ROUTE_ORD": 26,
      "STOP_ID": 312101724,
      "LNG": 127.08668994,
      "BRT_SUBID": "C",
      "ROUTE_ID": 305001066,
      "STOP_NAME": "삼례IC네거리",
      "SERVICE_ID": 31723,
      "NODE_ID": 312101724,
      "STOP_ORD": 26,
      "LAT": 35.9196071
    },
    {
      "ROUTE_NAME": "30",
      "ROUTE_ORD": 27,
      "STOP_ID": 312032798,
      "LNG": 127.0784126,
      "BRT_SUBID": "C",
      "ROUTE_ID": 305001066,
      "STOP_NAME": "삼례주공아파트",
      "SERVICE_ID": 36267,
      "NODE_ID": 312032798,
      "STOP_ORD": 27,
      "LAT": 35.9187809
    },
    {
      "ROUTE_NAME": "30",
      "ROUTE_ORD": 28,
      "STOP_ID": 312032796,
      "LNG": 127.0754579,
      "BRT_SUBID": "C",
      "ROUTE_ID": 305001066,
      "STOP_NAME": "서여마을",
      "SERVICE_ID": 36265,
      "NODE_ID": 312032796,
      "STOP_ORD": 28,
      "LAT": 35.9168726
    },
    {
      "ROUTE_NAME": "30",
      "ROUTE_ORD": 29,
      "STOP_ID": 312032794,
      "LNG": 127.0775301,
      "BRT_SUBID": "C",
      "ROUTE_ID": 305001066,
      "STOP_NAME": "삼례읍행정복지센터.삼례중입구",
      "SERVICE_ID": 36263,
      "NODE_ID": 312032794,
      "STOP_ORD": 29,
      "LAT": 35.9138145
    },
    {
      "ROUTE_NAME": "30",
      "ROUTE_ORD": 30,
      "STOP_ID": 312101681,
      "LNG": 127.0748464,
      "BRT_SUBID": "C",
      "ROUTE_ID": 305001066,
      "STOP_NAME": "삼례농협",
      "SERVICE_ID": 31680,
      "NODE_ID": 312101681,
      "STOP_ORD": 30,
      "LAT": 35.9120424
    },
    {
      "ROUTE_NAME": "30",
      "ROUTE_ORD": 31,
      "STOP_ID": 312101673,
      "LNG": 127.075066,
      "BRT_SUBID": "C",
      "ROUTE_ID": 305001066,
      "STOP_NAME": "삼례터미널",
      "SERVICE_ID": 31672,
      "NODE_ID": 312101673,
      "STOP_ORD": 31,
      "LAT": 35.910144
    }
  ]
}