{
  "resultList": [
    {
      "ROUTE_NAME": "27",
      "ROUTE_ORD": 1,
      "STOP_ID": 305032675,
      "LNG": 127.0199833,
      "BRT_SUBID": "0",
      "ROUTE_ID": 305001672,
      "STOP_NAME": "이서회차지",
      "SERVICE_ID": 36609,
      "NODE_ID": 305032675,
      "STOP_ORD": 1,
      "LAT": 35.817095
    },
    {
      "ROUTE_NAME": "27",
      "ROUTE_ORD": 2,
      "STOP_ID": 312032266,
      "LNG": 127.02078,
      "BRT_SUBID": "0",
      "ROUTE_ID": 305001672,
      "STOP_NAME": "이서종점",
      "SERVICE_ID": 32266,
      "NODE_ID": 312032266,
      "STOP_ORD": 2,
      "LAT": 35.8199157
    },
    {
      "ROUTE_NAME": "27",
      "ROUTE_ORD": 3,
      "STOP_ID": 312100754,
      "LNG": 127.02255282,
      "BRT_SUBID": "0",
      "ROUTE_ID": 305001672,
      "STOP_NAME": "삼우중",
      "SERVICE_ID": 30754,
      "NODE_ID": 312100754,
      "STOP_ORD": 3,
      "LAT": 35.82450786
    },
    {
      "ROUTE_NAME": "27",
      "ROUTE_ORD": 4,
      "STOP_ID": 312032125,
      "LNG": 127.024671,
      "BRT_SUBID": "0",
      "ROUTE_ID": 305001672,
      "STOP_NAME": "혁신에코르3단지",
      "SERVICE_ID": 32125,
      "NODE_ID": 312032125,
      "STOP_ORD": 4,
      "LAT": 35.827128
    },
    {
      "ROUTE_NAME": "27",
      "ROUTE_ORD": 5,
      "STOP_ID": 312032116,
      "LNG": 127.02486991,
      "BRT_SUBID": "0",
      "ROUTE_ID": 305001672,
      "STOP_NAME": "지방자치인재개발원",
      "SERVICE_ID": 32116,
      "NODE_ID": 312032116,
      "STOP_ORD": 5,
      "LAT": 35.83296805
    },
    {
      "ROUTE_NAME": "27",
      "ROUTE_ORD": 6,
      "STOP_ID": 312003212,
      "LNG": 127.02406364,
      "BRT_SUBID": "0",
      "ROUTE_ID": 305001672,
      "STOP_NAME": "농원삼거리",
      "SERVICE_ID": 32122,
      "NODE_ID": 312003212,
      "STOP_ORD": 6,
      "LAT": 35.83489769
    },
    {
      "ROUTE_NAME": "27",
      "ROUTE_ORD": 7,
      "STOP_ID": 312032264,
      "LNG": 127.034461,
      "BRT_SUBID": "0",
      "ROUTE_ID": 305001672,
      "STOP_NAME": "국립원예특작과학원",
      "SERVICE_ID": 32264,
      "NODE_ID": 312032264,
      "STOP_ORD": 7,
      "LAT": 35.835111
    },
    {
      "ROUTE_NAME": "27",
      "ROUTE_ORD": 8,
      "STOP_ID": 312032213,
      "LNG": 127.041972,
      "BRT_SUBID": "0",
      "ROUTE_ID": 305001672,
      "STOP_NAME": "국립농업과학원",
      "SERVICE_ID": 32213,
      "NODE_ID": 312032213,
      "STOP_ORD": 8,
      "LAT": 35.832823
    },
    {
      "ROUTE_NAME": "27",
      "ROUTE_ORD": 9,
      "STOP_ID": 312032210,
      "LNG": 127.050179,
      "BRT_SUBID": "0",
      "ROUTE_ID": 305001672,
      "STOP_NAME": "한국식품연구원",
      "SERVICE_ID": 32210,
      "NODE_ID": 312032210,
      "STOP_ORD": 9,
      "LAT": 35.83338
    },
    {
      "ROUTE_NAME": "27",
      "ROUTE_ORD": 10,
      "STOP_ID": 312032174,
      "LNG": 127.055748,
      "BRT_SUBID": "0",
      "ROUTE_ID": 305001672,
      "STOP_NAME": "한국전기안전공사본사",
      "SERVICE_ID": 32174,
      "NODE_ID": 312032174,
      "STOP_ORD": 10,
      "LAT": 35.835161
    },
    {
      "ROUTE_NAME": "27",
      "ROUTE_ORD": 11,
      "STOP_ID": 312032112,
      "LNG": 127.05579,
      "BRT_SUBID": "0",
      "ROUTE_ID": 305001672,
      "STOP_NAME": "혁신이노힐스아파트",
      "SERVICE_ID": 32112,
      "NODE_ID": 312032112,
      "STOP_ORD": 11,
      "LAT": 35.837927
    },
    {
      "ROUTE_NAME": "27",
      "ROUTE_ORD": 12,
      "STOP_ID": 312032136,
      "LNG": 127.053269,
      "BRT_SUBID": "0",
      "ROUTE_ID": 305001672,
      "STOP_NAME": "혁신이노힐스아파트후문",
      "SERVICE_ID": 32136,
      "NODE_ID": 312032136,
      "STOP_ORD": 12,
      "LAT": 35.838792
    },
    {
      "ROUTE_NAME": "27",
      "ROUTE_ORD": 13,
      "STOP_ID": 312032134,
      "LNG": 127.05336,
      "BRT_SUBID": "0",
      "ROUTE_ID": 305001672,
      "STOP_NAME": "혁신에코르1단지",
      "SERVICE_ID": 32134,
      "NODE_ID": 312032134,
      "STOP_ORD": 13,
      "LAT": 35.84101
    },
    {
      "ROUTE_NAME": "27",
      "ROUTE_ORD": 14,
      "STOP_ID": 312101074,
      "LNG": 127.04562061,
      "BRT_SUBID": "0",
      "ROUTE_ID": 305001672,
      "STOP_NAME": "갈동마을",
      "SERVICE_ID": 31073,
      "NODE_ID": 312101074,
      "STOP_ORD": 14,
      "LAT": 35.84491779
    },
    {
      "ROUTE_NAME": "27",
      "ROUTE_ORD": 15,
      "STOP_ID": 312101071,
      "LNG": 127.04554711,
      "BRT_SUBID": "0",
      "ROUTE_ID": 305001672,
      "STOP_NAME": "갈동마을",
      "SERVICE_ID": 31070,
      "NODE_ID": 312101071,
      "STOP_ORD": 15,
      "LAT": 35.84478138
    },
    {
      "ROUTE_NAME": "27",
      "ROUTE_ORD": 16,
      "STOP_ID": 312101631,
      "LNG": 127.07680278,
      "BRT_SUBID": "0",
      "ROUTE_ID": 305001672,
      "STOP_NAME": "비비정",
      "SERVICE_ID": 31630,
      "NODE_ID": 312101631,
      "STOP_ORD": 16,
      "LAT": 35.90065887
    },
    {
      "ROUTE_NAME": "27",
      "ROUTE_ORD": 17,
      "STOP_ID": 312101648,
      "LNG": 127.07552036,
      "BRT_SUBID": "0",
      "ROUTE_ID": 305001672,
      "STOP_NAME": "삼례우성아파트",
      "SERVICE_ID": 31647,
      "NODE_ID": 312101648,
      "STOP_ORD": 17,
      "LAT": 35.90676984
    },
    {
      "ROUTE_NAME": "27",
      "ROUTE_ORD": 18,
      "STOP_ID": 312101674,
      "LNG": 127.0749043,
      "BRT_SUBID": "0",
      "ROUTE_ID": 305001672,
      "STOP_NAME": "삼례터미널",
      "SERVICE_ID": 31673,
      "NODE_ID": 312101674,
      "STOP_ORD": 18,
      "LAT": 35.9099229
    },
    {
      "ROUTE_NAME": "27",
      "ROUTE_ORD": 19,
      "STOP_ID": 312102010,
      "LNG": 127.07327591,
      "BRT_SUBID": "0",
      "ROUTE_ID": 305001672,
      "STOP_NAME": "삼봉로.삼례시장",
      "SERVICE_ID": 32010,
      "NODE_ID": 312102010,
      "STOP_ORD": 19,
      "LAT": 35.91109004
    },
    {
      "ROUTE_NAME": "27",
      "ROUTE_ORD": 20,
      "STOP_ID": 312101669,
      "LNG": 127.07164211,
      "BRT_SUBID": "0",
      "ROUTE_ID": 305001672,
      "STOP_NAME": "한별고등학교",
      "SERVICE_ID": 31668,
      "NODE_ID": 312101669,
      "STOP_ORD": 20,
      "LAT": 35.91002339
    },
    {
      "ROUTE_NAME": "27",
      "ROUTE_ORD": 21,
      "STOP_ID": 312101661,
      "LNG": 127.07013643,
      "BRT_SUBID": "0",
      "ROUTE_ID": 305001672,
      "STOP_NAME": "전북하이텍고교.삼례파출소",
      "SERVICE_ID": 31660,
      "NODE_ID": 312101661,
      "STOP_ORD": 21,
      "LAT": 35.90901729
    },
    {
      "ROUTE_NAME": "27",
      "ROUTE_ORD": 22,
      "STOP_ID": 312032818,
      "LNG": 127.0654044,
      "BRT_SUBID": "0",
      "ROUTE_ID": 305001672,
      "STOP_NAME": "삼례문화예술촌",
      "SERVICE_ID": 36288,
      "NODE_ID": 312032818,
      "STOP_ORD": 22,
      "LAT": 35.907048
    },
    {
      "ROUTE_NAME": "27",
      "ROUTE_ORD": 23,
      "STOP_ID": 312101650,
      "LNG": 127.06499397,
      "BRT_SUBID": "0",
      "ROUTE_ID": 305001672,
      "STOP_NAME": "삼례역",
      "SERVICE_ID": 31649,
      "NODE_ID": 312101650,
      "STOP_ORD": 23,
      "LAT": 35.90542085
    }
  ]
}