{
  "resultList": [
    {
      "ROUTE_NAME": "355",
      "ROUTE_ORD": 1,
      "STOP_ID": 305100650,
      "LNG": 127.091818,
      "BRT_SUBID": "0",
      "ROUTE_ID": 305001151,
      "STOP_NAME": "전주대학교",
      "SERVICE_ID": 30650,
      "NODE_ID": 305100650,
      "STOP_ORD": 1,
      "LAT": 35.81849
    },
    {
      "ROUTE_NAME": "355",
      "ROUTE_ORD": 2,
      "STOP_ID": 305100609,
      "LNG": 127.09452694,
      "BRT_SUBID": "0",
      "ROUTE_ID": 305001151,
      "STOP_NAME": "영생고 전주대사대부고",
      "SERVICE_ID": 30609,
      "NODE_ID": 305100609,
      "STOP_ORD": 2,
      "LAT": 35.81512963
    },
    {
      "ROUTE_NAME": "355",
      "ROUTE_ORD": 3,
      "STOP_ID": 305100584,
      "LNG": 127.09807381,
      "BRT_SUBID": "0",
      "ROUTE_ID": 305001151,
      "STOP_NAME": "호남제일고",
      "SERVICE_ID": 30584,
      "NODE_ID": 305100584,
      "STOP_ORD": 3,
      "LAT": 35.81348304
    },
    {
      "ROUTE_NAME": "355",
      "ROUTE_ORD": 4,
      "STOP_ID": 305100637,
      "LNG": 127.106093,
      "BRT_SUBID": "0",
      "ROUTE_ID": 305001151,
      "STOP_NAME": "전주우체국",
      "SERVICE_ID": 30637,
      "NODE_ID": 305100637,
      "STOP_ORD": 4,
      "LAT": 35.814479
    },
    {
      "ROUTE_NAME": "355",
      "ROUTE_ORD": 5,
      "STOP_ID": 305032364,
      "LNG": 127.106248,
      "BRT_SUBID": "0",
      "ROUTE_ID": 305001151,
      "STOP_NAME": "CGV서전주.전북중장년내일센터",
      "SERVICE_ID": 36298,
      "NODE_ID": 305032364,
      "STOP_ORD": 5,
      "LAT": 35.8166
    },
    {
      "ROUTE_NAME": "355",
      "ROUTE_ORD": 6,
      "STOP_ID": 305100661,
      "LNG": 127.107954,
      "BRT_SUBID": "0",
      "ROUTE_ID": 305001151,
      "STOP_NAME": "효자로전북도청",
      "SERVICE_ID": 30661,
      "NODE_ID": 305100661,
      "STOP_ORD": 6,
      "LAT": 35.818896
    },
    {
      "ROUTE_NAME": "355",
      "ROUTE_ORD": 7,
      "STOP_ID": 305032286,
      "LNG": 127.111892,
      "BRT_SUBID": "0",
      "ROUTE_ID": 305001151,
      "STOP_NAME": "신원아침도시.힐스테이트",
      "SERVICE_ID": 32286,
      "NODE_ID": 305032286,
      "STOP_ORD": 7,
      "LAT": 35.816521
    },
    {
      "ROUTE_NAME": "355",
      "ROUTE_ORD": 8,
      "STOP_ID": 305032462,
      "LNG": 127.114429,
      "BRT_SUBID": "0",
      "ROUTE_ID": 305001151,
      "STOP_NAME": "서원로이동교",
      "SERVICE_ID": 36396,
      "NODE_ID": 305032462,
      "STOP_ORD": 8,
      "LAT": 35.813117
    },
    {
      "ROUTE_NAME": "355",
      "ROUTE_ORD": 9,
      "STOP_ID": 305100571,
      "LNG": 127.11754788,
      "BRT_SUBID": "0",
      "ROUTE_ID": 305001151,
      "STOP_NAME": "서원로완산구청네거리",
      "SERVICE_ID": 30571,
      "NODE_ID": 305100571,
      "STOP_ORD": 9,
      "LAT": 35.81265423
    },
    {
      "ROUTE_NAME": "355",
      "ROUTE_ORD": 10,
      "STOP_ID": 305100566,
      "LNG": 127.12080521,
      "BRT_SUBID": "0",
      "ROUTE_ID": 305001151,
      "STOP_NAME": "완산구청",
      "SERVICE_ID": 30566,
      "NODE_ID": 305100566,
      "STOP_ORD": 10,
      "LAT": 35.81228152
    },
    {
      "ROUTE_NAME": "355",
      "ROUTE_ORD": 11,
      "STOP_ID": 305100563,
      "LNG": 127.12538429,
      "BRT_SUBID": "0",
      "ROUTE_ID": 305001151,
      "STOP_NAME": "전주상업정보고",
      "SERVICE_ID": 30563,
      "NODE_ID": 305100563,
      "STOP_ORD": 11,
      "LAT": 35.81186949
    },
    {
      "ROUTE_NAME": "355",
      "ROUTE_ORD": 12,
      "STOP_ID": 305100562,
      "LNG": 127.128924,
      "BRT_SUBID": "0",
      "ROUTE_ID": 305001151,
      "STOP_NAME": "중화산동현대아파트",
      "SERVICE_ID": 30562,
      "NODE_ID": 305100562,
      "STOP_ORD": 12,
      "LAT": 35.811756
    },
    {
      "ROUTE_NAME": "355",
      "ROUTE_ORD": 13,
      "STOP_ID": 305100578,
      "LNG": 127.132759,
      "BRT_SUBID": "0",
      "ROUTE_ID": 305001151,
      "STOP_NAME": "예수병원",
      "SERVICE_ID": 30578,
      "NODE_ID": 305100578,
      "STOP_ORD": 13,
      "LAT": 35.813291
    },
    {
      "ROUTE_NAME": "355",
      "ROUTE_ORD": 14,
      "STOP_ID": 305100621,
      "LNG": 127.13765637,
      "BRT_SUBID": "0",
      "ROUTE_ID": 305001151,
      "STOP_NAME": "신흥중고등학교",
      "SERVICE_ID": 30621,
      "NODE_ID": 305100621,
      "STOP_ORD": 14,
      "LAT": 35.81550005
    },
    {
      "ROUTE_NAME": "355",
      "ROUTE_ORD": 15,
      "STOP_ID": 305100640,
      "LNG": 127.14111827,
      "BRT_SUBID": "0",
      "ROUTE_ID": 305001151,
      "STOP_NAME": "서문",
      "SERVICE_ID": 30640,
      "NODE_ID": 305100640,
      "STOP_ORD": 15,
      "LAT": 35.8167323
    },
    {
      "ROUTE_NAME": "355",
      "ROUTE_ORD": 16,
      "STOP_ID": 305100648,
      "LNG": 127.14542022,
      "BRT_SUBID": "0",
      "ROUTE_ID": 305001151,
      "STOP_NAME": "충경로 객사",
      "SERVICE_ID": 30648,
      "NODE_ID": 305100648,
      "STOP_ORD": 16,
      "LAT": 35.81798392
    },
    {
      "ROUTE_NAME": "355",
      "ROUTE_ORD": 17,
      "STOP_ID": 305100683,
      "LNG": 127.146497,
      "BRT_SUBID": "0",
      "ROUTE_ID": 305001151,
      "STOP_NAME": "CTS전북방송",
      "SERVICE_ID": 30683,
      "NODE_ID": 305100683,
      "STOP_ORD": 17,
      "LAT": 35.820099
    },
    {
      "ROUTE_NAME": "355",
      "ROUTE_ORD": 18,
      "STOP_ID": 306100752,
      "LNG": 127.144695,
      "BRT_SUBID": "0",
      "ROUTE_ID": 305001151,
      "STOP_NAME": "중앙시장.세이브존",
      "SERVICE_ID": 30752,
      "NODE_ID": 306100752,
      "STOP_ORD": 18,
      "LAT": 35.824475
    },
    {
      "ROUTE_NAME": "355",
      "ROUTE_ORD": 19,
      "STOP_ID": 306100861,
      "LNG": 127.13871665,
      "BRT_SUBID": "0",
      "ROUTE_ID": 305001151,
      "STOP_NAME": "전북청소년상담센터",
      "SERVICE_ID": 30861,
      "NODE_ID": 306100861,
      "STOP_ORD": 19,
      "LAT": 35.83141844
    },
    {
      "ROUTE_NAME": "355",
      "ROUTE_ORD": 20,
      "STOP_ID": 306100911,
      "LNG": 127.137297,
      "BRT_SUBID": "0",
      "ROUTE_ID": 305001151,
      "STOP_NAME": "금암광장",
      "SERVICE_ID": 30911,
      "NODE_ID": 306100911,
      "STOP_ORD": 20,
      "LAT": 35.833069
    },
    {
      "ROUTE_NAME": "355",
      "ROUTE_ORD": 21,
      "STOP_ID": 306100969,
      "LNG": 127.13363898,
      "BRT_SUBID": "0",
      "ROUTE_ID": 305001151,
      "STOP_NAME": "금암동주민센터",
      "SERVICE_ID": 30969,
      "NODE_ID": 306100969,
      "STOP_ORD": 21,
      "LAT": 35.83678745
    },
    {
      "ROUTE_NAME": "355",
      "ROUTE_ORD": 22,
      "STOP_ID": 306101004,
      "LNG": 127.131042,
      "BRT_SUBID": "0",
      "ROUTE_ID": 305001151,
      "STOP_NAME": "고속버스터미널입구.전북일보사",
      "SERVICE_ID": 31003,
      "NODE_ID": 306101004,
      "STOP_ORD": 22,
      "LAT": 35.838631
    },
    {
      "ROUTE_NAME": "355",
      "ROUTE_ORD": 23,
      "STOP_ID": 306101035,
      "LNG": 127.127164,
      "BRT_SUBID": "0",
      "ROUTE_ID": 305001151,
      "STOP_NAME": "전북대학교.소나무한의원앞",
      "SERVICE_ID": 31034,
      "NODE_ID": 306101035,
      "STOP_ORD": 23,
      "LAT": 35.841467
    },
    {
      "ROUTE_NAME": "355",
      "ROUTE_ORD": 24,
      "STOP_ID": 306101084,
      "LNG": 127.12136775,
      "BRT_SUBID": "0",
      "ROUTE_ID": 305001151,
      "STOP_NAME": "기린대로덕진공원",
      "SERVICE_ID": 31083,
      "NODE_ID": 306101084,
      "STOP_ORD": 24,
      "LAT": 35.84574561
    },
    {
      "ROUTE_NAME": "355",
      "ROUTE_ORD": 25,
      "STOP_ID": 306101113,
      "LNG": 127.11968893,
      "BRT_SUBID": "0",
      "ROUTE_ID": 305001151,
      "STOP_NAME": "도립국악원",
      "SERVICE_ID": 31112,
      "NODE_ID": 306101113,
      "STOP_ORD": 25,
      "LAT": 35.84934543
    },
    {
      "ROUTE_NAME": "355",
      "ROUTE_ORD": 26,
      "STOP_ID": 306101170,
      "LNG": 127.11979367,
      "BRT_SUBID": "0",
      "ROUTE_ID": 305001151,
      "STOP_NAME": "도립여성중고 롯데마트",
      "SERVICE_ID": 31169,
      "NODE_ID": 306101170,
      "STOP_ORD": 26,
      "LAT": 35.85361352
    },
    {
      "ROUTE_NAME": "355",
      "ROUTE_ORD": 27,
      "STOP_ID": 306101229,
      "LNG": 127.11982,
      "BRT_SUBID": "0",
      "ROUTE_ID": 305001151,
      "STOP_NAME": "송천삼거리.송천초교",
      "SERVICE_ID": 31228,
      "NODE_ID": 306101229,
      "STOP_ORD": 27,
      "LAT": 35.856559
    },
    {
      "ROUTE_NAME": "355",
      "ROUTE_ORD": 28,
      "STOP_ID": 306101250,
      "LNG": 127.11802905,
      "BRT_SUBID": "0",
      "ROUTE_ID": 305001151,
      "STOP_NAME": "송천2파출소",
      "SERVICE_ID": 31249,
      "NODE_ID": 306101250,
      "STOP_ORD": 28,
      "LAT": 35.85863312
    },
    {
      "ROUTE_NAME": "355",
      "ROUTE_ORD": 29,
      "STOP_ID": 306101297,
      "LNG": 127.11478688,
      "BRT_SUBID": "0",
      "ROUTE_ID": 305001151,
      "STOP_NAME": "송천대명아파트",
      "SERVICE_ID": 31296,
      "NODE_ID": 306101297,
      "STOP_ORD": 29,
      "LAT": 35.8630123
    },
    {
      "ROUTE_NAME": "355",
      "ROUTE_ORD": 30,
      "STOP_ID": 306101341,
      "LNG": 127.11470965,
      "BRT_SUBID": "0",
      "ROUTE_ID": 305001151,
      "STOP_NAME": "송천롯데아파트",
      "SERVICE_ID": 31340,
      "NODE_ID": 306101341,
      "STOP_ORD": 30,
      "LAT": 35.8661518
    },
    {
      "ROUTE_NAME": "355",
      "ROUTE_ORD": 31,
      "STOP_ID": 306101381,
      "LNG": 127.114649,
      "BRT_SUBID": "0",
      "ROUTE_ID": 305001151,
      "STOP_NAME": "농수산시장.메가월드",
      "SERVICE_ID": 31380,
      "NODE_ID": 306101381,
      "STOP_ORD": 31,
      "LAT": 35.868558
    },
    {
      "ROUTE_NAME": "355",
      "ROUTE_ORD": 32,
      "STOP_ID": 306101395,
      "LNG": 127.114969,
      "BRT_SUBID": "0",
      "ROUTE_ID": 305001151,
      "STOP_NAME": "발단마을",
      "SERVICE_ID": 31394,
      "NODE_ID": 306101395,
      "STOP_ORD": 32,
      "LAT": 35.8713261
    },
    {
      "ROUTE_NAME": "355",
      "ROUTE_ORD": 33,
      "STOP_ID": 306101416,
      "LNG": 127.11376208,
      "BRT_SUBID": "0",
      "ROUTE_ID": 305001151,
      "STOP_NAME": "용흥마을",
      "SERVICE_ID": 31415,
      "NODE_ID": 306101416,
      "STOP_ORD": 33,
      "LAT": 35.87323252
    },
    {
      "ROUTE_NAME": "355",
      "ROUTE_ORD": 34,
      "STOP_ID": 306101439,
      "LNG": 127.113337,
      "BRT_SUBID": "0",
      "ROUTE_ID": 305001151,
      "STOP_NAME": "구.비행장",
      "SERVICE_ID": 31438,
      "NODE_ID": 306101439,
      "STOP_ORD": 34,
      "LAT": 35.874855
    },
    {
      "ROUTE_NAME": "355",
      "ROUTE_ORD": 35,
      "STOP_ID": 306101480,
      "LNG": 127.112495,
      "BRT_SUBID": "0",
      "ROUTE_ID": 305001151,
      "STOP_NAME": "월곡마을앞",
      "SERVICE_ID": 31479,
      "NODE_ID": 306101480,
      "STOP_ORD": 35,
      "LAT": 35.878056
    },
    {
      "ROUTE_NAME": "355",
      "ROUTE_ORD": 36,
      "STOP_ID": 306101517,
      "LNG": 127.109354,
      "BRT_SUBID": "0",
      "ROUTE_ID": 305001151,
      "STOP_NAME": "미산초교",
      "SERVICE_ID": 31516,
      "NODE_ID": 306101517,
      "STOP_ORD": 36,
      "LAT": 35.883346
    },
    {
      "ROUTE_NAME": "355",
      "ROUTE_ORD": 37,
      "STOP_ID": 306101564,
      "LNG": 127.1048018,
      "BRT_SUBID": "0",
      "ROUTE_ID": 305001151,
      "STOP_NAME": "주정마을",
      "SERVICE_ID": 31563,
      "NODE_ID": 306101564,
      "STOP_ORD": 37,
      "LAT": 35.8894721
    },
    {
      "ROUTE_NAME": "355",
      "ROUTE_ORD": 38,
      "STOP_ID": 306101602,
      "LNG": 127.10247,
      "BRT_SUBID": "0",
      "ROUTE_ID": 305001151,
      "STOP_NAME": "신미산",
      "SERVICE_ID": 31601,
      "NODE_ID": 306101602,
      "STOP_ORD": 38,
      "LAT": 35.8926876
    },
    {
      "ROUTE_NAME": "355",
      "ROUTE_ORD": 39,
      "STOP_ID": 312101621,
      "LNG": 127.09837918,
      "BRT_SUBID": "0",
      "ROUTE_ID": 305001151,
      "STOP_NAME": "하리",
      "SERVICE_ID": 31620,
      "NODE_ID": 312101621,
      "STOP_ORD": 39,
      "LAT": 35.89873502
    },
    {
      "ROUTE_NAME": "355",
      "ROUTE_ORD": 40,
      "STOP_ID": 312101641,
      "LNG": 127.09486221,
      "BRT_SUBID": "0",
      "ROUTE_ID": 305001151,
      "STOP_NAME": "신복리",
      "SERVICE_ID": 31640,
      "NODE_ID": 312101641,
      "STOP_ORD": 40,
      "LAT": 35.9047726
    },
    {
      "ROUTE_NAME": "355",
      "ROUTE_ORD": 41,
      "STOP_ID": 312101700,
      "LNG": 127.09206255,
      "BRT_SUBID": "0",
      "ROUTE_ID": 305001151,
      "STOP_NAME": "원신금",
      "SERVICE_ID": 31699,
      "NODE_ID": 312101700,
      "STOP_ORD": 41,
      "LAT": 35.90987916
    },
    {
      "ROUTE_NAME": "355",
      "ROUTE_ORD": 42,
      "STOP_ID": 312101716,
      "LNG": 127.08383612,
      "BRT_SUBID": "0",
      "ROUTE_ID": 305001151,
      "STOP_NAME": "완주군청소년수련관",
      "SERVICE_ID": 31715,
      "NODE_ID": 312101716,
      "STOP_ORD": 42,
      "LAT": 35.91804306
    },
    {
      "ROUTE_NAME": "355",
      "ROUTE_ORD": 43,
      "STOP_ID": 312101710,
      "LNG": 127.08240242,
      "BRT_SUBID": "0",
      "ROUTE_ID": 305001151,
      "STOP_NAME": "삼례동원아파트",
      "SERVICE_ID": 31709,
      "NODE_ID": 312101710,
      "STOP_ORD": 43,
      "LAT": 35.91710895
    },
    {
      "ROUTE_NAME": "355",
      "ROUTE_ORD": 44,
      "STOP_ID": 312101703,
      "LNG": 127.08046972,
      "BRT_SUBID": "0",
      "ROUTE_ID": 305001151,
      "STOP_NAME": "삼례대영아파트",
      "SERVICE_ID": 31702,
      "NODE_ID": 312101703,
      "STOP_ORD": 44,
      "LAT": 35.91580375
    },
    {
      "ROUTE_NAME": "355",
      "ROUTE_ORD": 45,
      "STOP_ID": 312032794,
      "LNG": 127.0775301,
      "BRT_SUBID": "0",
      "ROUTE_ID": 305001151,
      "STOP_NAME": "삼례읍행정복지센터.삼례중입구",
      "SERVICE_ID": 36263,
      "NODE_ID": 312032794,
      "STOP_ORD": 45,
      "LAT": 35.9138145
    },
    {
      "ROUTE_NAME": "355",
      "ROUTE_ORD": 46,
      "STOP_ID": 312101681,
      "LNG": 127.0748464,
      "BRT_SUBID": "0",
      "ROUTE_ID": 305001151,
      "STOP_NAME": "삼례농협",
      "SERVICE_ID": 31680,
      "NODE_ID": 312101681,
      "STOP_ORD": 46,
      "LAT": 35.9120424
    },
    {
      "ROUTE_NAME": "355",
      "ROUTE_ORD": 47,
      "STOP_ID": 312101673,
      "LNG": 127.075066,
      "BRT_SUBID": "0",
      "ROUTE_ID": 305001151,
      "STOP_NAME": "삼례터미널",
      "SERVICE_ID": 31672,
      "NODE_ID": 312101673,
      "STOP_ORD": 47,
      "LAT": 35.910144
    }
  ]
}