{
  "resultList": [
    {
      "ROUTE_NAME": "5001",
      "ROUTE_ORD": 1,
      "STOP_ID": 305032695,
      "LNG": 127.08743,
      "BRT_SUBID": "0",
      "ROUTE_ID": 305001574,
      "STOP_NAME": "전주대캠퍼스",
      "SERVICE_ID": 36629,
      "NODE_ID": 305032695,
      "STOP_ORD": 1,
      "LAT": 35.813922
    },
    {
      "ROUTE_NAME": "5001",
      "ROUTE_ORD": 2,
      "STOP_ID": 305032696,
      "LNG": 127.089989,
      "BRT_SUBID": "0",
      "ROUTE_ID": 305001574,
      "STOP_NAME": "전주대교수연구동",
      "SERVICE_ID": 36630,
      "NODE_ID": 305032696,
      "STOP_ORD": 2,
      "LAT": 35.812217
    },
    {
      "ROUTE_NAME": "5001",
      "ROUTE_ORD": 3,
      "STOP_ID": 305100630,
      "LNG": 127.094854,
      "BRT_SUBID": "0",
      "ROUTE_ID": 305001574,
      "STOP_NAME": "영생고 전주대사대부고",
      "SERVICE_ID": 30630,
      "NODE_ID": 305100630,
      "STOP_ORD": 3,
      "LAT": 35.816115
    },
    {
      "ROUTE_NAME": "5001",
      "ROUTE_ORD": 4,
      "STOP_ID": 312032097,
      "LNG": 127.09928,
      "BRT_SUBID": "0",
      "ROUTE_ID": 305001574,
      "STOP_NAME": "농소전원마을",
      "SERVICE_ID": 32097,
      "NODE_ID": 312032097,
      "STOP_ORD": 4,
      "LAT": 35.818664
    },
    {
      "ROUTE_NAME": "5001",
      "ROUTE_ORD": 5,
      "STOP_ID": 316132059,
      "LNG": 127.102048,
      "BRT_SUBID": "0",
      "ROUTE_ID": 305001574,
      "STOP_NAME": "대진빌딩",
      "SERVICE_ID": 32059,
      "NODE_ID": 316132059,
      "STOP_ORD": 5,
      "LAT": 35.822809
    },
    {
      "ROUTE_NAME": "5001",
      "ROUTE_ORD": 6,
      "STOP_ID": 305100809,
      "LNG": 127.106087,
      "BRT_SUBID": "0",
      "ROUTE_ID": 305001574,
      "STOP_NAME": "서부신시가지아이파크",
      "SERVICE_ID": 30809,
      "NODE_ID": 305100809,
      "STOP_ORD": 6,
      "LAT": 35.827432
    },
    {
      "ROUTE_NAME": "5001",
      "ROUTE_ORD": 7,
      "STOP_ID": 305101003,
      "LNG": 127.107927,
      "BRT_SUBID": "0",
      "ROUTE_ID": 305001574,
      "STOP_NAME": "홍산로이편한세상",
      "SERVICE_ID": 31002,
      "NODE_ID": 305101003,
      "STOP_ORD": 7,
      "LAT": 35.838523
    },
    {
      "ROUTE_NAME": "5001",
      "ROUTE_ORD": 8,
      "STOP_ID": 306101022,
      "LNG": 127.111248,
      "BRT_SUBID": "0",
      "ROUTE_ID": 305001574,
      "STOP_NAME": "가련산로하가영무예다음",
      "SERVICE_ID": 31021,
      "NODE_ID": 306101022,
      "STOP_ORD": 8,
      "LAT": 35.841532
    },
    {
      "ROUTE_NAME": "5001",
      "ROUTE_ORD": 9,
      "STOP_ID": 306101078,
      "LNG": 127.11554857,
      "BRT_SUBID": "0",
      "ROUTE_ID": 305001574,
      "STOP_NAME": "가련산로.원대한방병원",
      "SERVICE_ID": 31077,
      "NODE_ID": 306101078,
      "STOP_ORD": 9,
      "LAT": 35.84538482
    },
    {
      "ROUTE_NAME": "5001",
      "ROUTE_ORD": 10,
      "STOP_ID": 306101086,
      "LNG": 127.11969439,
      "BRT_SUBID": "0",
      "ROUTE_ID": 305001574,
      "STOP_NAME": "기린대로덕진공원",
      "SERVICE_ID": 31085,
      "NODE_ID": 306101086,
      "STOP_ORD": 10,
      "LAT": 35.84624591
    },
    {
      "ROUTE_NAME": "5001",
      "ROUTE_ORD": 11,
      "STOP_ID": 306101044,
      "LNG": 127.12515768,
      "BRT_SUBID": "0",
      "ROUTE_ID": 305001574,
      "STOP_NAME": "전북대학교.농협앞",
      "SERVICE_ID": 31043,
      "NODE_ID": 306101044,
      "STOP_ORD": 11,
      "LAT": 35.84250102
    },
    {
      "ROUTE_NAME": "5001",
      "ROUTE_ORD": 12,
      "STOP_ID": 305032705,
      "LNG": 127.127663,
      "BRT_SUBID": "0",
      "ROUTE_ID": 305001574,
      "STOP_NAME": "종합경기장.전주푸드",
      "SERVICE_ID": 36639,
      "NODE_ID": 305032705,
      "STOP_ORD": 12,
      "LAT": 35.838618
    },
    {
      "ROUTE_NAME": "5001",
      "ROUTE_ORD": 13,
      "STOP_ID": 306100936,
      "LNG": 127.124605,
      "BRT_SUBID": "0",
      "ROUTE_ID": 305001574,
      "STOP_NAME": "가리내로 백제교",
      "SERVICE_ID": 30936,
      "NODE_ID": 306100936,
      "STOP_ORD": 13,
      "LAT": 35.834991
    },
    {
      "ROUTE_NAME": "5001",
      "ROUTE_ORD": 14,
      "STOP_ID": 306100918,
      "LNG": 127.13054921,
      "BRT_SUBID": "0",
      "ROUTE_ID": 305001574,
      "STOP_NAME": "고속버스터미널.불교회관",
      "SERVICE_ID": 30918,
      "NODE_ID": 306100918,
      "STOP_ORD": 14,
      "LAT": 35.83390745
    },
    {
      "ROUTE_NAME": "5001",
      "ROUTE_ORD": 15,
      "STOP_ID": 306100922,
      "LNG": 127.13353119,
      "BRT_SUBID": "0",
      "ROUTE_ID": 305001574,
      "STOP_NAME": "시외버스터미널",
      "SERVICE_ID": 30922,
      "NODE_ID": 306100922,
      "STOP_ORD": 15,
      "LAT": 35.83411679
    },
    {
      "ROUTE_NAME": "5001",
      "ROUTE_ORD": 16,
      "STOP_ID": 306100915,
      "LNG": 127.136648,
      "BRT_SUBID": "0",
      "ROUTE_ID": 305001574,
      "STOP_NAME": "금암광장.청담한방병원",
      "SERVICE_ID": 30915,
      "NODE_ID": 306100915,
      "STOP_ORD": 16,
      "LAT": 35.833708
    },
    {
      "ROUTE_NAME": "5001",
      "ROUTE_ORD": 17,
      "STOP_ID": 306100851,
      "LNG": 127.139175,
      "BRT_SUBID": "0",
      "ROUTE_ID": 305001574,
      "STOP_NAME": "한국은행.전북청소년상담센터",
      "SERVICE_ID": 30851,
      "NODE_ID": 306100851,
      "STOP_ORD": 17,
      "LAT": 35.830433
    },
    {
      "ROUTE_NAME": "5001",
      "ROUTE_ORD": 18,
      "STOP_ID": 306100743,
      "LNG": 127.14462905,
      "BRT_SUBID": "0",
      "ROUTE_ID": 305001574,
      "STOP_NAME": "중앙시장.중앙성당.방송대",
      "SERVICE_ID": 30743,
      "NODE_ID": 306100743,
      "STOP_ORD": 18,
      "LAT": 35.82397975
    },
    {
      "ROUTE_NAME": "5001",
      "ROUTE_ORD": 19,
      "STOP_ID": 305100675,
      "LNG": 127.14647881,
      "BRT_SUBID": "0",
      "ROUTE_ID": 305001574,
      "STOP_NAME": "외환은행",
      "SERVICE_ID": 30675,
      "NODE_ID": 305100675,
      "STOP_ORD": 19,
      "LAT": 35.81950149
    },
    {
      "ROUTE_NAME": "5001",
      "ROUTE_ORD": 20,
      "STOP_ID": 305100645,
      "LNG": 127.147313,
      "BRT_SUBID": "0",
      "ROUTE_ID": 305001574,
      "STOP_NAME": "팔달로 예술회관",
      "SERVICE_ID": 30645,
      "NODE_ID": 305100645,
      "STOP_ORD": 20,
      "LAT": 35.817028
    },
    {
      "ROUTE_NAME": "5001",
      "ROUTE_ORD": 21,
      "STOP_ID": 305100628,
      "LNG": 127.14699101,
      "BRT_SUBID": "0",
      "ROUTE_ID": 305001574,
      "STOP_NAME": "전라감영.완산경찰서",
      "SERVICE_ID": 30628,
      "NODE_ID": 305100628,
      "STOP_ORD": 21,
      "LAT": 35.81594824
    },
    {
      "ROUTE_NAME": "5001",
      "ROUTE_ORD": 23,
      "STOP_ID": 305100611,
      "LNG": 127.14274571,
      "BRT_SUBID": "0",
      "ROUTE_ID": 305001574,
      "STOP_NAME": "전주시보건소앞",
      "SERVICE_ID": 30611,
      "NODE_ID": 305100611,
      "STOP_ORD": 22,
      "LAT": 35.81515762
    },
    {
      "ROUTE_NAME": "5001",
      "ROUTE_ORD": 25,
      "STOP_ID": 305100568,
      "LNG": 127.13903665,
      "BRT_SUBID": "0",
      "ROUTE_ID": 305001574,
      "STOP_NAME": "완산동시외버스정류소",
      "SERVICE_ID": 30568,
      "NODE_ID": 305100568,
      "STOP_ORD": 23,
      "LAT": 35.81225757
    },
    {
      "ROUTE_NAME": "5001",
      "ROUTE_ORD": 26,
      "STOP_ID": 305100538,
      "LNG": 127.135618,
      "BRT_SUBID": "0",
      "ROUTE_ID": 305001574,
      "STOP_NAME": "용머리고개.완산동주민센터",
      "SERVICE_ID": 30538,
      "NODE_ID": 305100538,
      "STOP_ORD": 24,
      "LAT": 35.808837
    },
    {
      "ROUTE_NAME": "5001",
      "ROUTE_ORD": 28,
      "STOP_ID": 305100525,
      "LNG": 127.130662,
      "BRT_SUBID": "0",
      "ROUTE_ID": 305001574,
      "STOP_NAME": "효자주공3단지",
      "SERVICE_ID": 30525,
      "NODE_ID": 305100525,
      "STOP_ORD": 25,
      "LAT": 35.807223
    },
    {
      "ROUTE_NAME": "5001",
      "ROUTE_ORD": 30,
      "STOP_ID": 305100509,
      "LNG": 127.125855,
      "BRT_SUBID": "0",
      "ROUTE_ID": 305001574,
      "STOP_NAME": "서부시장",
      "SERVICE_ID": 30509,
      "NODE_ID": 305100509,
      "STOP_ORD": 26,
      "LAT": 35.805948
    },
    {
      "ROUTE_NAME": "5001",
      "ROUTE_ORD": 32,
      "STOP_ID": 305100514,
      "LNG": 127.120957,
      "BRT_SUBID": "0",
      "ROUTE_ID": 305001574,
      "STOP_NAME": "효자광장.전주시청소년상담센터",
      "SERVICE_ID": 30514,
      "NODE_ID": 305100514,
      "STOP_ORD": 27,
      "LAT": 35.806287
    },
    {
      "ROUTE_NAME": "5001",
      "ROUTE_ORD": 33,
      "STOP_ID": 305100520,
      "LNG": 127.1175812,
      "BRT_SUBID": "0",
      "ROUTE_ID": 305001574,
      "STOP_NAME": "안행교",
      "SERVICE_ID": 30520,
      "NODE_ID": 305100520,
      "STOP_ORD": 28,
      "LAT": 35.80670585
    },
    {
      "ROUTE_NAME": "5001",
      "ROUTE_ORD": 35,
      "STOP_ID": 305100553,
      "LNG": 127.11475989,
      "BRT_SUBID": "0",
      "ROUTE_ID": 305001574,
      "STOP_NAME": "서전주중",
      "SERVICE_ID": 30553,
      "NODE_ID": 305100553,
      "STOP_ORD": 29,
      "LAT": 35.81107333
    },
    {
      "ROUTE_NAME": "5001",
      "ROUTE_ORD": 36,
      "STOP_ID": 305100576,
      "LNG": 127.11388786,
      "BRT_SUBID": "0",
      "ROUTE_ID": 305001574,
      "STOP_NAME": "거마평로이동교",
      "SERVICE_ID": 30576,
      "NODE_ID": 305100576,
      "STOP_ORD": 30,
      "LAT": 35.81288005
    },
    {
      "ROUTE_NAME": "5001",
      "ROUTE_ORD": 37,
      "STOP_ID": 305100592,
      "LNG": 127.1080203,
      "BRT_SUBID": "0",
      "ROUTE_ID": 305001574,
      "STOP_NAME": "효자SK리더스뷰",
      "SERVICE_ID": 30592,
      "NODE_ID": 305100592,
      "STOP_ORD": 31,
      "LAT": 35.81381547
    },
    {
      "ROUTE_NAME": "5001",
      "ROUTE_ORD": 38,
      "STOP_ID": 305102001,
      "LNG": 127.103754,
      "BRT_SUBID": "0",
      "ROUTE_ID": 305001574,
      "STOP_NAME": "전북선거관리위원회",
      "SERVICE_ID": 32001,
      "NODE_ID": 305102001,
      "STOP_ORD": 32,
      "LAT": 35.813757
    },
    {
      "ROUTE_NAME": "5001",
      "ROUTE_ORD": 39,
      "STOP_ID": 305100591,
      "LNG": 127.09796491,
      "BRT_SUBID": "0",
      "ROUTE_ID": 305001574,
      "STOP_NAME": "호남제일고",
      "SERVICE_ID": 30591,
      "NODE_ID": 305100591,
      "STOP_ORD": 33,
      "LAT": 35.81379234
    },
    {
      "ROUTE_NAME": "5001",
      "ROUTE_ORD": 40,
      "STOP_ID": 305032697,
      "LNG": 127.090235,
      "BRT_SUBID": "0",
      "ROUTE_ID": 305001574,
      "STOP_NAME": "전주대교수연구동",
      "SERVICE_ID": 36631,
      "NODE_ID": 305032697,
      "STOP_ORD": 34,
      "LAT": 35.812482
    },
    {
      "ROUTE_NAME": "5001",
      "ROUTE_ORD": 41,
      "STOP_ID": 305032694,
      "LNG": 127.087494,
      "BRT_SUBID": "0",
      "ROUTE_ID": 305001574,
      "STOP_NAME": "전주대캠퍼스",
      "SERVICE_ID": 36628,
      "NODE_ID": 305032694,
      "STOP_ORD": 35,
      "LAT": 35.81417
    }
  ]
}