{
  "resultList": [
    {
      "ROUTE_NAME": "61",
      "ROUTE_ORD": 1,
      "STOP_ID": 305100650,
      "LNG": 127.091818,
      "BRT_SUBID": "0",
      "ROUTE_ID": 305001120,
      "STOP_NAME": "전주대학교",
      "SERVICE_ID": 30650,
      "NODE_ID": 305100650,
      "STOP_ORD": 1,
      "LAT": 35.81849
    },
    {
      "ROUTE_NAME": "61",
      "ROUTE_ORD": 2,
      "STOP_ID": 305100609,
      "LNG": 127.09452694,
      "BRT_SUBID": "0",
      "ROUTE_ID": 305001120,
      "STOP_NAME": "영생고 전주대사대부고",
      "SERVICE_ID": 30609,
      "NODE_ID": 305100609,
      "STOP_ORD": 2,
      "LAT": 35.81512963
    },
    {
      "ROUTE_NAME": "61",
      "ROUTE_ORD": 3,
      "STOP_ID": 305100584,
      "LNG": 127.09807381,
      "BRT_SUBID": "0",
      "ROUTE_ID": 305001120,
      "STOP_NAME": "호남제일고",
      "SERVICE_ID": 30584,
      "NODE_ID": 305100584,
      "STOP_ORD": 3,
      "LAT": 35.81348304
    },
    {
      "ROUTE_NAME": "61",
      "ROUTE_ORD": 4,
      "STOP_ID": 305100636,
      "LNG": 127.102048,
      "BRT_SUBID": "0",
      "ROUTE_ID": 305001120,
      "STOP_NAME": "보훈지청 롯데마트",
      "SERVICE_ID": 30636,
      "NODE_ID": 305100636,
      "STOP_ORD": 4,
      "LAT": 35.816632
    },
    {
      "ROUTE_NAME": "61",
      "ROUTE_ORD": 5,
      "STOP_ID": 305100659,
      "LNG": 127.1033784,
      "BRT_SUBID": "0",
      "ROUTE_ID": 305001120,
      "STOP_NAME": "유로병원",
      "SERVICE_ID": 30659,
      "NODE_ID": 305100659,
      "STOP_ORD": 5,
      "LAT": 35.8189057
    },
    {
      "ROUTE_NAME": "61",
      "ROUTE_ORD": 6,
      "STOP_ID": 305100712,
      "LNG": 127.106114,
      "BRT_SUBID": "0",
      "ROUTE_ID": 305001120,
      "STOP_NAME": "홍산로전북도청",
      "SERVICE_ID": 30712,
      "NODE_ID": 305100712,
      "STOP_ORD": 6,
      "LAT": 35.821791
    },
    {
      "ROUTE_NAME": "61",
      "ROUTE_ORD": 7,
      "STOP_ID": 305100740,
      "LNG": 127.106093,
      "BRT_SUBID": "0",
      "ROUTE_ID": 305001120,
      "STOP_NAME": "홍산로 경찰청",
      "SERVICE_ID": 30740,
      "NODE_ID": 305100740,
      "STOP_ORD": 7,
      "LAT": 35.823922
    },
    {
      "ROUTE_NAME": "61",
      "ROUTE_ORD": 8,
      "STOP_ID": 305100809,
      "LNG": 127.106087,
      "BRT_SUBID": "0",
      "ROUTE_ID": 305001120,
      "STOP_NAME": "서부신시가지아이파크",
      "SERVICE_ID": 30809,
      "NODE_ID": 305100809,
      "STOP_ORD": 8,
      "LAT": 35.827432
    },
    {
      "ROUTE_NAME": "61",
      "ROUTE_ORD": 9,
      "STOP_ID": 305100886,
      "LNG": 127.103872,
      "BRT_SUBID": "0",
      "ROUTE_ID": 305001120,
      "STOP_NAME": "서곡그린공원",
      "SERVICE_ID": 30886,
      "NODE_ID": 305100886,
      "STOP_ORD": 9,
      "LAT": 35.831973
    },
    {
      "ROUTE_NAME": "61",
      "ROUTE_ORD": 10,
      "STOP_ID": 305100892,
      "LNG": 127.0994101,
      "BRT_SUBID": "0",
      "ROUTE_ID": 305001120,
      "STOP_NAME": "서곡로.서곡현대아파트",
      "SERVICE_ID": 30892,
      "NODE_ID": 305100892,
      "STOP_ORD": 10,
      "LAT": 35.83291087
    },
    {
      "ROUTE_NAME": "61",
      "ROUTE_ORD": 11,
      "STOP_ID": 305100880,
      "LNG": 127.097526,
      "BRT_SUBID": "0",
      "ROUTE_ID": 305001120,
      "STOP_NAME": "서곡주공",
      "SERVICE_ID": 30880,
      "NODE_ID": 305100880,
      "STOP_ORD": 11,
      "LAT": 35.832099
    },
    {
      "ROUTE_NAME": "61",
      "ROUTE_ORD": 12,
      "STOP_ID": 305100951,
      "LNG": 127.098325,
      "BRT_SUBID": "0",
      "ROUTE_ID": 305001120,
      "STOP_NAME": "서곡마을",
      "SERVICE_ID": 30951,
      "NODE_ID": 305100951,
      "STOP_ORD": 12,
      "LAT": 35.835631
    },
    {
      "ROUTE_NAME": "61",
      "ROUTE_ORD": 13,
      "STOP_ID": 305100988,
      "LNG": 127.102171,
      "BRT_SUBID": "0",
      "ROUTE_ID": 305001120,
      "STOP_NAME": "전주세무서.한국환경공단",
      "SERVICE_ID": 30987,
      "NODE_ID": 305100988,
      "STOP_ORD": 13,
      "LAT": 35.83814
    },
    {
      "ROUTE_NAME": "61",
      "ROUTE_ORD": 14,
      "STOP_ID": 305100916,
      "LNG": 127.10994674,
      "BRT_SUBID": "0",
      "ROUTE_ID": 305001120,
      "STOP_NAME": "서신광진아파트",
      "SERVICE_ID": 30916,
      "NODE_ID": 305100916,
      "STOP_ORD": 14,
      "LAT": 35.8337847
    },
    {
      "ROUTE_NAME": "61",
      "ROUTE_ORD": 15,
      "STOP_ID": 305100891,
      "LNG": 127.11198306,
      "BRT_SUBID": "0",
      "ROUTE_ID": 305001120,
      "STOP_NAME": "서신신일아파트",
      "SERVICE_ID": 30891,
      "NODE_ID": 305100891,
      "STOP_ORD": 15,
      "LAT": 35.83289774
    },
    {
      "ROUTE_NAME": "61",
      "ROUTE_ORD": 16,
      "STOP_ID": 305100878,
      "LNG": 127.113887,
      "BRT_SUBID": "0",
      "ROUTE_ID": 305001120,
      "STOP_NAME": "서신제일비사벌아파트",
      "SERVICE_ID": 30878,
      "NODE_ID": 305100878,
      "STOP_ORD": 16,
      "LAT": 35.832086
    },
    {
      "ROUTE_NAME": "61",
      "ROUTE_ORD": 17,
      "STOP_ID": 305100855,
      "LNG": 127.11573814,
      "BRT_SUBID": "0",
      "ROUTE_ID": 305001120,
      "STOP_NAME": "서신동주민센터",
      "SERVICE_ID": 30855,
      "NODE_ID": 305100855,
      "STOP_ORD": 17,
      "LAT": 35.83046736
    },
    {
      "ROUTE_NAME": "61",
      "ROUTE_ORD": 18,
      "STOP_ID": 305100807,
      "LNG": 127.11563285,
      "BRT_SUBID": "0",
      "ROUTE_ID": 305001120,
      "STOP_NAME": "서신신협",
      "SERVICE_ID": 30807,
      "NODE_ID": 305100807,
      "STOP_ORD": 18,
      "LAT": 35.82733207
    },
    {
      "ROUTE_NAME": "61",
      "ROUTE_ORD": 19,
      "STOP_ID": 305100795,
      "LNG": 127.118404,
      "BRT_SUBID": "0",
      "ROUTE_ID": 305001120,
      "STOP_NAME": "서신성당",
      "SERVICE_ID": 30795,
      "NODE_ID": 305100795,
      "STOP_ORD": 19,
      "LAT": 35.826615
    },
    {
      "ROUTE_NAME": "61",
      "ROUTE_ORD": 20,
      "STOP_ID": 305100816,
      "LNG": 127.12148674,
      "BRT_SUBID": "0",
      "ROUTE_ID": 305001120,
      "STOP_NAME": "전용리",
      "SERVICE_ID": 30816,
      "NODE_ID": 305100816,
      "STOP_ORD": 20,
      "LAT": 35.82805427
    },
    {
      "ROUTE_NAME": "61",
      "ROUTE_ORD": 21,
      "STOP_ID": 305100828,
      "LNG": 127.12634262,
      "BRT_SUBID": "0",
      "ROUTE_ID": 305001120,
      "STOP_NAME": "서신초교.롯데아파트",
      "SERVICE_ID": 30828,
      "NODE_ID": 305100828,
      "STOP_ORD": 21,
      "LAT": 35.8289759
    },
    {
      "ROUTE_NAME": "61",
      "ROUTE_ORD": 22,
      "STOP_ID": 306100823,
      "LNG": 127.13091021,
      "BRT_SUBID": "0",
      "ROUTE_ID": 305001120,
      "STOP_NAME": "진북현대아파트.북전주세무서",
      "SERVICE_ID": 30823,
      "NODE_ID": 306100823,
      "STOP_ORD": 22,
      "LAT": 35.82873738
    },
    {
      "ROUTE_NAME": "61",
      "ROUTE_ORD": 23,
      "STOP_ID": 306100872,
      "LNG": 127.13045206,
      "BRT_SUBID": "0",
      "ROUTE_ID": 305001120,
      "STOP_NAME": "숲정이성당",
      "SERVICE_ID": 30872,
      "NODE_ID": 306100872,
      "STOP_ORD": 23,
      "LAT": 35.83190592
    },
    {
      "ROUTE_NAME": "61",
      "ROUTE_ORD": 24,
      "STOP_ID": 306100882,
      "LNG": 127.132695,
      "BRT_SUBID": "0",
      "ROUTE_ID": 305001120,
      "STOP_NAME": "진북우성아파트후문",
      "SERVICE_ID": 30882,
      "NODE_ID": 306100882,
      "STOP_ORD": 24,
      "LAT": 35.832243
    },
    {
      "ROUTE_NAME": "61",
      "ROUTE_ORD": 25,
      "STOP_ID": 306100859,
      "LNG": 127.13562582,
      "BRT_SUBID": "0",
      "ROUTE_ID": 305001120,
      "STOP_NAME": "진북우성아파트.전주고용복지센터",
      "SERVICE_ID": 30859,
      "NODE_ID": 306100859,
      "STOP_ORD": 25,
      "LAT": 35.83101554
    },
    {
      "ROUTE_NAME": "61",
      "ROUTE_ORD": 26,
      "STOP_ID": 306100791,
      "LNG": 127.136627,
      "BRT_SUBID": "0",
      "ROUTE_ID": 305001120,
      "STOP_NAME": "진북동양아파트",
      "SERVICE_ID": 30791,
      "NODE_ID": 306100791,
      "STOP_ORD": 26,
      "LAT": 35.826636
    },
    {
      "ROUTE_NAME": "61",
      "ROUTE_ORD": 27,
      "STOP_ID": 305100782,
      "LNG": 127.14030958,
      "BRT_SUBID": "0",
      "ROUTE_ID": 305001120,
      "STOP_NAME": "한국방송통신대",
      "SERVICE_ID": 30782,
      "NODE_ID": 305100782,
      "STOP_ORD": 27,
      "LAT": 35.82597915
    },
    {
      "ROUTE_NAME": "61",
      "ROUTE_ORD": 28,
      "STOP_ID": 306100743,
      "LNG": 127.14462905,
      "BRT_SUBID": "0",
      "ROUTE_ID": 305001120,
      "STOP_NAME": "중앙시장.중앙성당.방송대",
      "SERVICE_ID": 30743,
      "NODE_ID": 306100743,
      "STOP_ORD": 28,
      "LAT": 35.82397975
    },
    {
      "ROUTE_NAME": "61",
      "ROUTE_ORD": 29,
      "STOP_ID": 305100675,
      "LNG": 127.14647881,
      "BRT_SUBID": "0",
      "ROUTE_ID": 305001120,
      "STOP_NAME": "외환은행",
      "SERVICE_ID": 30675,
      "NODE_ID": 305100675,
      "STOP_ORD": 29,
      "LAT": 35.81950149
    },
    {
      "ROUTE_NAME": "61",
      "ROUTE_ORD": 30,
      "STOP_ID": 305100601,
      "LNG": 127.14816867,
      "BRT_SUBID": "0",
      "ROUTE_ID": 305001120,
      "STOP_NAME": "전동성당.한옥마을",
      "SERVICE_ID": 30601,
      "NODE_ID": 305100601,
      "STOP_ORD": 30,
      "LAT": 35.81459568
    },
    {
      "ROUTE_NAME": "61",
      "ROUTE_ORD": 31,
      "STOP_ID": 305100589,
      "LNG": 127.14712199,
      "BRT_SUBID": "0",
      "ROUTE_ID": 305001120,
      "STOP_NAME": "풍남문",
      "SERVICE_ID": 30589,
      "NODE_ID": 305100589,
      "STOP_ORD": 31,
      "LAT": 35.81349842
    },
    {
      "ROUTE_NAME": "61",
      "ROUTE_ORD": 32,
      "STOP_ID": 305100605,
      "LNG": 127.14291685,
      "BRT_SUBID": "0",
      "ROUTE_ID": 305001120,
      "STOP_NAME": "전주시보건소",
      "SERVICE_ID": 30605,
      "NODE_ID": 305100605,
      "STOP_ORD": 32,
      "LAT": 35.81475211
    },
    {
      "ROUTE_NAME": "61",
      "ROUTE_ORD": 33,
      "STOP_ID": 305100568,
      "LNG": 127.13903665,
      "BRT_SUBID": "0",
      "ROUTE_ID": 305001120,
      "STOP_NAME": "완산동시외버스정류소",
      "SERVICE_ID": 30568,
      "NODE_ID": 305100568,
      "STOP_ORD": 33,
      "LAT": 35.81225757
    },
    {
      "ROUTE_NAME": "61",
      "ROUTE_ORD": 34,
      "STOP_ID": 305100538,
      "LNG": 127.135618,
      "BRT_SUBID": "0",
      "ROUTE_ID": 305001120,
      "STOP_NAME": "용머리고개.완산동주민센터",
      "SERVICE_ID": 30538,
      "NODE_ID": 305100538,
      "STOP_ORD": 34,
      "LAT": 35.808837
    },
    {
      "ROUTE_NAME": "61",
      "ROUTE_ORD": 35,
      "STOP_ID": 305100525,
      "LNG": 127.130662,
      "BRT_SUBID": "0",
      "ROUTE_ID": 305001120,
      "STOP_NAME": "효자주공3단지",
      "SERVICE_ID": 30525,
      "NODE_ID": 305100525,
      "STOP_ORD": 35,
      "LAT": 35.807223
    },
    {
      "ROUTE_NAME": "61",
      "ROUTE_ORD": 36,
      "STOP_ID": 305100509,
      "LNG": 127.125855,
      "BRT_SUBID": "0",
      "ROUTE_ID": 305001120,
      "STOP_NAME": "서부시장",
      "SERVICE_ID": 30509,
      "NODE_ID": 305100509,
      "STOP_ORD": 36,
      "LAT": 35.805948
    },
    {
      "ROUTE_NAME": "61",
      "ROUTE_ORD": 37,
      "STOP_ID": 305100514,
      "LNG": 127.120957,
      "BRT_SUBID": "0",
      "ROUTE_ID": 305001120,
      "STOP_NAME": "효자광장.전주시청소년상담센터",
      "SERVICE_ID": 30514,
      "NODE_ID": 305100514,
      "STOP_ORD": 37,
      "LAT": 35.806287
    },
    {
      "ROUTE_NAME": "61",
      "ROUTE_ORD": 38,
      "STOP_ID": 305100520,
      "LNG": 127.1175812,
      "BRT_SUBID": "0",
      "ROUTE_ID": 305001120,
      "STOP_NAME": "안행교",
      "SERVICE_ID": 30520,
      "NODE_ID": 305100520,
      "STOP_ORD": 38,
      "LAT": 35.80670585
    },
    {
      "ROUTE_NAME": "61",
      "ROUTE_ORD": 39,
      "STOP_ID": 305100507,
      "LNG": 127.11285154,
      "BRT_SUBID": "0",
      "ROUTE_ID": 305001120,
      "STOP_NAME": "효자롯데아파트",
      "SERVICE_ID": 30507,
      "NODE_ID": 305100507,
      "STOP_ORD": 39,
      "LAT": 35.80587545
    },
    {
      "ROUTE_NAME": "61",
      "ROUTE_ORD": 40,
      "STOP_ID": 305100488,
      "LNG": 127.107847,
      "BRT_SUBID": "0",
      "ROUTE_ID": 305001120,
      "STOP_NAME": "우전초교",
      "SERVICE_ID": 30488,
      "NODE_ID": 305100488,
      "STOP_ORD": 40,
      "LAT": 35.804469
    },
    {
      "ROUTE_NAME": "61",
      "ROUTE_ORD": 41,
      "STOP_ID": 305100519,
      "LNG": 127.1037249,
      "BRT_SUBID": "0",
      "ROUTE_ID": 305001120,
      "STOP_NAME": "휴먼시아6단지.LH전북지역본부",
      "SERVICE_ID": 30519,
      "NODE_ID": 305100519,
      "STOP_ORD": 41,
      "LAT": 35.8062129
    },
    {
      "ROUTE_NAME": "61",
      "ROUTE_ORD": 42,
      "STOP_ID": 305100544,
      "LNG": 127.10149,
      "BRT_SUBID": "0",
      "ROUTE_ID": 305001120,
      "STOP_NAME": "효자휴먼시아 3단지",
      "SERVICE_ID": 30544,
      "NODE_ID": 305100544,
      "STOP_ORD": 42,
      "LAT": 35.809224
    },
    {
      "ROUTE_NAME": "61",
      "ROUTE_ORD": 43,
      "STOP_ID": 305100536,
      "LNG": 127.096614,
      "BRT_SUBID": "0",
      "ROUTE_ID": 305001120,
      "STOP_NAME": "효자휴먼시아 1단지",
      "SERVICE_ID": 30536,
      "NODE_ID": 305100536,
      "STOP_ORD": 43,
      "LAT": 35.809054
    },
    {
      "ROUTE_NAME": "61",
      "ROUTE_ORD": 44,
      "STOP_ID": 305100527,
      "LNG": 127.09383808,
      "BRT_SUBID": "0",
      "ROUTE_ID": 305001120,
      "STOP_NAME": "비전대학교",
      "SERVICE_ID": 30527,
      "NODE_ID": 305100527,
      "STOP_ORD": 44,
      "LAT": 35.80780062
    }
  ]
}