{
  "resultList": [
    {
      "ROUTE_NAME": "82-1",
      "ROUTE_ORD": 1,
      "STOP_ID": 312101034,
      "LNG": 127.23973606,
      "BRT_SUBID": "A",
      "ROUTE_ID": 305001726,
      "STOP_NAME": "상망표",
      "SERVICE_ID": 31033,
      "NODE_ID": 312101034,
      "STOP_ORD": 1,
      "LAT": 35.84110862
    },
    {
      "ROUTE_NAME": "82-1",
      "ROUTE_ORD": 2,
      "STOP_ID": 312101128,
      "LNG": 127.23912886,
      "BRT_SUBID": "A",
      "ROUTE_ID": 305001726,
      "STOP_NAME": "하망표",
      "SERVICE_ID": 31127,
      "NODE_ID": 312101128,
      "STOP_ORD": 2,
      "LAT": 35.85016317
    },
    {
      "ROUTE_NAME": "82-1",
      "ROUTE_ORD": 3,
      "STOP_ID": 312101218,
      "LNG": 127.23316474,
      "BRT_SUBID": "A",
      "ROUTE_ID": 305001726,
      "STOP_NAME": "소양",
      "SERVICE_ID": 31217,
      "NODE_ID": 312101218,
      "STOP_ORD": 3,
      "LAT": 35.85581764
    },
    {
      "ROUTE_NAME": "82-1",
      "ROUTE_ORD": 4,
      "STOP_ID": 312101196,
      "LNG": 127.2291111,
      "BRT_SUBID": "A",
      "ROUTE_ID": 305001726,
      "STOP_NAME": "소양119지역대",
      "SERVICE_ID": 31195,
      "NODE_ID": 312101196,
      "STOP_ORD": 4,
      "LAT": 35.85458355
    },
    {
      "ROUTE_NAME": "82-1",
      "ROUTE_ORD": 5,
      "STOP_ID": 312101171,
      "LNG": 127.22516257,
      "BRT_SUBID": "A",
      "ROUTE_ID": 305001726,
      "STOP_NAME": "소양행정복지센터",
      "SERVICE_ID": 31170,
      "NODE_ID": 312101171,
      "STOP_ORD": 5,
      "LAT": 35.85349548
    },
    {
      "ROUTE_NAME": "82-1",
      "ROUTE_ORD": 6,
      "STOP_ID": 312101195,
      "LNG": 127.22892691,
      "BRT_SUBID": "A",
      "ROUTE_ID": 305001726,
      "STOP_NAME": "소양119지역대",
      "SERVICE_ID": 31194,
      "NODE_ID": 312101195,
      "STOP_ORD": 6,
      "LAT": 35.85441152
    },
    {
      "ROUTE_NAME": "82-1",
      "ROUTE_ORD": 7,
      "STOP_ID": 312101216,
      "LNG": 127.23294515,
      "BRT_SUBID": "A",
      "ROUTE_ID": 305001726,
      "STOP_NAME": "소양",
      "SERVICE_ID": 31215,
      "NODE_ID": 312101216,
      "STOP_ORD": 7,
      "LAT": 35.85562696
    },
    {
      "ROUTE_NAME": "82-1",
      "ROUTE_ORD": 8,
      "STOP_ID": 312101277,
      "LNG": 127.23972769,
      "BRT_SUBID": "A",
      "ROUTE_ID": 305001726,
      "STOP_NAME": "인덕마을입구",
      "SERVICE_ID": 31276,
      "NODE_ID": 312101277,
      "STOP_ORD": 8,
      "LAT": 35.86026988
    },
    {
      "ROUTE_NAME": "82-1",
      "ROUTE_ORD": 9,
      "STOP_ID": 312101285,
      "LNG": 127.24230608,
      "BRT_SUBID": "A",
      "ROUTE_ID": 305001726,
      "STOP_NAME": "용연마을",
      "SERVICE_ID": 31284,
      "NODE_ID": 312101285,
      "STOP_ORD": 9,
      "LAT": 35.8610509
    },
    {
      "ROUTE_NAME": "82-1",
      "ROUTE_ORD": 10,
      "STOP_ID": 312101328,
      "LNG": 127.24726245,
      "BRT_SUBID": "A",
      "ROUTE_ID": 305001726,
      "STOP_NAME": "전북체육고 마수리",
      "SERVICE_ID": 31327,
      "NODE_ID": 312101328,
      "STOP_ORD": 10,
      "LAT": 35.86489788
    },
    {
      "ROUTE_NAME": "82-1",
      "ROUTE_ORD": 11,
      "STOP_ID": 305032513,
      "LNG": 127.2494756,
      "BRT_SUBID": "A",
      "ROUTE_ID": 305001726,
      "STOP_NAME": "봉덕교삼거리",
      "SERVICE_ID": 36447,
      "NODE_ID": 305032513,
      "STOP_ORD": 11,
      "LAT": 35.8678617
    },
    {
      "ROUTE_NAME": "82-1",
      "ROUTE_ORD": 12,
      "STOP_ID": 312101388,
      "LNG": 127.24861103,
      "BRT_SUBID": "A",
      "ROUTE_ID": 305001726,
      "STOP_NAME": "마수마을",
      "SERVICE_ID": 31387,
      "NODE_ID": 312101388,
      "STOP_ORD": 12,
      "LAT": 35.86960469
    },
    {
      "ROUTE_NAME": "82-1",
      "ROUTE_ORD": 13,
      "STOP_ID": 312101432,
      "LNG": 127.246301,
      "BRT_SUBID": "A",
      "ROUTE_ID": 305001726,
      "STOP_NAME": "전북교통문화연수원.문화마을",
      "SERVICE_ID": 31431,
      "NODE_ID": 312101432,
      "STOP_ORD": 13,
      "LAT": 35.87366
    },
    {
      "ROUTE_NAME": "82-1",
      "ROUTE_ORD": 14,
      "STOP_ID": 305032352,
      "LNG": 127.24389282,
      "BRT_SUBID": "A",
      "ROUTE_ID": 305001726,
      "STOP_NAME": "대흥리",
      "SERVICE_ID": 36246,
      "NODE_ID": 305032352,
      "STOP_ORD": 14,
      "LAT": 35.87932697
    },
    {
      "ROUTE_NAME": "82-1",
      "ROUTE_ORD": 15,
      "STOP_ID": 312101522,
      "LNG": 127.24330481,
      "BRT_SUBID": "A",
      "ROUTE_ID": 305001726,
      "STOP_NAME": "송광사",
      "SERVICE_ID": 31521,
      "NODE_ID": 312101522,
      "STOP_ORD": 15,
      "LAT": 35.88259294
    },
    {
      "ROUTE_NAME": "82-1",
      "ROUTE_ORD": 16,
      "STOP_ID": 312101525,
      "LNG": 127.24340162,
      "BRT_SUBID": "A",
      "ROUTE_ID": 305001726,
      "STOP_NAME": "송광사.송광초교",
      "SERVICE_ID": 31524,
      "NODE_ID": 312101525,
      "STOP_ORD": 16,
      "LAT": 35.88349383
    },
    {
      "ROUTE_NAME": "82-1",
      "ROUTE_ORD": 17,
      "STOP_ID": 312102003,
      "LNG": 127.2434009,
      "BRT_SUBID": "A",
      "ROUTE_ID": 305001726,
      "STOP_NAME": "송광마을",
      "SERVICE_ID": 32003,
      "NODE_ID": 312102003,
      "STOP_ORD": 17,
      "LAT": 35.8868534
    },
    {
      "ROUTE_NAME": "82-1",
      "ROUTE_ORD": 18,
      "STOP_ID": 312101592,
      "LNG": 127.24278324,
      "BRT_SUBID": "A",
      "ROUTE_ID": 305001726,
      "STOP_NAME": "송광정심원",
      "SERVICE_ID": 31591,
      "NODE_ID": 312101592,
      "STOP_ORD": 18,
      "LAT": 35.89192014
    },
    {
      "ROUTE_NAME": "82-1",
      "ROUTE_ORD": 19,
      "STOP_ID": 305032349,
      "LNG": 127.2419025,
      "BRT_SUBID": "A",
      "ROUTE_ID": 305001726,
      "STOP_NAME": "백운암마을",
      "SERVICE_ID": 36243,
      "NODE_ID": 305032349,
      "STOP_ORD": 19,
      "LAT": 35.895453
    },
    {
      "ROUTE_NAME": "82-1",
      "ROUTE_ORD": 20,
      "STOP_ID": 312101633,
      "LNG": 127.24027894,
      "BRT_SUBID": "A",
      "ROUTE_ID": 305001726,
      "STOP_NAME": "오성리",
      "SERVICE_ID": 31632,
      "NODE_ID": 312101633,
      "STOP_ORD": 20,
      "LAT": 35.90157471
    },
    {
      "ROUTE_NAME": "82-1",
      "ROUTE_ORD": 21,
      "STOP_ID": 305032477,
      "LNG": 127.2444702,
      "BRT_SUBID": "A",
      "ROUTE_ID": 305001726,
      "STOP_NAME": "오성풍류학교",
      "SERVICE_ID": 36411,
      "NODE_ID": 305032477,
      "STOP_ORD": 21,
      "LAT": 35.9043366
    },
    {
      "ROUTE_NAME": "82-1",
      "ROUTE_ORD": 22,
      "STOP_ID": 312032224,
      "LNG": 127.25240538,
      "BRT_SUBID": "A",
      "ROUTE_ID": 305001726,
      "STOP_NAME": "위봉산성",
      "SERVICE_ID": 32224,
      "NODE_ID": 312032224,
      "STOP_ORD": 22,
      "LAT": 35.90476828
    },
    {
      "ROUTE_NAME": "82-1",
      "ROUTE_ORD": 23,
      "STOP_ID": 312101645,
      "LNG": 127.25574573,
      "BRT_SUBID": "A",
      "ROUTE_ID": 305001726,
      "STOP_NAME": "위봉마을",
      "SERVICE_ID": 31644,
      "NODE_ID": 312101645,
      "STOP_ORD": 23,
      "LAT": 35.90537429
    },
    {
      "ROUTE_NAME": "82-1",
      "ROUTE_ORD": 24,
      "STOP_ID": 312101731,
      "LNG": 127.2698059,
      "BRT_SUBID": "A",
      "ROUTE_ID": 305001726,
      "STOP_NAME": "지향마을",
      "SERVICE_ID": 31730,
      "NODE_ID": 312101731,
      "STOP_ORD": 24,
      "LAT": 35.9204373
    },
    {
      "ROUTE_NAME": "82-1",
      "ROUTE_ORD": 25,
      "STOP_ID": 312101993,
      "LNG": 127.27174631,
      "BRT_SUBID": "A",
      "ROUTE_ID": 305001726,
      "STOP_NAME": "입석마을",
      "SERVICE_ID": 31992,
      "NODE_ID": 312101993,
      "STOP_ORD": 25,
      "LAT": 35.92534786
    },
    {
      "ROUTE_NAME": "82-1",
      "ROUTE_ORD": 26,
      "STOP_ID": 312032329,
      "LNG": 127.27055365,
      "BRT_SUBID": "A",
      "ROUTE_ID": 305001726,
      "STOP_NAME": "수만마을",
      "SERVICE_ID": 32329,
      "NODE_ID": 312032329,
      "STOP_ORD": 26,
      "LAT": 35.93059224
    },
    {
      "ROUTE_NAME": "82-1",
      "ROUTE_ORD": 27,
      "STOP_ID": 305032347,
      "LNG": 127.2688715,
      "BRT_SUBID": "A",
      "ROUTE_ID": 305001726,
      "STOP_NAME": "단지",
      "SERVICE_ID": 36241,
      "NODE_ID": 305032347,
      "STOP_ORD": 27,
      "LAT": 35.9340741
    },
    {
      "ROUTE_NAME": "82-1",
      "ROUTE_ORD": 28,
      "STOP_ID": 312101842,
      "LNG": 127.26238571,
      "BRT_SUBID": "A",
      "ROUTE_ID": 305001726,
      "STOP_NAME": "앞멀",
      "SERVICE_ID": 31841,
      "NODE_ID": 312101842,
      "STOP_ORD": 28,
      "LAT": 35.94220196
    }
  ]
}