{
  "resultList": [
    {
      "ROUTE_NAME": "2002",
      "ROUTE_ORD": 1,
      "STOP_ID": 305132105,
      "LNG": 127.1226872,
      "BRT_SUBID": "0",
      "ROUTE_ID": 305001762,
      "STOP_NAME": "평화동종점",
      "SERVICE_ID": 32105,
      "NODE_ID": 305132105,
      "STOP_ORD": 1,
      "LAT": 35.77802464
    },
    {
      "ROUTE_NAME": "2002",
      "ROUTE_ORD": 2,
      "STOP_ID": 305132106,
      "LNG": 127.1279211,
      "BRT_SUBID": "0",
      "ROUTE_ID": 305001762,
      "STOP_NAME": "문정마을",
      "SERVICE_ID": 32106,
      "NODE_ID": 305132106,
      "STOP_ORD": 2,
      "LAT": 35.77781936
    },
    {
      "ROUTE_NAME": "2002",
      "ROUTE_ORD": 3,
      "STOP_ID": 305100279,
      "LNG": 127.129321,
      "BRT_SUBID": "0",
      "ROUTE_ID": 305001762,
      "STOP_NAME": "전주교도소",
      "SERVICE_ID": 30279,
      "NODE_ID": 305100279,
      "STOP_ORD": 3,
      "LAT": 35.779327
    },
    {
      "ROUTE_NAME": "2002",
      "ROUTE_ORD": 4,
      "STOP_ID": 305100293,
      "LNG": 127.12998758,
      "BRT_SUBID": "0",
      "ROUTE_ID": 305001762,
      "STOP_NAME": "평화그린1차아파트",
      "SERVICE_ID": 30293,
      "NODE_ID": 305100293,
      "STOP_ORD": 4,
      "LAT": 35.78420517
    },
    {
      "ROUTE_NAME": "2002",
      "ROUTE_ORD": 5,
      "STOP_ID": 305100302,
      "LNG": 127.129701,
      "BRT_SUBID": "0",
      "ROUTE_ID": 305001762,
      "STOP_NAME": "평화동도미소드림아파트",
      "SERVICE_ID": 30302,
      "NODE_ID": 305100302,
      "STOP_ORD": 5,
      "LAT": 35.785898
    },
    {
      "ROUTE_NAME": "2002",
      "ROUTE_ORD": 6,
      "STOP_ID": 305100314,
      "LNG": 127.13073783,
      "BRT_SUBID": "0",
      "ROUTE_ID": 305001762,
      "STOP_NAME": "평화삼성강남아파트",
      "SERVICE_ID": 30314,
      "NODE_ID": 305100314,
      "STOP_ORD": 6,
      "LAT": 35.78844676
    },
    {
      "ROUTE_NAME": "2002",
      "ROUTE_ORD": 7,
      "STOP_ID": 305100335,
      "LNG": 127.13177488,
      "BRT_SUBID": "0",
      "ROUTE_ID": 305001762,
      "STOP_NAME": "주공4단지.꽃밭정이아파트",
      "SERVICE_ID": 30335,
      "NODE_ID": 305100335,
      "STOP_ORD": 7,
      "LAT": 35.79175305
    },
    {
      "ROUTE_NAME": "2002",
      "ROUTE_ORD": 8,
      "STOP_ID": 305100348,
      "LNG": 127.13225296,
      "BRT_SUBID": "0",
      "ROUTE_ID": 305001762,
      "STOP_NAME": "평화코오롱아파트",
      "SERVICE_ID": 30348,
      "NODE_ID": 305100348,
      "STOP_ORD": 8,
      "LAT": 35.79356814
    },
    {
      "ROUTE_NAME": "2002",
      "ROUTE_ORD": 9,
      "STOP_ID": 305100396,
      "LNG": 127.131091,
      "BRT_SUBID": "0",
      "ROUTE_ID": 305001762,
      "STOP_NAME": "삼천신일아파트",
      "SERVICE_ID": 30396,
      "NODE_ID": 305100396,
      "STOP_ORD": 9,
      "LAT": 35.797355
    },
    {
      "ROUTE_NAME": "2002",
      "ROUTE_ORD": 10,
      "STOP_ID": 305100459,
      "LNG": 127.126901,
      "BRT_SUBID": "0",
      "ROUTE_ID": 305001762,
      "STOP_NAME": "효자광진공작아파트",
      "SERVICE_ID": 30459,
      "NODE_ID": 305100459,
      "STOP_ORD": 10,
      "LAT": 35.80141
    },
    {
      "ROUTE_NAME": "2002",
      "ROUTE_ORD": 11,
      "STOP_ID": 305100482,
      "LNG": 127.124316,
      "BRT_SUBID": "0",
      "ROUTE_ID": 305001762,
      "STOP_NAME": "효자광진맨션아파트",
      "SERVICE_ID": 30482,
      "NODE_ID": 305100482,
      "STOP_ORD": 11,
      "LAT": 35.803916
    },
    {
      "ROUTE_NAME": "2002",
      "ROUTE_ORD": 12,
      "STOP_ID": 305100533,
      "LNG": 127.123393,
      "BRT_SUBID": "0",
      "ROUTE_ID": 305001762,
      "STOP_NAME": "효자남양황실아파트",
      "SERVICE_ID": 30533,
      "NODE_ID": 305100533,
      "STOP_ORD": 12,
      "LAT": 35.808845
    },
    {
      "ROUTE_NAME": "2002",
      "ROUTE_ORD": 13,
      "STOP_ID": 305100595,
      "LNG": 127.123227,
      "BRT_SUBID": "0",
      "ROUTE_ID": 305001762,
      "STOP_NAME": "한마음병원.전주병원",
      "SERVICE_ID": 30595,
      "NODE_ID": 305100595,
      "STOP_ORD": 13,
      "LAT": 35.814087
    },
    {
      "ROUTE_NAME": "2002",
      "ROUTE_ORD": 14,
      "STOP_ID": 305100647,
      "LNG": 127.123151,
      "BRT_SUBID": "0",
      "ROUTE_ID": 305001762,
      "STOP_NAME": "근영여고",
      "SERVICE_ID": 30647,
      "NODE_ID": 305100647,
      "STOP_ORD": 14,
      "LAT": 35.817515
    },
    {
      "ROUTE_NAME": "2002",
      "ROUTE_ORD": 15,
      "STOP_ID": 305100697,
      "LNG": 127.123033,
      "BRT_SUBID": "0",
      "ROUTE_ID": 305001762,
      "STOP_NAME": "화산체육관.전주시립도서관꽃심",
      "SERVICE_ID": 30697,
      "NODE_ID": 305100697,
      "STOP_ORD": 15,
      "LAT": 35.820856
    },
    {
      "ROUTE_NAME": "2002",
      "ROUTE_ORD": 16,
      "STOP_ID": 305100818,
      "LNG": 127.121875,
      "BRT_SUBID": "0",
      "ROUTE_ID": 305001762,
      "STOP_NAME": "전용리",
      "SERVICE_ID": 30818,
      "NODE_ID": 305100818,
      "STOP_ORD": 16,
      "LAT": 35.82835
    },
    {
      "ROUTE_NAME": "2002",
      "ROUTE_ORD": 17,
      "STOP_ID": 305100803,
      "LNG": 127.118903,
      "BRT_SUBID": "0",
      "ROUTE_ID": 305001762,
      "STOP_NAME": "서신성당",
      "SERVICE_ID": 30803,
      "NODE_ID": 305100803,
      "STOP_ORD": 17,
      "LAT": 35.82708
    },
    {
      "ROUTE_NAME": "2002",
      "ROUTE_ORD": 18,
      "STOP_ID": 305100813,
      "LNG": 127.115947,
      "BRT_SUBID": "0",
      "ROUTE_ID": 305001762,
      "STOP_NAME": "서신신협",
      "SERVICE_ID": 30813,
      "NODE_ID": 305100813,
      "STOP_ORD": 18,
      "LAT": 35.827569
    },
    {
      "ROUTE_NAME": "2002",
      "ROUTE_ORD": 19,
      "STOP_ID": 305100860,
      "LNG": 127.115958,
      "BRT_SUBID": "0",
      "ROUTE_ID": 305001762,
      "STOP_NAME": "서신동주민센터",
      "SERVICE_ID": 30860,
      "NODE_ID": 305100860,
      "STOP_ORD": 19,
      "LAT": 35.830831
    },
    {
      "ROUTE_NAME": "2002",
      "ROUTE_ORD": 20,
      "STOP_ID": 305100876,
      "LNG": 127.11761223,
      "BRT_SUBID": "0",
      "ROUTE_ID": 305001762,
      "STOP_NAME": "서신현대.동아아파트",
      "SERVICE_ID": 30876,
      "NODE_ID": 305100876,
      "STOP_ORD": 20,
      "LAT": 35.83213953
    },
    {
      "ROUTE_NAME": "2002",
      "ROUTE_ORD": 21,
      "STOP_ID": 305100877,
      "LNG": 127.12083358,
      "BRT_SUBID": "0",
      "ROUTE_ID": 305001762,
      "STOP_NAME": "이마트",
      "SERVICE_ID": 30877,
      "NODE_ID": 305100877,
      "STOP_ORD": 21,
      "LAT": 35.83209104
    },
    {
      "ROUTE_NAME": "2002",
      "ROUTE_ORD": 22,
      "STOP_ID": 306100961,
      "LNG": 127.12520761,
      "BRT_SUBID": "0",
      "ROUTE_ID": 305001762,
      "STOP_NAME": "종합경기장",
      "SERVICE_ID": 30961,
      "NODE_ID": 306100961,
      "STOP_ORD": 22,
      "LAT": 35.83627383
    },
    {
      "ROUTE_NAME": "2002",
      "ROUTE_ORD": 23,
      "STOP_ID": 306101017,
      "LNG": 127.13143203,
      "BRT_SUBID": "0",
      "ROUTE_ID": 305001762,
      "STOP_NAME": "전북은행본점",
      "SERVICE_ID": 31016,
      "NODE_ID": 306101017,
      "STOP_ORD": 23,
      "LAT": 35.84009301
    },
    {
      "ROUTE_NAME": "2002",
      "ROUTE_ORD": 24,
      "STOP_ID": 306101020,
      "LNG": 127.134004,
      "BRT_SUBID": "0",
      "ROUTE_ID": 305001762,
      "STOP_NAME": "전주덕진소방서",
      "SERVICE_ID": 31019,
      "NODE_ID": 306101020,
      "STOP_ORD": 24,
      "LAT": 35.840953
    },
    {
      "ROUTE_NAME": "2002",
      "ROUTE_ORD": 25,
      "STOP_ID": 306101046,
      "LNG": 127.139942,
      "BRT_SUBID": "0",
      "ROUTE_ID": 305001762,
      "STOP_NAME": "사대부고사거리",
      "SERVICE_ID": 31045,
      "NODE_ID": 306101046,
      "STOP_ORD": 25,
      "LAT": 35.842693
    },
    {
      "ROUTE_NAME": "2002",
      "ROUTE_ORD": 26,
      "STOP_ID": 306101056,
      "LNG": 127.142764,
      "BRT_SUBID": "0",
      "ROUTE_ID": 305001762,
      "STOP_NAME": "전북대학병원입구",
      "SERVICE_ID": 31055,
      "NODE_ID": 306101056,
      "STOP_ORD": 26,
      "LAT": 35.843528
    },
    {
      "ROUTE_NAME": "2002",
      "ROUTE_ORD": 27,
      "STOP_ID": 306101069,
      "LNG": 127.14664986,
      "BRT_SUBID": "0",
      "ROUTE_ID": 305001762,
      "STOP_NAME": "동전주우체국",
      "SERVICE_ID": 31068,
      "NODE_ID": 306101069,
      "STOP_ORD": 27,
      "LAT": 35.84463013
    },
    {
      "ROUTE_NAME": "2002",
      "ROUTE_ORD": 28,
      "STOP_ID": 306101081,
      "LNG": 127.149528,
      "BRT_SUBID": "0",
      "ROUTE_ID": 305001762,
      "STOP_NAME": "새마을금고.한국국토정보공사",
      "SERVICE_ID": 31080,
      "NODE_ID": 306101081,
      "STOP_ORD": 28,
      "LAT": 35.845554
    },
    {
      "ROUTE_NAME": "2002",
      "ROUTE_ORD": 29,
      "STOP_ID": 306101094,
      "LNG": 127.1578906,
      "BRT_SUBID": "0",
      "ROUTE_ID": 305001762,
      "STOP_NAME": "전주역첫마중길",
      "SERVICE_ID": 31093,
      "NODE_ID": 306101094,
      "STOP_ORD": 29,
      "LAT": 35.8483197
    },
    {
      "ROUTE_NAME": "2002",
      "ROUTE_ORD": 30,
      "STOP_ID": 306101130,
      "LNG": 127.160103,
      "BRT_SUBID": "0",
      "ROUTE_ID": 305001762,
      "STOP_NAME": "동부대로전주역",
      "SERVICE_ID": 31129,
      "NODE_ID": 306101130,
      "STOP_ORD": 30,
      "LAT": 35.85042866
    },
    {
      "ROUTE_NAME": "2002",
      "ROUTE_ORD": 31,
      "STOP_ID": 306101186,
      "LNG": 127.15818391,
      "BRT_SUBID": "0",
      "ROUTE_ID": 305001762,
      "STOP_NAME": "기린중",
      "SERVICE_ID": 31185,
      "NODE_ID": 306101186,
      "STOP_ORD": 31,
      "LAT": 35.85423569
    },
    {
      "ROUTE_NAME": "2002",
      "ROUTE_ORD": 32,
      "STOP_ID": 306101247,
      "LNG": 127.15565437,
      "BRT_SUBID": "0",
      "ROUTE_ID": 305001762,
      "STOP_NAME": "호성동신아파트",
      "SERVICE_ID": 31246,
      "NODE_ID": 306101247,
      "STOP_ORD": 32,
      "LAT": 35.85831731
    },
    {
      "ROUTE_NAME": "2002",
      "ROUTE_ORD": 33,
      "STOP_ID": 306101279,
      "LNG": 127.153358,
      "BRT_SUBID": "0",
      "ROUTE_ID": 305001762,
      "STOP_NAME": "호성동아아파트",
      "SERVICE_ID": 31278,
      "NODE_ID": 306101279,
      "STOP_ORD": 33,
      "LAT": 35.860618
    },
    {
      "ROUTE_NAME": "2002",
      "ROUTE_ORD": 34,
      "STOP_ID": 306101310,
      "LNG": 127.149974,
      "BRT_SUBID": "0",
      "ROUTE_ID": 305001762,
      "STOP_NAME": "호성동주민센터",
      "SERVICE_ID": 31309,
      "NODE_ID": 306101310,
      "STOP_ORD": 34,
      "LAT": 35.864133
    },
    {
      "ROUTE_NAME": "2002",
      "ROUTE_ORD": 35,
      "STOP_ID": 306101348,
      "LNG": 127.14774518,
      "BRT_SUBID": "0",
      "ROUTE_ID": 305001762,
      "STOP_NAME": "차량등록사업소",
      "SERVICE_ID": 31347,
      "NODE_ID": 306101348,
      "STOP_ORD": 35,
      "LAT": 35.86637629
    },
    {
      "ROUTE_NAME": "2002",
      "ROUTE_ORD": 36,
      "STOP_ID": 306101376,
      "LNG": 127.14196852,
      "BRT_SUBID": "0",
      "ROUTE_ID": 305001762,
      "STOP_NAME": "화정마을",
      "SERVICE_ID": 31375,
      "NODE_ID": 306101376,
      "STOP_ORD": 36,
      "LAT": 35.86917679
    },
    {
      "ROUTE_NAME": "2002",
      "ROUTE_ORD": 37,
      "STOP_ID": 306101384,
      "LNG": 127.13514837,
      "BRT_SUBID": "0",
      "ROUTE_ID": 305001762,
      "STOP_NAME": "대송장례식장",
      "SERVICE_ID": 31383,
      "NODE_ID": 306101384,
      "STOP_ORD": 37,
      "LAT": 35.86965462
    },
    {
      "ROUTE_NAME": "2002",
      "ROUTE_ORD": 38,
      "STOP_ID": 305032707,
      "LNG": 127.130823,
      "BRT_SUBID": "0",
      "ROUTE_ID": 305001762,
      "STOP_NAME": "송천도서관.솔내청소년센터",
      "SERVICE_ID": 36641,
      "NODE_ID": 305032707,
      "STOP_ORD": 38,
      "LAT": 35.869793
    },
    {
      "ROUTE_NAME": "2002",
      "ROUTE_ORD": 39,
      "STOP_ID": 305032430,
      "LNG": 127.1277186,
      "BRT_SUBID": "0",
      "ROUTE_ID": 305001762,
      "STOP_NAME": "에코시티상가",
      "SERVICE_ID": 36364,
      "NODE_ID": 305032430,
      "STOP_ORD": 39,
      "LAT": 35.8721074
    },
    {
      "ROUTE_NAME": "2002",
      "ROUTE_ORD": 40,
      "STOP_ID": 305032397,
      "LNG": 127.130066,
      "BRT_SUBID": "0",
      "ROUTE_ID": 305001762,
      "STOP_NAME": "에코더샵1차",
      "SERVICE_ID": 36331,
      "NODE_ID": 305032397,
      "STOP_ORD": 40,
      "LAT": 35.872757
    },
    {
      "ROUTE_NAME": "2002",
      "ROUTE_ORD": 41,
      "STOP_ID": 305032398,
      "LNG": 127.1339642,
      "BRT_SUBID": "0",
      "ROUTE_ID": 305001762,
      "STOP_NAME": "에코휴먼빌",
      "SERVICE_ID": 36332,
      "NODE_ID": 305032398,
      "STOP_ORD": 41,
      "LAT": 35.8725593
    },
    {
      "ROUTE_NAME": "2002",
      "ROUTE_ORD": 42,
      "STOP_ID": 305032400,
      "LNG": 127.135157,
      "BRT_SUBID": "0",
      "ROUTE_ID": 305001762,
      "STOP_NAME": "자연초등학교",
      "SERVICE_ID": 36334,
      "NODE_ID": 305032400,
      "STOP_ORD": 42,
      "LAT": 35.876991
    },
    {
      "ROUTE_NAME": "2002",
      "ROUTE_ORD": 43,
      "STOP_ID": 305032528,
      "LNG": 127.133709,
      "BRT_SUBID": "0",
      "ROUTE_ID": 305001762,
      "STOP_NAME": "에코더샵2차",
      "SERVICE_ID": 36462,
      "NODE_ID": 305032528,
      "STOP_ORD": 43,
      "LAT": 35.878247
    },
    {
      "ROUTE_NAME": "2002",
      "ROUTE_ORD": 44,
      "STOP_ID": 305032401,
      "LNG": 127.130474,
      "BRT_SUBID": "0",
      "ROUTE_ID": 305001762,
      "STOP_NAME": "에코스위첸",
      "SERVICE_ID": 36335,
      "NODE_ID": 305032401,
      "STOP_ORD": 44,
      "LAT": 35.879291
    },
    {
      "ROUTE_NAME": "2002",
      "ROUTE_ORD": 45,
      "STOP_ID": 306101413,
      "LNG": 127.125978,
      "BRT_SUBID": "0",
      "ROUTE_ID": 305001762,
      "STOP_NAME": "송천정보학교",
      "SERVICE_ID": 31412,
      "NODE_ID": 306101413,
      "STOP_ORD": 45,
      "LAT": 35.875561
    },
    {
      "ROUTE_NAME": "2002",
      "ROUTE_ORD": 46,
      "STOP_ID": 305032442,
      "LNG": 127.123892,
      "BRT_SUBID": "0",
      "ROUTE_ID": 305001762,
      "STOP_NAME": "이마트에코시티점",
      "SERVICE_ID": 36376,
      "NODE_ID": 305032442,
      "STOP_ORD": 46,
      "LAT": 35.87374
    },
    {
      "ROUTE_NAME": "2002",
      "ROUTE_ORD": 47,
      "STOP_ID": 306032307,
      "LNG": 127.1184873,
      "BRT_SUBID": "0",
      "ROUTE_ID": 305001762,
      "STOP_NAME": "동부대로 농수산시장",
      "SERVICE_ID": 36226,
      "NODE_ID": 306032307,
      "STOP_ORD": 47,
      "LAT": 35.8699127
    },
    {
      "ROUTE_NAME": "2002",
      "ROUTE_ORD": 48,
      "STOP_ID": 306032306,
      "LNG": 127.114241,
      "BRT_SUBID": "0",
      "ROUTE_ID": 305001762,
      "STOP_NAME": "메가월드",
      "SERVICE_ID": 36211,
      "NODE_ID": 306032306,
      "STOP_ORD": 48,
      "LAT": 35.869941
    },
    {
      "ROUTE_NAME": "2002",
      "ROUTE_ORD": 49,
      "STOP_ID": 306032304,
      "LNG": 127.109252,
      "BRT_SUBID": "0",
      "ROUTE_ID": 305001762,
      "STOP_NAME": "송천동종점",
      "SERVICE_ID": 36208,
      "NODE_ID": 306032304,
      "STOP_ORD": 49,
      "LAT": 35.8697397
    }
  ]
}