{
  "resultList": [
    {
      "ROUTE_NAME": "34",
      "ROUTE_ORD": 1,
      "STOP_ID": 312101674,
      "LNG": 127.0749043,
      "BRT_SUBID": "A",
      "ROUTE_ID": 305001078,
      "STOP_NAME": "삼례터미널",
      "SERVICE_ID": 31673,
      "NODE_ID": 312101674,
      "STOP_ORD": 1,
      "LAT": 35.9099229
    },
    {
      "ROUTE_NAME": "34",
      "ROUTE_ORD": 2,
      "STOP_ID": 312101677,
      "LNG": 127.07488992,
      "BRT_SUBID": "A",
      "ROUTE_ID": 305001078,
      "STOP_NAME": "삼례농협",
      "SERVICE_ID": 31676,
      "NODE_ID": 312101677,
      "STOP_ORD": 2,
      "LAT": 35.91188075
    },
    {
      "ROUTE_NAME": "34",
      "ROUTE_ORD": 3,
      "STOP_ID": 312032793,
      "LNG": 127.0776336,
      "BRT_SUBID": "A",
      "ROUTE_ID": 305001078,
      "STOP_NAME": "삼례읍행정복지센터.삼례중입구",
      "SERVICE_ID": 36262,
      "NODE_ID": 312032793,
      "STOP_ORD": 3,
      "LAT": 35.9137472
    },
    {
      "ROUTE_NAME": "34",
      "ROUTE_ORD": 4,
      "STOP_ID": 312101705,
      "LNG": 127.08102906,
      "BRT_SUBID": "A",
      "ROUTE_ID": 305001078,
      "STOP_NAME": "삼례대영아파트",
      "SERVICE_ID": 31704,
      "NODE_ID": 312101705,
      "STOP_ORD": 4,
      "LAT": 35.91594425
    },
    {
      "ROUTE_NAME": "34",
      "ROUTE_ORD": 5,
      "STOP_ID": 312101707,
      "LNG": 127.08227641,
      "BRT_SUBID": "A",
      "ROUTE_ID": 305001078,
      "STOP_NAME": "삼례동원아파트",
      "SERVICE_ID": 31706,
      "NODE_ID": 312101707,
      "STOP_ORD": 5,
      "LAT": 35.91665242
    },
    {
      "ROUTE_NAME": "34",
      "ROUTE_ORD": 6,
      "STOP_ID": 312101715,
      "LNG": 127.08407175,
      "BRT_SUBID": "A",
      "ROUTE_ID": 305001078,
      "STOP_NAME": "완주군청소년수련관",
      "SERVICE_ID": 31714,
      "NODE_ID": 312101715,
      "STOP_ORD": 6,
      "LAT": 35.91782432
    },
    {
      "ROUTE_NAME": "34",
      "ROUTE_ORD": 7,
      "STOP_ID": 312101722,
      "LNG": 127.08672909,
      "BRT_SUBID": "A",
      "ROUTE_ID": 305001078,
      "STOP_NAME": "삼례IC네거리",
      "SERVICE_ID": 31721,
      "NODE_ID": 312101722,
      "STOP_ORD": 7,
      "LAT": 35.91919292
    },
    {
      "ROUTE_NAME": "34",
      "ROUTE_ORD": 8,
      "STOP_ID": 312101723,
      "LNG": 127.08999897,
      "BRT_SUBID": "A",
      "ROUTE_ID": 305001078,
      "STOP_NAME": "농원입구",
      "SERVICE_ID": 31722,
      "NODE_ID": 312101723,
      "STOP_ORD": 8,
      "LAT": 35.91948337
    },
    {
      "ROUTE_NAME": "34",
      "ROUTE_ORD": 9,
      "STOP_ID": 312101718,
      "LNG": 127.09486981,
      "BRT_SUBID": "A",
      "ROUTE_ID": 305001078,
      "STOP_NAME": "완주군공설운동장.별산리",
      "SERVICE_ID": 31717,
      "NODE_ID": 312101718,
      "STOP_ORD": 9,
      "LAT": 35.9188789
    },
    {
      "ROUTE_NAME": "34",
      "ROUTE_ORD": 10,
      "STOP_ID": 312101735,
      "LNG": 127.10500156,
      "BRT_SUBID": "A",
      "ROUTE_ID": 305001078,
      "STOP_NAME": "석전리",
      "SERVICE_ID": 31734,
      "NODE_ID": 312101735,
      "STOP_ORD": 10,
      "LAT": 35.92110551
    },
    {
      "ROUTE_NAME": "34",
      "ROUTE_ORD": 11,
      "STOP_ID": 312101738,
      "LNG": 127.10789523,
      "BRT_SUBID": "A",
      "ROUTE_ID": 305001078,
      "STOP_NAME": "청등마을입구",
      "SERVICE_ID": 31737,
      "NODE_ID": 312101738,
      "STOP_ORD": 11,
      "LAT": 35.92180055
    },
    {
      "ROUTE_NAME": "34",
      "ROUTE_ORD": 12,
      "STOP_ID": 312101742,
      "LNG": 127.1142459,
      "BRT_SUBID": "A",
      "ROUTE_ID": 305001078,
      "STOP_NAME": "삼봉행복주택아파트",
      "SERVICE_ID": 31741,
      "NODE_ID": 312101742,
      "STOP_ORD": 12,
      "LAT": 35.92367689
    },
    {
      "ROUTE_NAME": "34",
      "ROUTE_ORD": 13,
      "STOP_ID": 305032735,
      "LNG": 127.11557394,
      "BRT_SUBID": "A",
      "ROUTE_ID": 305001078,
      "STOP_NAME": "삼봉1단지아파트",
      "SERVICE_ID": 36669,
      "NODE_ID": 305032735,
      "STOP_ORD": 13,
      "LAT": 35.92258511
    },
    {
      "ROUTE_NAME": "34",
      "ROUTE_ORD": 14,
      "STOP_ID": 305032736,
      "LNG": 127.11706207,
      "BRT_SUBID": "A",
      "ROUTE_ID": 305001078,
      "STOP_NAME": "삼봉중흥S클래스아파트",
      "SERVICE_ID": 36670,
      "NODE_ID": 305032736,
      "STOP_ORD": 14,
      "LAT": 35.9211259
    },
    {
      "ROUTE_NAME": "34",
      "ROUTE_ORD": 15,
      "STOP_ID": 305032738,
      "LNG": 127.12104986,
      "BRT_SUBID": "A",
      "ROUTE_ID": 305001078,
      "STOP_NAME": "삼봉우미린아파트",
      "SERVICE_ID": 36672,
      "NODE_ID": 305032738,
      "STOP_ORD": 15,
      "LAT": 35.92412535
    },
    {
      "ROUTE_NAME": "34",
      "ROUTE_ORD": 16,
      "STOP_ID": 312101761,
      "LNG": 127.12141062,
      "BRT_SUBID": "A",
      "ROUTE_ID": 305001078,
      "STOP_NAME": "삼봉로완주소방서",
      "SERVICE_ID": 31760,
      "NODE_ID": 312101761,
      "STOP_ORD": 16,
      "LAT": 35.92635782
    },
    {
      "ROUTE_NAME": "34",
      "ROUTE_ORD": 17,
      "STOP_ID": 312101763,
      "LNG": 127.12566475,
      "BRT_SUBID": "A",
      "ROUTE_ID": 305001078,
      "STOP_NAME": "삼봉로.구.청완초교",
      "SERVICE_ID": 31762,
      "NODE_ID": 312101763,
      "STOP_ORD": 17,
      "LAT": 35.92678638
    },
    {
      "ROUTE_NAME": "34",
      "ROUTE_ORD": 18,
      "STOP_ID": 312101778,
      "LNG": 127.13572407,
      "BRT_SUBID": "A",
      "ROUTE_ID": 305001078,
      "STOP_NAME": "하구미리",
      "SERVICE_ID": 31777,
      "NODE_ID": 312101778,
      "STOP_ORD": 18,
      "LAT": 35.92857895
    },
    {
      "ROUTE_NAME": "34",
      "ROUTE_ORD": 19,
      "STOP_ID": 312101783,
      "LNG": 127.14009995,
      "BRT_SUBID": "A",
      "ROUTE_ID": 305001078,
      "STOP_NAME": "상구미리",
      "SERVICE_ID": 31782,
      "NODE_ID": 312101783,
      "STOP_ORD": 19,
      "LAT": 35.92979719
    },
    {
      "ROUTE_NAME": "34",
      "ROUTE_ORD": 20,
      "STOP_ID": 312101787,
      "LNG": 127.14408215,
      "BRT_SUBID": "A",
      "ROUTE_ID": 305001078,
      "STOP_NAME": "배을마을입구",
      "SERVICE_ID": 31786,
      "NODE_ID": 312101787,
      "STOP_ORD": 20,
      "LAT": 35.93120193
    },
    {
      "ROUTE_NAME": "34",
      "ROUTE_ORD": 21,
      "STOP_ID": 312101801,
      "LNG": 127.15166183,
      "BRT_SUBID": "A",
      "ROUTE_ID": 305001078,
      "STOP_NAME": "신중리",
      "SERVICE_ID": 31800,
      "NODE_ID": 312101801,
      "STOP_ORD": 21,
      "LAT": 35.93396888
    },
    {
      "ROUTE_NAME": "34",
      "ROUTE_ORD": 22,
      "STOP_ID": 312101806,
      "LNG": 127.15571629,
      "BRT_SUBID": "A",
      "ROUTE_ID": 305001078,
      "STOP_NAME": "봉동신기마을",
      "SERVICE_ID": 31805,
      "NODE_ID": 312101806,
      "STOP_ORD": 22,
      "LAT": 35.93479253
    },
    {
      "ROUTE_NAME": "34",
      "ROUTE_ORD": 23,
      "STOP_ID": 312101814,
      "LNG": 127.1599571,
      "BRT_SUBID": "A",
      "ROUTE_ID": 305001078,
      "STOP_NAME": "완주중",
      "SERVICE_ID": 31813,
      "NODE_ID": 312101814,
      "STOP_ORD": 23,
      "LAT": 35.9356299
    },
    {
      "ROUTE_NAME": "34",
      "ROUTE_ORD": 24,
      "STOP_ID": 312101816,
      "LNG": 127.16169754,
      "BRT_SUBID": "A",
      "ROUTE_ID": 305001078,
      "STOP_NAME": "구봉동읍사무소",
      "SERVICE_ID": 31815,
      "NODE_ID": 312101816,
      "STOP_ORD": 24,
      "LAT": 35.93646965
    },
    {
      "ROUTE_NAME": "34",
      "ROUTE_ORD": 25,
      "STOP_ID": 312101825,
      "LNG": 127.16668166,
      "BRT_SUBID": "A",
      "ROUTE_ID": 305001078,
      "STOP_NAME": "봉동농협",
      "SERVICE_ID": 31824,
      "NODE_ID": 312101825,
      "STOP_ORD": 25,
      "LAT": 35.93872548
    },
    {
      "ROUTE_NAME": "34",
      "ROUTE_ORD": 26,
      "STOP_ID": 312101820,
      "LNG": 127.16815446,
      "BRT_SUBID": "A",
      "ROUTE_ID": 305001078,
      "STOP_NAME": "봉동전통시장",
      "SERVICE_ID": 31819,
      "NODE_ID": 312101820,
      "STOP_ORD": 26,
      "LAT": 35.93783158
    },
    {
      "ROUTE_NAME": "34",
      "ROUTE_ORD": 27,
      "STOP_ID": 312101799,
      "LNG": 127.16778609,
      "BRT_SUBID": "A",
      "ROUTE_ID": 305001078,
      "STOP_NAME": "영광맨션",
      "SERVICE_ID": 31798,
      "NODE_ID": 312101799,
      "STOP_ORD": 27,
      "LAT": 35.93329315
    },
    {
      "ROUTE_NAME": "34",
      "ROUTE_ORD": 28,
      "STOP_ID": 312101786,
      "LNG": 127.16315713,
      "BRT_SUBID": "A",
      "ROUTE_ID": 305001078,
      "STOP_NAME": "낙평네거리",
      "SERVICE_ID": 31785,
      "NODE_ID": 312101786,
      "STOP_ORD": 28,
      "LAT": 35.93104006
    },
    {
      "ROUTE_NAME": "34",
      "ROUTE_ORD": 29,
      "STOP_ID": 312101781,
      "LNG": 127.16083438,
      "BRT_SUBID": "A",
      "ROUTE_ID": 305001078,
      "STOP_NAME": "봉동주공아파트",
      "SERVICE_ID": 31780,
      "NODE_ID": 312101781,
      "STOP_ORD": 29,
      "LAT": 35.92929823
    },
    {
      "ROUTE_NAME": "34",
      "ROUTE_ORD": 30,
      "STOP_ID": 312101774,
      "LNG": 127.16234212,
      "BRT_SUBID": "A",
      "ROUTE_ID": 305001078,
      "STOP_NAME": "낙평리",
      "SERVICE_ID": 31773,
      "NODE_ID": 312101774,
      "STOP_ORD": 30,
      "LAT": 35.92787194
    },
    {
      "ROUTE_NAME": "34",
      "ROUTE_ORD": 31,
      "STOP_ID": 312101752,
      "LNG": 127.1653387,
      "BRT_SUBID": "A",
      "ROUTE_ID": 305001078,
      "STOP_NAME": "마그내다리",
      "SERVICE_ID": 31751,
      "NODE_ID": 312101752,
      "STOP_ORD": 31,
      "LAT": 35.9250368
    },
    {
      "ROUTE_NAME": "34",
      "ROUTE_ORD": 32,
      "STOP_ID": 312101728,
      "LNG": 127.16752884,
      "BRT_SUBID": "A",
      "ROUTE_ID": 305001078,
      "STOP_NAME": "하이트맥주",
      "SERVICE_ID": 31727,
      "NODE_ID": 312101728,
      "STOP_ORD": 32,
      "LAT": 35.92041312
    },
    {
      "ROUTE_NAME": "34",
      "ROUTE_ORD": 33,
      "STOP_ID": 312101689,
      "LNG": 127.16194048,
      "BRT_SUBID": "A",
      "ROUTE_ID": 305001078,
      "STOP_NAME": "서당리",
      "SERVICE_ID": 31688,
      "NODE_ID": 312101689,
      "STOP_ORD": 33,
      "LAT": 35.91296292
    },
    {
      "ROUTE_NAME": "34",
      "ROUTE_ORD": 34,
      "STOP_ID": 312101662,
      "LNG": 127.15814036,
      "BRT_SUBID": "A",
      "ROUTE_ID": 305001078,
      "STOP_NAME": "구만리",
      "SERVICE_ID": 31661,
      "NODE_ID": 312101662,
      "STOP_ORD": 34,
      "LAT": 35.90907386
    },
    {
      "ROUTE_NAME": "34",
      "ROUTE_ORD": 35,
      "STOP_ID": 312102032,
      "LNG": 127.1575218,
      "BRT_SUBID": "A",
      "ROUTE_ID": 305001078,
      "STOP_NAME": "운곡마을",
      "SERVICE_ID": 32032,
      "NODE_ID": 312102032,
      "STOP_ORD": 35,
      "LAT": 35.90409168
    },
    {
      "ROUTE_NAME": "34",
      "ROUTE_ORD": 36,
      "STOP_ID": 312102033,
      "LNG": 127.16166086,
      "BRT_SUBID": "A",
      "ROUTE_ID": 305001078,
      "STOP_NAME": "완주군청",
      "SERVICE_ID": 32033,
      "NODE_ID": 312102033,
      "STOP_ORD": 36,
      "LAT": 35.90343566
    },
    {
      "ROUTE_NAME": "34",
      "ROUTE_ORD": 37,
      "STOP_ID": 305032743,
      "LNG": 127.16776842,
      "BRT_SUBID": "A",
      "ROUTE_ID": 305001078,
      "STOP_NAME": "운곡모아미래도1.2차아파트",
      "SERVICE_ID": 36677,
      "NODE_ID": 305032743,
      "STOP_ORD": 37,
      "LAT": 35.90367397
    },
    {
      "ROUTE_NAME": "34",
      "ROUTE_ORD": 38,
      "STOP_ID": 312101640,
      "LNG": 127.17098774,
      "BRT_SUBID": "A",
      "ROUTE_ID": 305001078,
      "STOP_NAME": "지암마을",
      "SERVICE_ID": 31639,
      "NODE_ID": 312101640,
      "STOP_ORD": 38,
      "LAT": 35.90428678
    }
  ]
}