{
  "resultList": [
    {
      "ROUTE_NAME": "83",
      "ROUTE_ORD": 1,
      "STOP_ID": 312101166,
      "LNG": 127.22481892,
      "BRT_SUBID": "0",
      "ROUTE_ID": 305001676,
      "STOP_NAME": "소양행정복지센터",
      "SERVICE_ID": 31165,
      "NODE_ID": 312101166,
      "STOP_ORD": 1,
      "LAT": 35.85333055
    },
    {
      "ROUTE_NAME": "83",
      "ROUTE_ORD": 2,
      "STOP_ID": 312101195,
      "LNG": 127.22892691,
      "BRT_SUBID": "0",
      "ROUTE_ID": 305001676,
      "STOP_NAME": "소양119지역대",
      "SERVICE_ID": 31194,
      "NODE_ID": 312101195,
      "STOP_ORD": 2,
      "LAT": 35.85441152
    },
    {
      "ROUTE_NAME": "83",
      "ROUTE_ORD": 3,
      "STOP_ID": 312101216,
      "LNG": 127.23294515,
      "BRT_SUBID": "0",
      "ROUTE_ID": 305001676,
      "STOP_NAME": "소양",
      "SERVICE_ID": 31215,
      "NODE_ID": 312101216,
      "STOP_ORD": 3,
      "LAT": 35.85562696
    },
    {
      "ROUTE_NAME": "83",
      "ROUTE_ORD": 4,
      "STOP_ID": 312101277,
      "LNG": 127.23972769,
      "BRT_SUBID": "0",
      "ROUTE_ID": 305001676,
      "STOP_NAME": "인덕마을입구",
      "SERVICE_ID": 31276,
      "NODE_ID": 312101277,
      "STOP_ORD": 4,
      "LAT": 35.86026988
    },
    {
      "ROUTE_NAME": "83",
      "ROUTE_ORD": 5,
      "STOP_ID": 312101285,
      "LNG": 127.24230608,
      "BRT_SUBID": "0",
      "ROUTE_ID": 305001676,
      "STOP_NAME": "용연마을",
      "SERVICE_ID": 31284,
      "NODE_ID": 312101285,
      "STOP_ORD": 5,
      "LAT": 35.8610509
    },
    {
      "ROUTE_NAME": "83",
      "ROUTE_ORD": 6,
      "STOP_ID": 312101328,
      "LNG": 127.24726245,
      "BRT_SUBID": "0",
      "ROUTE_ID": 305001676,
      "STOP_NAME": "전북체육고 마수리",
      "SERVICE_ID": 31327,
      "NODE_ID": 312101328,
      "STOP_ORD": 6,
      "LAT": 35.86489788
    },
    {
      "ROUTE_NAME": "83",
      "ROUTE_ORD": 7,
      "STOP_ID": 312101270,
      "LNG": 127.25205715,
      "BRT_SUBID": "0",
      "ROUTE_ID": 305001676,
      "STOP_NAME": "왕정리",
      "SERVICE_ID": 31269,
      "NODE_ID": 312101270,
      "STOP_ORD": 7,
      "LAT": 35.85989217
    },
    {
      "ROUTE_NAME": "83",
      "ROUTE_ORD": 8,
      "STOP_ID": 312101217,
      "LNG": 127.25574044,
      "BRT_SUBID": "0",
      "ROUTE_ID": 305001676,
      "STOP_NAME": "신왕리",
      "SERVICE_ID": 31216,
      "NODE_ID": 312101217,
      "STOP_ORD": 8,
      "LAT": 35.85567568
    },
    {
      "ROUTE_NAME": "83",
      "ROUTE_ORD": 9,
      "STOP_ID": 312101114,
      "LNG": 127.26194626,
      "BRT_SUBID": "0",
      "ROUTE_ID": 305001676,
      "STOP_NAME": "해월리",
      "SERVICE_ID": 31113,
      "NODE_ID": 312101114,
      "STOP_ORD": 9,
      "LAT": 35.84916018
    },
    {
      "ROUTE_NAME": "83",
      "ROUTE_ORD": 10,
      "STOP_ID": 312101063,
      "LNG": 127.2687245,
      "BRT_SUBID": "0",
      "ROUTE_ID": 305001676,
      "STOP_NAME": "화심",
      "SERVICE_ID": 31062,
      "NODE_ID": 312101063,
      "STOP_ORD": 10,
      "LAT": 35.84420658
    },
    {
      "ROUTE_NAME": "83",
      "ROUTE_ORD": 11,
      "STOP_ID": 312101064,
      "LNG": 127.27446451,
      "BRT_SUBID": "0",
      "ROUTE_ID": 305001676,
      "STOP_NAME": "새터",
      "SERVICE_ID": 31063,
      "NODE_ID": 312101064,
      "STOP_ORD": 11,
      "LAT": 35.84428908
    },
    {
      "ROUTE_NAME": "83",
      "ROUTE_ORD": 12,
      "STOP_ID": 312101109,
      "LNG": 127.27848296,
      "BRT_SUBID": "0",
      "ROUTE_ID": 305001676,
      "STOP_NAME": "황토나라",
      "SERVICE_ID": 31108,
      "NODE_ID": 312101109,
      "STOP_ORD": 12,
      "LAT": 35.84893992
    },
    {
      "ROUTE_NAME": "83",
      "ROUTE_ORD": 13,
      "STOP_ID": 312101144,
      "LNG": 127.28437952,
      "BRT_SUBID": "0",
      "ROUTE_ID": 305001676,
      "STOP_NAME": "하리",
      "SERVICE_ID": 31143,
      "NODE_ID": 312101144,
      "STOP_ORD": 13,
      "LAT": 35.85145516
    },
    {
      "ROUTE_NAME": "83",
      "ROUTE_ORD": 14,
      "STOP_ID": 312101199,
      "LNG": 127.29029315,
      "BRT_SUBID": "0",
      "ROUTE_ID": 305001676,
      "STOP_NAME": "대승리입구",
      "SERVICE_ID": 31198,
      "NODE_ID": 312101199,
      "STOP_ORD": 14,
      "LAT": 35.85453682
    },
    {
      "ROUTE_NAME": "83",
      "ROUTE_ORD": 15,
      "STOP_ID": 312101220,
      "LNG": 127.2925946,
      "BRT_SUBID": "0",
      "ROUTE_ID": 305001676,
      "STOP_NAME": "대승리",
      "SERVICE_ID": 31219,
      "NODE_ID": 312101220,
      "STOP_ORD": 15,
      "LAT": 35.85594648
    },
    {
      "ROUTE_NAME": "83",
      "ROUTE_ORD": 16,
      "STOP_ID": 312032162,
      "LNG": 127.29483809,
      "BRT_SUBID": "0",
      "ROUTE_ID": 305001676,
      "STOP_NAME": "중리",
      "SERVICE_ID": 32162,
      "NODE_ID": 312032162,
      "STOP_ORD": 16,
      "LAT": 35.85760965
    },
    {
      "ROUTE_NAME": "83",
      "ROUTE_ORD": 17,
      "STOP_ID": 312101283,
      "LNG": 127.29689094,
      "BRT_SUBID": "0",
      "ROUTE_ID": 305001676,
      "STOP_NAME": "상리",
      "SERVICE_ID": 31282,
      "NODE_ID": 312101283,
      "STOP_ORD": 17,
      "LAT": 35.86062037
    },
    {
      "ROUTE_NAME": "83",
      "ROUTE_ORD": 18,
      "STOP_ID": 312101284,
      "LNG": 127.29668572,
      "BRT_SUBID": "0",
      "ROUTE_ID": 305001676,
      "STOP_NAME": "상리",
      "SERVICE_ID": 31283,
      "NODE_ID": 312101284,
      "STOP_ORD": 18,
      "LAT": 35.86064584
    },
    {
      "ROUTE_NAME": "83",
      "ROUTE_ORD": 19,
      "STOP_ID": 312032163,
      "LNG": 127.29477119,
      "BRT_SUBID": "0",
      "ROUTE_ID": 305001676,
      "STOP_NAME": "중리",
      "SERVICE_ID": 32163,
      "NODE_ID": 312032163,
      "STOP_ORD": 19,
      "LAT": 35.85766334
    },
    {
      "ROUTE_NAME": "83",
      "ROUTE_ORD": 20,
      "STOP_ID": 312101225,
      "LNG": 127.29251091,
      "BRT_SUBID": "0",
      "ROUTE_ID": 305001676,
      "STOP_NAME": "대승리",
      "SERVICE_ID": 31224,
      "NODE_ID": 312101225,
      "STOP_ORD": 20,
      "LAT": 35.85606078
    },
    {
      "ROUTE_NAME": "83",
      "ROUTE_ORD": 21,
      "STOP_ID": 312101275,
      "LNG": 127.2907497,
      "BRT_SUBID": "0",
      "ROUTE_ID": 305001676,
      "STOP_NAME": "원앙골",
      "SERVICE_ID": 31274,
      "NODE_ID": 312101275,
      "STOP_ORD": 21,
      "LAT": 35.86009313
    },
    {
      "ROUTE_NAME": "83",
      "ROUTE_ORD": 22,
      "STOP_ID": 312101473,
      "LNG": 127.31019395,
      "BRT_SUBID": "0",
      "ROUTE_ID": 305001676,
      "STOP_NAME": "웃밤티",
      "SERVICE_ID": 31472,
      "NODE_ID": 312101473,
      "STOP_ORD": 22,
      "LAT": 35.87714486
    },
    {
      "ROUTE_NAME": "83",
      "ROUTE_ORD": 23,
      "STOP_ID": 312101502,
      "LNG": 127.31085424,
      "BRT_SUBID": "0",
      "ROUTE_ID": 305001676,
      "STOP_NAME": "밤티마을",
      "SERVICE_ID": 31501,
      "NODE_ID": 312101502,
      "STOP_ORD": 23,
      "LAT": 35.87992166
    },
    {
      "ROUTE_NAME": "83",
      "ROUTE_ORD": 24,
      "STOP_ID": 305032355,
      "LNG": 127.3131117,
      "BRT_SUBID": "0",
      "ROUTE_ID": 305001676,
      "STOP_NAME": "황조리마을",
      "SERVICE_ID": 36249,
      "NODE_ID": 305032355,
      "STOP_ORD": 24,
      "LAT": 35.8837206
    },
    {
      "ROUTE_NAME": "83",
      "ROUTE_ORD": 25,
      "STOP_ID": 312101582,
      "LNG": 127.31231711,
      "BRT_SUBID": "0",
      "ROUTE_ID": 305001676,
      "STOP_NAME": "시평리",
      "SERVICE_ID": 31581,
      "NODE_ID": 312101582,
      "STOP_ORD": 25,
      "LAT": 35.89076051
    },
    {
      "ROUTE_NAME": "83",
      "ROUTE_ORD": 26,
      "STOP_ID": 312101605,
      "LNG": 127.31111102,
      "BRT_SUBID": "0",
      "ROUTE_ID": 305001676,
      "STOP_NAME": "연동",
      "SERVICE_ID": 31604,
      "NODE_ID": 312101605,
      "STOP_ORD": 26,
      "LAT": 35.89420876
    },
    {
      "ROUTE_NAME": "83",
      "ROUTE_ORD": 27,
      "STOP_ID": 312101659,
      "LNG": 127.30712294,
      "BRT_SUBID": "0",
      "ROUTE_ID": 305001676,
      "STOP_NAME": "신사봉",
      "SERVICE_ID": 31658,
      "NODE_ID": 312101659,
      "STOP_ORD": 27,
      "LAT": 35.90829387
    },
    {
      "ROUTE_NAME": "83",
      "ROUTE_ORD": 28,
      "STOP_ID": 312032787,
      "LNG": 127.30627808,
      "BRT_SUBID": "0",
      "ROUTE_ID": 305001676,
      "STOP_NAME": "솔바우농원",
      "SERVICE_ID": 36251,
      "NODE_ID": 312032787,
      "STOP_ORD": 28,
      "LAT": 35.91516182
    },
    {
      "ROUTE_NAME": "83",
      "ROUTE_ORD": 29,
      "STOP_ID": 312101717,
      "LNG": 127.30611032,
      "BRT_SUBID": "0",
      "ROUTE_ID": 305001676,
      "STOP_NAME": "원사봉",
      "SERVICE_ID": 31716,
      "NODE_ID": 312101717,
      "STOP_ORD": 29,
      "LAT": 35.91847498
    },
    {
      "ROUTE_NAME": "83",
      "ROUTE_ORD": 30,
      "STOP_ID": 305032390,
      "LNG": 127.3068264,
      "BRT_SUBID": "0",
      "ROUTE_ID": 305001676,
      "STOP_NAME": "토종한봉꿀농장",
      "SERVICE_ID": 36324,
      "NODE_ID": 305032390,
      "STOP_ORD": 30,
      "LAT": 35.9206892
    },
    {
      "ROUTE_NAME": "83",
      "ROUTE_ORD": 31,
      "STOP_ID": 312101749,
      "LNG": 127.30618133,
      "BRT_SUBID": "0",
      "ROUTE_ID": 305001676,
      "STOP_NAME": "묵계",
      "SERVICE_ID": 31748,
      "NODE_ID": 312101749,
      "STOP_ORD": 31,
      "LAT": 35.92442736
    },
    {
      "ROUTE_NAME": "83",
      "ROUTE_ORD": 32,
      "STOP_ID": 305032677,
      "LNG": 127.2970044,
      "BRT_SUBID": "0",
      "ROUTE_ID": 305001676,
      "STOP_NAME": "동상보건지소",
      "SERVICE_ID": 36611,
      "NODE_ID": 305032677,
      "STOP_ORD": 32,
      "LAT": 35.936397
    },
    {
      "ROUTE_NAME": "83",
      "ROUTE_ORD": 33,
      "STOP_ID": 312101823,
      "LNG": 127.2964465,
      "BRT_SUBID": "0",
      "ROUTE_ID": 305001676,
      "STOP_NAME": "거인마을",
      "SERVICE_ID": 31822,
      "NODE_ID": 312101823,
      "STOP_ORD": 33,
      "LAT": 35.9378205
    },
    {
      "ROUTE_NAME": "83",
      "ROUTE_ORD": 34,
      "STOP_ID": 305032678,
      "LNG": 127.2947351,
      "BRT_SUBID": "0",
      "ROUTE_ID": 305001676,
      "STOP_NAME": "동상거인경로당",
      "SERVICE_ID": 36612,
      "NODE_ID": 305032678,
      "STOP_ORD": 34,
      "LAT": 35.9393729
    }
  ]
}