{
  "resultList": [
    {
      "ROUTE_NAME": "75",
      "ROUTE_ORD": 1,
      "STOP_ID": 305032440,
      "LNG": 127.076175,
      "BRT_SUBID": "B",
      "ROUTE_ID": 305001433,
      "STOP_NAME": "용정마을.하나로마트",
      "SERVICE_ID": 36374,
      "NODE_ID": 305032440,
      "STOP_ORD": 1,
      "LAT": 35.851705
    },
    {
      "ROUTE_NAME": "75",
      "ROUTE_ORD": 2,
      "STOP_ID": 305032422,
      "LNG": 127.077827,
      "BRT_SUBID": "B",
      "ROUTE_ID": 305001433,
      "STOP_NAME": "만성골드클래스후문",
      "SERVICE_ID": 36356,
      "NODE_ID": 305032422,
      "STOP_ORD": 2,
      "LAT": 35.849261
    },
    {
      "ROUTE_NAME": "75",
      "ROUTE_ORD": 3,
      "STOP_ID": 305032416,
      "LNG": 127.079662,
      "BRT_SUBID": "B",
      "ROUTE_ID": 305001433,
      "STOP_NAME": "만성골드클래스정문",
      "SERVICE_ID": 36350,
      "NODE_ID": 305032416,
      "STOP_ORD": 3,
      "LAT": 35.84713
    },
    {
      "ROUTE_NAME": "75",
      "ROUTE_ORD": 4,
      "STOP_ID": 305032417,
      "LNG": 127.077473,
      "BRT_SUBID": "B",
      "ROUTE_ID": 305001433,
      "STOP_NAME": "법원.검찰청.만성에코르",
      "SERVICE_ID": 36351,
      "NODE_ID": 305032417,
      "STOP_ORD": 4,
      "LAT": 35.844878
    },
    {
      "ROUTE_NAME": "75",
      "ROUTE_ORD": 5,
      "STOP_ID": 305032428,
      "LNG": 127.074566,
      "BRT_SUBID": "B",
      "ROUTE_ID": 305001433,
      "STOP_NAME": "전주지방법원.검찰청",
      "SERVICE_ID": 36362,
      "NODE_ID": 305032428,
      "STOP_ORD": 5,
      "LAT": 35.843815
    },
    {
      "ROUTE_NAME": "75",
      "ROUTE_ORD": 6,
      "STOP_ID": 305032640,
      "LNG": 127.070408,
      "BRT_SUBID": "B",
      "ROUTE_ID": 305001433,
      "STOP_NAME": "기지제",
      "SERVICE_ID": 36574,
      "NODE_ID": 305032640,
      "STOP_ORD": 6,
      "LAT": 35.842471
    },
    {
      "ROUTE_NAME": "75",
      "ROUTE_ORD": 7,
      "STOP_ID": 305032359,
      "LNG": 127.065087,
      "BRT_SUBID": "B",
      "ROUTE_ID": 305001433,
      "STOP_NAME": "한국국토정보공사",
      "SERVICE_ID": 36256,
      "NODE_ID": 305032359,
      "STOP_ORD": 7,
      "LAT": 35.838649
    },
    {
      "ROUTE_NAME": "75",
      "ROUTE_ORD": 8,
      "STOP_ID": 305032297,
      "LNG": 127.063392,
      "BRT_SUBID": "B",
      "ROUTE_ID": 305001433,
      "STOP_NAME": "한국출판문화산업진흥원",
      "SERVICE_ID": 32297,
      "NODE_ID": 305032297,
      "STOP_ORD": 8,
      "LAT": 35.83854
    },
    {
      "ROUTE_NAME": "75",
      "ROUTE_ORD": 9,
      "STOP_ID": 312032178,
      "LNG": 127.061187,
      "BRT_SUBID": "B",
      "ROUTE_ID": 305001433,
      "STOP_NAME": "호반더센트럴",
      "SERVICE_ID": 32178,
      "NODE_ID": 312032178,
      "STOP_ORD": 9,
      "LAT": 35.838492
    },
    {
      "ROUTE_NAME": "75",
      "ROUTE_ORD": 10,
      "STOP_ID": 312032139,
      "LNG": 127.058457,
      "BRT_SUBID": "B",
      "ROUTE_ID": 305001433,
      "STOP_NAME": "혁신도시상가",
      "SERVICE_ID": 32139,
      "NODE_ID": 312032139,
      "STOP_ORD": 10,
      "LAT": 35.837253
    },
    {
      "ROUTE_NAME": "75",
      "ROUTE_ORD": 11,
      "STOP_ID": 312032824,
      "LNG": 127.061938,
      "BRT_SUBID": "B",
      "ROUTE_ID": 305001433,
      "STOP_NAME": "우미린1차아파트",
      "SERVICE_ID": 36294,
      "NODE_ID": 312032824,
      "STOP_ORD": 11,
      "LAT": 35.833293
    },
    {
      "ROUTE_NAME": "75",
      "ROUTE_ORD": 12,
      "STOP_ID": 306032152,
      "LNG": 127.066734,
      "BRT_SUBID": "B",
      "ROUTE_ID": 305001433,
      "STOP_NAME": "혁신호반3차아파트",
      "SERVICE_ID": 32152,
      "NODE_ID": 306032152,
      "STOP_ORD": 12,
      "LAT": 35.83291
    },
    {
      "ROUTE_NAME": "75",
      "ROUTE_ORD": 13,
      "STOP_ID": 312132114,
      "LNG": 127.071562,
      "BRT_SUBID": "B",
      "ROUTE_ID": 305001433,
      "STOP_NAME": "두현마을",
      "SERVICE_ID": 32114,
      "NODE_ID": 312132114,
      "STOP_ORD": 13,
      "LAT": 35.831562
    },
    {
      "ROUTE_NAME": "75",
      "ROUTE_ORD": 14,
      "STOP_ID": 306100838,
      "LNG": 127.070693,
      "BRT_SUBID": "B",
      "ROUTE_ID": 305001433,
      "STOP_NAME": "한국농수산대학후문",
      "SERVICE_ID": 30838,
      "NODE_ID": 306100838,
      "STOP_ORD": 14,
      "LAT": 35.828694
    },
    {
      "ROUTE_NAME": "75",
      "ROUTE_ORD": 15,
      "STOP_ID": 305100762,
      "LNG": 127.071243,
      "BRT_SUBID": "B",
      "ROUTE_ID": 305001433,
      "STOP_NAME": "혁신도시입구",
      "SERVICE_ID": 30762,
      "NODE_ID": 305100762,
      "STOP_ORD": 15,
      "LAT": 35.8249595
    },
    {
      "ROUTE_NAME": "75",
      "ROUTE_ORD": 16,
      "STOP_ID": 305100728,
      "LNG": 127.08156919,
      "BRT_SUBID": "B",
      "ROUTE_ID": 305001433,
      "STOP_NAME": "만절리고개",
      "SERVICE_ID": 30728,
      "NODE_ID": 305100728,
      "STOP_ORD": 16,
      "LAT": 35.82308766
    },
    {
      "ROUTE_NAME": "75",
      "ROUTE_ORD": 17,
      "STOP_ID": 305100707,
      "LNG": 127.08473105,
      "BRT_SUBID": "B",
      "ROUTE_ID": 305001433,
      "STOP_NAME": "전북연구원",
      "SERVICE_ID": 30707,
      "NODE_ID": 305100707,
      "STOP_ORD": 17,
      "LAT": 35.82162632
    },
    {
      "ROUTE_NAME": "75",
      "ROUTE_ORD": 18,
      "STOP_ID": 305100684,
      "LNG": 127.08885531,
      "BRT_SUBID": "B",
      "ROUTE_ID": 305001433,
      "STOP_NAME": "은화학교",
      "SERVICE_ID": 30684,
      "NODE_ID": 305100684,
      "STOP_ORD": 18,
      "LAT": 35.82011356
    },
    {
      "ROUTE_NAME": "75",
      "ROUTE_ORD": 19,
      "STOP_ID": 305100650,
      "LNG": 127.091818,
      "BRT_SUBID": "B",
      "ROUTE_ID": 305001433,
      "STOP_NAME": "전주대학교",
      "SERVICE_ID": 30650,
      "NODE_ID": 305100650,
      "STOP_ORD": 19,
      "LAT": 35.81849
    },
    {
      "ROUTE_NAME": "75",
      "ROUTE_ORD": 20,
      "STOP_ID": 305100609,
      "LNG": 127.09452694,
      "BRT_SUBID": "B",
      "ROUTE_ID": 305001433,
      "STOP_NAME": "영생고 전주대사대부고",
      "SERVICE_ID": 30609,
      "NODE_ID": 305100609,
      "STOP_ORD": 20,
      "LAT": 35.81512963
    },
    {
      "ROUTE_NAME": "75",
      "ROUTE_ORD": 21,
      "STOP_ID": 305100584,
      "LNG": 127.09807381,
      "BRT_SUBID": "B",
      "ROUTE_ID": 305001433,
      "STOP_NAME": "호남제일고",
      "SERVICE_ID": 30584,
      "NODE_ID": 305100584,
      "STOP_ORD": 21,
      "LAT": 35.81348304
    },
    {
      "ROUTE_NAME": "75",
      "ROUTE_ORD": 22,
      "STOP_ID": 305102000,
      "LNG": 127.104499,
      "BRT_SUBID": "B",
      "ROUTE_ID": 305001433,
      "STOP_NAME": "전북선거관리위원회",
      "SERVICE_ID": 32000,
      "NODE_ID": 305102000,
      "STOP_ORD": 22,
      "LAT": 35.813544
    },
    {
      "ROUTE_NAME": "75",
      "ROUTE_ORD": 23,
      "STOP_ID": 305032642,
      "LNG": 127.1051739,
      "BRT_SUBID": "B",
      "ROUTE_ID": 305001433,
      "STOP_NAME": "효자휴먼시아5단지",
      "SERVICE_ID": 36576,
      "NODE_ID": 305032642,
      "STOP_ORD": 23,
      "LAT": 35.8097611
    },
    {
      "ROUTE_NAME": "75",
      "ROUTE_ORD": 24,
      "STOP_ID": 305100523,
      "LNG": 127.103732,
      "BRT_SUBID": "B",
      "ROUTE_ID": 305001433,
      "STOP_NAME": "휴먼시아6단지.LH전북지역본부",
      "SERVICE_ID": 30523,
      "NODE_ID": 305100523,
      "STOP_ORD": 24,
      "LAT": 35.80697
    },
    {
      "ROUTE_NAME": "75",
      "ROUTE_ORD": 25,
      "STOP_ID": 305100490,
      "LNG": 127.10333,
      "BRT_SUBID": "B",
      "ROUTE_ID": 305001433,
      "STOP_NAME": "홍산로전북도교육청.동암고",
      "SERVICE_ID": 30490,
      "NODE_ID": 305100490,
      "STOP_ORD": 25,
      "LAT": 35.804686
    },
    {
      "ROUTE_NAME": "75",
      "ROUTE_ORD": 26,
      "STOP_ID": 305032535,
      "LNG": 127.1046471,
      "BRT_SUBID": "B",
      "ROUTE_ID": 305001433,
      "STOP_NAME": "전주완산수영장",
      "SERVICE_ID": 36469,
      "NODE_ID": 305032535,
      "STOP_ORD": 26,
      "LAT": 35.8023769
    },
    {
      "ROUTE_NAME": "75",
      "ROUTE_ORD": 27,
      "STOP_ID": 305032501,
      "LNG": 127.105932,
      "BRT_SUBID": "B",
      "ROUTE_ID": 305001433,
      "STOP_NAME": "효천우미린2차아파트",
      "SERVICE_ID": 36435,
      "NODE_ID": 305032501,
      "STOP_ORD": 27,
      "LAT": 35.799935
    },
    {
      "ROUTE_NAME": "75",
      "ROUTE_ORD": 28,
      "STOP_ID": 305032497,
      "LNG": 127.105883,
      "BRT_SUBID": "B",
      "ROUTE_ID": 305001433,
      "STOP_NAME": "효천대방노블랜드",
      "SERVICE_ID": 36431,
      "NODE_ID": 305032497,
      "STOP_ORD": 28,
      "LAT": 35.797042
    },
    {
      "ROUTE_NAME": "75",
      "ROUTE_ORD": 29,
      "STOP_ID": 305032495,
      "LNG": 127.106736,
      "BRT_SUBID": "B",
      "ROUTE_ID": 305001433,
      "STOP_NAME": "농협공판장교차로",
      "SERVICE_ID": 36429,
      "NODE_ID": 305032495,
      "STOP_ORD": 29,
      "LAT": 35.79357
    },
    {
      "ROUTE_NAME": "75",
      "ROUTE_ORD": 30,
      "STOP_ID": 305100343,
      "LNG": 127.110411,
      "BRT_SUBID": "B",
      "ROUTE_ID": 305001433,
      "STOP_NAME": "농협공판장",
      "SERVICE_ID": 30343,
      "NODE_ID": 305100343,
      "STOP_ORD": 30,
      "LAT": 35.792219
    },
    {
      "ROUTE_NAME": "75",
      "ROUTE_ORD": 31,
      "STOP_ID": 305100336,
      "LNG": 127.114938,
      "BRT_SUBID": "B",
      "ROUTE_ID": 305001433,
      "STOP_NAME": "삼천주공4.5단지",
      "SERVICE_ID": 30336,
      "NODE_ID": 305100336,
      "STOP_ORD": 31,
      "LAT": 35.792262
    },
    {
      "ROUTE_NAME": "75",
      "ROUTE_ORD": 32,
      "STOP_ID": 305100337,
      "LNG": 127.11795448,
      "BRT_SUBID": "B",
      "ROUTE_ID": 305001433,
      "STOP_NAME": "한솔재활요양병원",
      "SERVICE_ID": 30337,
      "NODE_ID": 305100337,
      "STOP_ORD": 32,
      "LAT": 35.79232349
    },
    {
      "ROUTE_NAME": "75",
      "ROUTE_ORD": 33,
      "STOP_ID": 305100344,
      "LNG": 127.122502,
      "BRT_SUBID": "B",
      "ROUTE_ID": 305001433,
      "STOP_NAME": "평화동신아파트",
      "SERVICE_ID": 30344,
      "NODE_ID": 305100344,
      "STOP_ORD": 33,
      "LAT": 35.793152
    },
    {
      "ROUTE_NAME": "75",
      "ROUTE_ORD": 34,
      "STOP_ID": 305100372,
      "LNG": 127.126225,
      "BRT_SUBID": "B",
      "ROUTE_ID": 305001433,
      "STOP_NAME": "삼천우성그린아파트",
      "SERVICE_ID": 30372,
      "NODE_ID": 305100372,
      "STOP_ORD": 34,
      "LAT": 35.795116
    },
    {
      "ROUTE_NAME": "75",
      "ROUTE_ORD": 35,
      "STOP_ID": 305100393,
      "LNG": 127.12607,
      "BRT_SUBID": "B",
      "ROUTE_ID": 305001433,
      "STOP_NAME": "삼천오성대우아파트",
      "SERVICE_ID": 30393,
      "NODE_ID": 305100393,
      "STOP_ORD": 35,
      "LAT": 35.797242
    },
    {
      "ROUTE_NAME": "75",
      "ROUTE_ORD": 36,
      "STOP_ID": 305100409,
      "LNG": 127.12791,
      "BRT_SUBID": "B",
      "ROUTE_ID": 305001433,
      "STOP_NAME": "삼천개나리아파트",
      "SERVICE_ID": 30409,
      "NODE_ID": 305100409,
      "STOP_ORD": 36,
      "LAT": 35.798534
    },
    {
      "ROUTE_NAME": "75",
      "ROUTE_ORD": 37,
      "STOP_ID": 305100392,
      "LNG": 127.130098,
      "BRT_SUBID": "B",
      "ROUTE_ID": 305001433,
      "STOP_NAME": "삼천신일아파트",
      "SERVICE_ID": 30392,
      "NODE_ID": 305100392,
      "STOP_ORD": 37,
      "LAT": 35.797718
    },
    {
      "ROUTE_NAME": "75",
      "ROUTE_ORD": 38,
      "STOP_ID": 305100362,
      "LNG": 127.13218022,
      "BRT_SUBID": "B",
      "ROUTE_ID": 305001433,
      "STOP_NAME": "평화코오롱아파트",
      "SERVICE_ID": 30362,
      "NODE_ID": 305100362,
      "STOP_ORD": 38,
      "LAT": 35.7944849
    },
    {
      "ROUTE_NAME": "75",
      "ROUTE_ORD": 39,
      "STOP_ID": 305100330,
      "LNG": 127.13127818,
      "BRT_SUBID": "B",
      "ROUTE_ID": 305001433,
      "STOP_NAME": "주공4단지.꽃밭정이아파트",
      "SERVICE_ID": 30330,
      "NODE_ID": 305100330,
      "STOP_ORD": 39,
      "LAT": 35.79083606
    },
    {
      "ROUTE_NAME": "75",
      "ROUTE_ORD": 40,
      "STOP_ID": 305100315,
      "LNG": 127.130503,
      "BRT_SUBID": "B",
      "ROUTE_ID": 305001433,
      "STOP_NAME": "평화삼성강남아파트",
      "SERVICE_ID": 30315,
      "NODE_ID": 305100315,
      "STOP_ORD": 40,
      "LAT": 35.78842983
    },
    {
      "ROUTE_NAME": "75",
      "ROUTE_ORD": 41,
      "STOP_ID": 305100292,
      "LNG": 127.129911,
      "BRT_SUBID": "B",
      "ROUTE_ID": 305001433,
      "STOP_NAME": "평화골드클래스.그린1차아파트",
      "SERVICE_ID": 30292,
      "NODE_ID": 305100292,
      "STOP_ORD": 41,
      "LAT": 35.784079
    },
    {
      "ROUTE_NAME": "75",
      "ROUTE_ORD": 42,
      "STOP_ID": 305100280,
      "LNG": 127.129315,
      "BRT_SUBID": "B",
      "ROUTE_ID": 305001433,
      "STOP_NAME": "전주교도소",
      "SERVICE_ID": 30280,
      "NODE_ID": 305100280,
      "STOP_ORD": 42,
      "LAT": 35.779692
    },
    {
      "ROUTE_NAME": "75",
      "ROUTE_ORD": 43,
      "STOP_ID": 305132107,
      "LNG": 127.12733296,
      "BRT_SUBID": "B",
      "ROUTE_ID": 305001433,
      "STOP_NAME": "문정마을",
      "SERVICE_ID": 32107,
      "NODE_ID": 305132107,
      "STOP_ORD": 43,
      "LAT": 35.77799535
    },
    {
      "ROUTE_NAME": "75",
      "ROUTE_ORD": 44,
      "STOP_ID": 305132104,
      "LNG": 127.12225419,
      "BRT_SUBID": "B",
      "ROUTE_ID": 305001433,
      "STOP_NAME": "평화동종점",
      "SERVICE_ID": 32104,
      "NODE_ID": 305132104,
      "STOP_ORD": 44,
      "LAT": 35.77817471
    }
  ]
}