{
  "resultList": [
    {
      "ROUTE_NAME": "83",
      "ROUTE_ORD": 1,
      "STOP_ID": 305032679,
      "LNG": 127.2950904,
      "BRT_SUBID": "0",
      "ROUTE_ID": 305001677,
      "STOP_NAME": "동상거인경로당",
      "SERVICE_ID": 36613,
      "NODE_ID": 305032679,
      "STOP_ORD": 1,
      "LAT": 35.9391751
    },
    {
      "ROUTE_NAME": "83",
      "ROUTE_ORD": 2,
      "STOP_ID": 312101822,
      "LNG": 127.2961361,
      "BRT_SUBID": "0",
      "ROUTE_ID": 305001677,
      "STOP_NAME": "거인마을",
      "SERVICE_ID": 31821,
      "NODE_ID": 312101822,
      "STOP_ORD": 2,
      "LAT": 35.9377749
    },
    {
      "ROUTE_NAME": "83",
      "ROUTE_ORD": 3,
      "STOP_ID": 305032676,
      "LNG": 127.2965942,
      "BRT_SUBID": "0",
      "ROUTE_ID": 305001677,
      "STOP_NAME": "동상보건지소",
      "SERVICE_ID": 36610,
      "NODE_ID": 305032676,
      "STOP_ORD": 3,
      "LAT": 35.9364188
    },
    {
      "ROUTE_NAME": "83",
      "ROUTE_ORD": 4,
      "STOP_ID": 312101748,
      "LNG": 127.30603524,
      "BRT_SUBID": "0",
      "ROUTE_ID": 305001677,
      "STOP_NAME": "묵계",
      "SERVICE_ID": 31747,
      "NODE_ID": 312101748,
      "STOP_ORD": 4,
      "LAT": 35.92435977
    },
    {
      "ROUTE_NAME": "83",
      "ROUTE_ORD": 5,
      "STOP_ID": 305032388,
      "LNG": 127.3067044,
      "BRT_SUBID": "0",
      "ROUTE_ID": 305001677,
      "STOP_NAME": "토종한봉꿀농장",
      "SERVICE_ID": 36322,
      "NODE_ID": 305032388,
      "STOP_ORD": 5,
      "LAT": 35.9207296
    },
    {
      "ROUTE_NAME": "83",
      "ROUTE_ORD": 6,
      "STOP_ID": 312101719,
      "LNG": 127.30594182,
      "BRT_SUBID": "0",
      "ROUTE_ID": 305001677,
      "STOP_NAME": "원사봉",
      "SERVICE_ID": 31718,
      "NODE_ID": 312101719,
      "STOP_ORD": 6,
      "LAT": 35.91853714
    },
    {
      "ROUTE_NAME": "83",
      "ROUTE_ORD": 7,
      "STOP_ID": 312032788,
      "LNG": 127.30607305,
      "BRT_SUBID": "0",
      "ROUTE_ID": 305001677,
      "STOP_NAME": "솔바우농원",
      "SERVICE_ID": 36252,
      "NODE_ID": 312032788,
      "STOP_ORD": 7,
      "LAT": 35.91514431
    },
    {
      "ROUTE_NAME": "83",
      "ROUTE_ORD": 8,
      "STOP_ID": 312101658,
      "LNG": 127.30685869,
      "BRT_SUBID": "0",
      "ROUTE_ID": 305001677,
      "STOP_NAME": "신사봉",
      "SERVICE_ID": 31657,
      "NODE_ID": 312101658,
      "STOP_ORD": 8,
      "LAT": 35.90824972
    },
    {
      "ROUTE_NAME": "83",
      "ROUTE_ORD": 9,
      "STOP_ID": 312101603,
      "LNG": 127.3109678,
      "BRT_SUBID": "0",
      "ROUTE_ID": 305001677,
      "STOP_NAME": "연동",
      "SERVICE_ID": 31602,
      "NODE_ID": 312101603,
      "STOP_ORD": 9,
      "LAT": 35.89409005
    },
    {
      "ROUTE_NAME": "83",
      "ROUTE_ORD": 10,
      "STOP_ID": 312101584,
      "LNG": 127.31216965,
      "BRT_SUBID": "0",
      "ROUTE_ID": 305001677,
      "STOP_NAME": "시평리",
      "SERVICE_ID": 31583,
      "NODE_ID": 312101584,
      "STOP_ORD": 10,
      "LAT": 35.89085614
    },
    {
      "ROUTE_NAME": "83",
      "ROUTE_ORD": 11,
      "STOP_ID": 305032356,
      "LNG": 127.3129561,
      "BRT_SUBID": "0",
      "ROUTE_ID": 305001677,
      "STOP_NAME": "황조리마을",
      "SERVICE_ID": 36250,
      "NODE_ID": 305032356,
      "STOP_ORD": 11,
      "LAT": 35.8839368
    },
    {
      "ROUTE_NAME": "83",
      "ROUTE_ORD": 12,
      "STOP_ID": 312101505,
      "LNG": 127.31082744,
      "BRT_SUBID": "0",
      "ROUTE_ID": 305001677,
      "STOP_NAME": "밤티마을",
      "SERVICE_ID": 31504,
      "NODE_ID": 312101505,
      "STOP_ORD": 12,
      "LAT": 35.88042722
    },
    {
      "ROUTE_NAME": "83",
      "ROUTE_ORD": 13,
      "STOP_ID": 312101471,
      "LNG": 127.30999035,
      "BRT_SUBID": "0",
      "ROUTE_ID": 305001677,
      "STOP_NAME": "웃밤티",
      "SERVICE_ID": 31470,
      "NODE_ID": 312101471,
      "STOP_ORD": 13,
      "LAT": 35.87713288
    },
    {
      "ROUTE_NAME": "83",
      "ROUTE_ORD": 14,
      "STOP_ID": 312101278,
      "LNG": 127.29061253,
      "BRT_SUBID": "0",
      "ROUTE_ID": 305001677,
      "STOP_NAME": "원앙골",
      "SERVICE_ID": 31277,
      "NODE_ID": 312101278,
      "STOP_ORD": 14,
      "LAT": 35.86015957
    },
    {
      "ROUTE_NAME": "83",
      "ROUTE_ORD": 15,
      "STOP_ID": 312101220,
      "LNG": 127.2925946,
      "BRT_SUBID": "0",
      "ROUTE_ID": 305001677,
      "STOP_NAME": "대승리",
      "SERVICE_ID": 31219,
      "NODE_ID": 312101220,
      "STOP_ORD": 15,
      "LAT": 35.85594648
    },
    {
      "ROUTE_NAME": "83",
      "ROUTE_ORD": 16,
      "STOP_ID": 312032162,
      "LNG": 127.29483809,
      "BRT_SUBID": "0",
      "ROUTE_ID": 305001677,
      "STOP_NAME": "중리",
      "SERVICE_ID": 32162,
      "NODE_ID": 312032162,
      "STOP_ORD": 16,
      "LAT": 35.85760965
    },
    {
      "ROUTE_NAME": "83",
      "ROUTE_ORD": 17,
      "STOP_ID": 312101283,
      "LNG": 127.29689094,
      "BRT_SUBID": "0",
      "ROUTE_ID": 305001677,
      "STOP_NAME": "상리",
      "SERVICE_ID": 31282,
      "NODE_ID": 312101283,
      "STOP_ORD": 17,
      "LAT": 35.86062037
    },
    {
      "ROUTE_NAME": "83",
      "ROUTE_ORD": 18,
      "STOP_ID": 312101284,
      "LNG": 127.29668572,
      "BRT_SUBID": "0",
      "ROUTE_ID": 305001677,
      "STOP_NAME": "상리",
      "SERVICE_ID": 31283,
      "NODE_ID": 312101284,
      "STOP_ORD": 18,
      "LAT": 35.86064584
    },
    {
      "ROUTE_NAME": "83",
      "ROUTE_ORD": 19,
      "STOP_ID": 312032163,
      "LNG": 127.29477119,
      "BRT_SUBID": "0",
      "ROUTE_ID": 305001677,
      "STOP_NAME": "중리",
      "SERVICE_ID": 32163,
      "NODE_ID": 312032163,
      "STOP_ORD": 19,
      "LAT": 35.85766334
    },
    {
      "ROUTE_NAME": "83",
      "ROUTE_ORD": 20,
      "STOP_ID": 312101225,
      "LNG": 127.29251091,
      "BRT_SUBID": "0",
      "ROUTE_ID": 305001677,
      "STOP_NAME": "대승리",
      "SERVICE_ID": 31224,
      "NODE_ID": 312101225,
      "STOP_ORD": 20,
      "LAT": 35.85606078
    },
    {
      "ROUTE_NAME": "83",
      "ROUTE_ORD": 21,
      "STOP_ID": 312101203,
      "LNG": 127.29017936,
      "BRT_SUBID": "0",
      "ROUTE_ID": 305001677,
      "STOP_NAME": "대승리입구",
      "SERVICE_ID": 31202,
      "NODE_ID": 312101203,
      "STOP_ORD": 21,
      "LAT": 35.85470882
    },
    {
      "ROUTE_NAME": "83",
      "ROUTE_ORD": 22,
      "STOP_ID": 312101145,
      "LNG": 127.2844911,
      "BRT_SUBID": "0",
      "ROUTE_ID": 305001677,
      "STOP_NAME": "하리",
      "SERVICE_ID": 31144,
      "NODE_ID": 312101145,
      "STOP_ORD": 22,
      "LAT": 35.85162251
    },
    {
      "ROUTE_NAME": "83",
      "ROUTE_ORD": 23,
      "STOP_ID": 312101112,
      "LNG": 127.27828609,
      "BRT_SUBID": "0",
      "ROUTE_ID": 305001677,
      "STOP_NAME": "황토나라",
      "SERVICE_ID": 31111,
      "NODE_ID": 312101112,
      "STOP_ORD": 23,
      "LAT": 35.84904738
    },
    {
      "ROUTE_NAME": "83",
      "ROUTE_ORD": 24,
      "STOP_ID": 312101068,
      "LNG": 127.27429367,
      "BRT_SUBID": "0",
      "ROUTE_ID": 305001677,
      "STOP_NAME": "새터",
      "SERVICE_ID": 31067,
      "NODE_ID": 312101068,
      "STOP_ORD": 24,
      "LAT": 35.84440298
    },
    {
      "ROUTE_NAME": "83",
      "ROUTE_ORD": 25,
      "STOP_ID": 312101066,
      "LNG": 127.26903918,
      "BRT_SUBID": "0",
      "ROUTE_ID": 305001677,
      "STOP_NAME": "화심",
      "SERVICE_ID": 31065,
      "NODE_ID": 312101066,
      "STOP_ORD": 25,
      "LAT": 35.84438265
    },
    {
      "ROUTE_NAME": "83",
      "ROUTE_ORD": 26,
      "STOP_ID": 312101223,
      "LNG": 127.25577596,
      "BRT_SUBID": "0",
      "ROUTE_ID": 305001677,
      "STOP_NAME": "신왕리",
      "SERVICE_ID": 31222,
      "NODE_ID": 312101223,
      "STOP_ORD": 26,
      "LAT": 35.85611522
    },
    {
      "ROUTE_NAME": "83",
      "ROUTE_ORD": 27,
      "STOP_ID": 312101269,
      "LNG": 127.25236176,
      "BRT_SUBID": "0",
      "ROUTE_ID": 305001677,
      "STOP_NAME": "왕정리",
      "SERVICE_ID": 31268,
      "NODE_ID": 312101269,
      "STOP_ORD": 27,
      "LAT": 35.85984915
    },
    {
      "ROUTE_NAME": "83",
      "ROUTE_ORD": 28,
      "STOP_ID": 312101331,
      "LNG": 127.24722008,
      "BRT_SUBID": "0",
      "ROUTE_ID": 305001677,
      "STOP_NAME": "전북체육고 마수리",
      "SERVICE_ID": 31330,
      "NODE_ID": 312101331,
      "STOP_ORD": 28,
      "LAT": 35.8650848
    },
    {
      "ROUTE_NAME": "83",
      "ROUTE_ORD": 29,
      "STOP_ID": 312101286,
      "LNG": 127.24227084,
      "BRT_SUBID": "0",
      "ROUTE_ID": 305001677,
      "STOP_NAME": "용연마을",
      "SERVICE_ID": 31285,
      "NODE_ID": 312101286,
      "STOP_ORD": 29,
      "LAT": 35.86121946
    },
    {
      "ROUTE_NAME": "83",
      "ROUTE_ORD": 30,
      "STOP_ID": 312101276,
      "LNG": 127.23912268,
      "BRT_SUBID": "0",
      "ROUTE_ID": 305001677,
      "STOP_NAME": "인덕마을입구",
      "SERVICE_ID": 31275,
      "NODE_ID": 312101276,
      "STOP_ORD": 30,
      "LAT": 35.86022944
    },
    {
      "ROUTE_NAME": "83",
      "ROUTE_ORD": 31,
      "STOP_ID": 312101218,
      "LNG": 127.23316474,
      "BRT_SUBID": "0",
      "ROUTE_ID": 305001677,
      "STOP_NAME": "소양",
      "SERVICE_ID": 31217,
      "NODE_ID": 312101218,
      "STOP_ORD": 31,
      "LAT": 35.85581764
    },
    {
      "ROUTE_NAME": "83",
      "ROUTE_ORD": 32,
      "STOP_ID": 312101196,
      "LNG": 127.2291111,
      "BRT_SUBID": "0",
      "ROUTE_ID": 305001677,
      "STOP_NAME": "소양119지역대",
      "SERVICE_ID": 31195,
      "NODE_ID": 312101196,
      "STOP_ORD": 32,
      "LAT": 35.85458355
    },
    {
      "ROUTE_NAME": "83",
      "ROUTE_ORD": 33,
      "STOP_ID": 312101171,
      "LNG": 127.22516257,
      "BRT_SUBID": "0",
      "ROUTE_ID": 305001677,
      "STOP_NAME": "소양행정복지센터",
      "SERVICE_ID": 31170,
      "NODE_ID": 312101171,
      "STOP_ORD": 33,
      "LAT": 35.85349548
    }
  ]
}