{
  "resultList": [
    {
      "ROUTE_NAME": "19",
      "ROUTE_ORD": 1,
      "STOP_ID": 305032550,
      "LNG": 127.064192,
      "BRT_SUBID": "C",
      "ROUTE_ID": 305001803,
      "STOP_NAME": "월드컵경기장",
      "SERVICE_ID": 36484,
      "NODE_ID": 305032550,
      "STOP_ORD": 1,
      "LAT": 35.866274
    },
    {
      "ROUTE_NAME": "19",
      "ROUTE_ORD": 2,
      "STOP_ID": 306101346,
      "LNG": 127.063925,
      "BRT_SUBID": "C",
      "ROUTE_ID": 305001803,
      "STOP_NAME": "월드컵경기장남문",
      "SERVICE_ID": 31345,
      "NODE_ID": 306101346,
      "STOP_ORD": 2,
      "LAT": 35.866239
    },
    {
      "ROUTE_NAME": "19",
      "ROUTE_ORD": 3,
      "STOP_ID": 312032231,
      "LNG": 127.061884,
      "BRT_SUBID": "C",
      "ROUTE_ID": 305001803,
      "STOP_NAME": "원반월마을",
      "SERVICE_ID": 32231,
      "NODE_ID": 312032231,
      "STOP_ORD": 3,
      "LAT": 35.870514
    },
    {
      "ROUTE_NAME": "19",
      "ROUTE_ORD": 4,
      "STOP_ID": 305032183,
      "LNG": 127.068676,
      "BRT_SUBID": "C",
      "ROUTE_ID": 305001803,
      "STOP_NAME": "시외고속간이터미널",
      "SERVICE_ID": 32183,
      "NODE_ID": 305032183,
      "STOP_ORD": 4,
      "LAT": 35.87033
    },
    {
      "ROUTE_NAME": "19",
      "ROUTE_ORD": 5,
      "STOP_ID": 306101352,
      "LNG": 127.07484278,
      "BRT_SUBID": "C",
      "ROUTE_ID": 305001803,
      "STOP_NAME": "대한산업보건협회.푸른솔아파트",
      "SERVICE_ID": 31351,
      "NODE_ID": 306101352,
      "STOP_ORD": 5,
      "LAT": 35.86722828
    },
    {
      "ROUTE_NAME": "19",
      "ROUTE_ORD": 6,
      "STOP_ID": 306101353,
      "LNG": 127.077388,
      "BRT_SUBID": "C",
      "ROUTE_ID": 305001803,
      "STOP_NAME": "조촌초교",
      "SERVICE_ID": 31352,
      "NODE_ID": 306101353,
      "STOP_ORD": 6,
      "LAT": 35.8692523
    },
    {
      "ROUTE_NAME": "19",
      "ROUTE_ORD": 7,
      "STOP_ID": 306101407,
      "LNG": 127.07658384,
      "BRT_SUBID": "C",
      "ROUTE_ID": 305001803,
      "STOP_NAME": "여의동우체국전북은행",
      "SERVICE_ID": 31406,
      "NODE_ID": 306101407,
      "STOP_ORD": 7,
      "LAT": 35.8714162
    },
    {
      "ROUTE_NAME": "19",
      "ROUTE_ORD": 8,
      "STOP_ID": 306101425,
      "LNG": 127.07245896,
      "BRT_SUBID": "C",
      "ROUTE_ID": 305001803,
      "STOP_NAME": "반월주공아파트.오네뜨아파트",
      "SERVICE_ID": 31424,
      "NODE_ID": 306101425,
      "STOP_ORD": 8,
      "LAT": 35.87412321
    },
    {
      "ROUTE_NAME": "19",
      "ROUTE_ORD": 9,
      "STOP_ID": 306101426,
      "LNG": 127.07016309,
      "BRT_SUBID": "C",
      "ROUTE_ID": 305001803,
      "STOP_NAME": "반월동 삼오아파트",
      "SERVICE_ID": 31425,
      "NODE_ID": 306101426,
      "STOP_ORD": 9,
      "LAT": 35.8741509
    },
    {
      "ROUTE_NAME": "19",
      "ROUTE_ORD": 10,
      "STOP_ID": 305032291,
      "LNG": 127.06404241,
      "BRT_SUBID": "C",
      "ROUTE_ID": 305001803,
      "STOP_NAME": "반월동농협",
      "SERVICE_ID": 32291,
      "NODE_ID": 305032291,
      "STOP_ORD": 10,
      "LAT": 35.87422617
    },
    {
      "ROUTE_NAME": "19",
      "ROUTE_ORD": 11,
      "STOP_ID": 306101427,
      "LNG": 127.060559,
      "BRT_SUBID": "C",
      "ROUTE_ID": 305001803,
      "STOP_NAME": "전주IC",
      "SERVICE_ID": 31426,
      "NODE_ID": 306101427,
      "STOP_ORD": 11,
      "LAT": 35.874188
    },
    {
      "ROUTE_NAME": "19",
      "ROUTE_ORD": 12,
      "STOP_ID": 306101433,
      "LNG": 127.05519734,
      "BRT_SUBID": "C",
      "ROUTE_ID": 305001803,
      "STOP_NAME": "cbs기독교방송",
      "SERVICE_ID": 31432,
      "NODE_ID": 306101433,
      "STOP_ORD": 12,
      "LAT": 35.87469125
    },
    {
      "ROUTE_NAME": "19",
      "ROUTE_ORD": 13,
      "STOP_ID": 306101451,
      "LNG": 127.04841266,
      "BRT_SUBID": "C",
      "ROUTE_ID": 305001803,
      "STOP_NAME": "번영로용덕마을",
      "SERVICE_ID": 31450,
      "NODE_ID": 306101451,
      "STOP_ORD": 13,
      "LAT": 35.87570467
    },
    {
      "ROUTE_NAME": "19",
      "ROUTE_ORD": 14,
      "STOP_ID": 305032555,
      "LNG": 127.0409817,
      "BRT_SUBID": "C",
      "ROUTE_ID": 305001803,
      "STOP_NAME": "칠정경로당",
      "SERVICE_ID": 36489,
      "NODE_ID": 305032555,
      "STOP_ORD": 14,
      "LAT": 35.875484
    },
    {
      "ROUTE_NAME": "19",
      "ROUTE_ORD": 15,
      "STOP_ID": 305032556,
      "LNG": 127.0410481,
      "BRT_SUBID": "C",
      "ROUTE_ID": 305001803,
      "STOP_NAME": "칠정경로당",
      "SERVICE_ID": 36490,
      "NODE_ID": 305032556,
      "STOP_ORD": 15,
      "LAT": 35.8755113
    },
    {
      "ROUTE_NAME": "19",
      "ROUTE_ORD": 16,
      "STOP_ID": 306101469,
      "LNG": 127.03941419,
      "BRT_SUBID": "C",
      "ROUTE_ID": 305001803,
      "STOP_NAME": "대흥리",
      "SERVICE_ID": 31468,
      "NODE_ID": 306101469,
      "STOP_ORD": 16,
      "LAT": 35.87727818
    },
    {
      "ROUTE_NAME": "19",
      "ROUTE_ORD": 17,
      "STOP_ID": 306101463,
      "LNG": 127.03093526,
      "BRT_SUBID": "C",
      "ROUTE_ID": 305001803,
      "STOP_NAME": "성덕",
      "SERVICE_ID": 31462,
      "NODE_ID": 306101463,
      "STOP_ORD": 17,
      "LAT": 35.87645612
    },
    {
      "ROUTE_NAME": "19",
      "ROUTE_ORD": 18,
      "STOP_ID": 305032450,
      "LNG": 127.027322,
      "BRT_SUBID": "C",
      "ROUTE_ID": 305001803,
      "STOP_NAME": "이작마을",
      "SERVICE_ID": 36384,
      "NODE_ID": 305032450,
      "STOP_ORD": 18,
      "LAT": 35.8761667
    },
    {
      "ROUTE_NAME": "19",
      "ROUTE_ORD": 19,
      "STOP_ID": 306101454,
      "LNG": 127.0174152,
      "BRT_SUBID": "C",
      "ROUTE_ID": 305001803,
      "STOP_NAME": "남정리입구",
      "SERVICE_ID": 31453,
      "NODE_ID": 306101454,
      "STOP_ORD": 19,
      "LAT": 35.8759515
    },
    {
      "ROUTE_NAME": "19",
      "ROUTE_ORD": 20,
      "STOP_ID": 311101444,
      "LNG": 127.00516569,
      "BRT_SUBID": "C",
      "ROUTE_ID": 305001803,
      "STOP_NAME": "득룡교",
      "SERVICE_ID": 31443,
      "NODE_ID": 311101444,
      "STOP_ORD": 20,
      "LAT": 35.87545851
    },
    {
      "ROUTE_NAME": "19",
      "ROUTE_ORD": 21,
      "STOP_ID": 311101466,
      "LNG": 126.99907499,
      "BRT_SUBID": "C",
      "ROUTE_ID": 305001803,
      "STOP_NAME": "득자마을",
      "SERVICE_ID": 31465,
      "NODE_ID": 311101466,
      "STOP_ORD": 21,
      "LAT": 35.87693501
    },
    {
      "ROUTE_NAME": "19",
      "ROUTE_ORD": 22,
      "STOP_ID": 311101470,
      "LNG": 126.99593339,
      "BRT_SUBID": "C",
      "ROUTE_ID": 305001803,
      "STOP_NAME": "난산초교",
      "SERVICE_ID": 31469,
      "NODE_ID": 311101470,
      "STOP_ORD": 22,
      "LAT": 35.87732774
    },
    {
      "ROUTE_NAME": "19",
      "ROUTE_ORD": 23,
      "STOP_ID": 311101361,
      "LNG": 126.99172302,
      "BRT_SUBID": "C",
      "ROUTE_ID": 305001803,
      "STOP_NAME": "영천마을",
      "SERVICE_ID": 31360,
      "NODE_ID": 311101361,
      "STOP_ORD": 23,
      "LAT": 35.86786225
    },
    {
      "ROUTE_NAME": "19",
      "ROUTE_ORD": 24,
      "STOP_ID": 311101315,
      "LNG": 126.99011229,
      "BRT_SUBID": "C",
      "ROUTE_ID": 305001803,
      "STOP_NAME": "산지촌마을",
      "SERVICE_ID": 31314,
      "NODE_ID": 311101315,
      "STOP_ORD": 24,
      "LAT": 35.86400348
    },
    {
      "ROUTE_NAME": "19",
      "ROUTE_ORD": 25,
      "STOP_ID": 311101242,
      "LNG": 126.99059792,
      "BRT_SUBID": "C",
      "ROUTE_ID": 305001803,
      "STOP_NAME": "춘강",
      "SERVICE_ID": 31241,
      "NODE_ID": 311101242,
      "STOP_ORD": 25,
      "LAT": 35.85808315
    }
  ]
}