{
  "resultList": [
    {
      "ROUTE_NAME": "541",
      "ROUTE_ORD": 1,
      "STOP_ID": 312101917,
      "LNG": 127.13682793,
      "BRT_SUBID": "0",
      "ROUTE_ID": 305001204,
      "STOP_NAME": "신하리",
      "SERVICE_ID": 31916,
      "NODE_ID": 312101917,
      "STOP_ORD": 1,
      "LAT": 35.96657528
    },
    {
      "ROUTE_NAME": "541",
      "ROUTE_ORD": 2,
      "STOP_ID": 312101893,
      "LNG": 127.13781881,
      "BRT_SUBID": "0",
      "ROUTE_ID": 305001204,
      "STOP_NAME": "용암마을",
      "SERVICE_ID": 31892,
      "NODE_ID": 312101893,
      "STOP_ORD": 2,
      "LAT": 35.95704589
    },
    {
      "ROUTE_NAME": "541",
      "ROUTE_ORD": 3,
      "STOP_ID": 312101887,
      "LNG": 127.13946789,
      "BRT_SUBID": "0",
      "ROUTE_ID": 305001204,
      "STOP_NAME": "현대자동차출고장",
      "SERVICE_ID": 31886,
      "NODE_ID": 312101887,
      "STOP_ORD": 3,
      "LAT": 35.9555686
    },
    {
      "ROUTE_NAME": "541",
      "ROUTE_ORD": 4,
      "STOP_ID": 312101855,
      "LNG": 127.13940283,
      "BRT_SUBID": "0",
      "ROUTE_ID": 305001204,
      "STOP_NAME": "동아정밀공업",
      "SERVICE_ID": 31854,
      "NODE_ID": 312101855,
      "STOP_ORD": 4,
      "LAT": 35.9462808
    },
    {
      "ROUTE_NAME": "541",
      "ROUTE_ORD": 5,
      "STOP_ID": 312101824,
      "LNG": 127.13807327,
      "BRT_SUBID": "0",
      "ROUTE_ID": 305001204,
      "STOP_NAME": "주동",
      "SERVICE_ID": 31823,
      "NODE_ID": 312101824,
      "STOP_ORD": 5,
      "LAT": 35.93868322
    },
    {
      "ROUTE_NAME": "541",
      "ROUTE_ORD": 6,
      "STOP_ID": 312101811,
      "LNG": 127.14191982,
      "BRT_SUBID": "0",
      "ROUTE_ID": 305001204,
      "STOP_NAME": "주동교",
      "SERVICE_ID": 31810,
      "NODE_ID": 312101811,
      "STOP_ORD": 6,
      "LAT": 35.93512699
    },
    {
      "ROUTE_NAME": "541",
      "ROUTE_ORD": 7,
      "STOP_ID": 312101790,
      "LNG": 127.14394814,
      "BRT_SUBID": "0",
      "ROUTE_ID": 305001204,
      "STOP_NAME": "배을마을입구",
      "SERVICE_ID": 31789,
      "NODE_ID": 312101790,
      "STOP_ORD": 7,
      "LAT": 35.93168
    },
    {
      "ROUTE_NAME": "541",
      "ROUTE_ORD": 8,
      "STOP_ID": 312101801,
      "LNG": 127.15166183,
      "BRT_SUBID": "0",
      "ROUTE_ID": 305001204,
      "STOP_NAME": "신중리",
      "SERVICE_ID": 31800,
      "NODE_ID": 312101801,
      "STOP_ORD": 8,
      "LAT": 35.93396888
    },
    {
      "ROUTE_NAME": "541",
      "ROUTE_ORD": 9,
      "STOP_ID": 312101806,
      "LNG": 127.15571629,
      "BRT_SUBID": "0",
      "ROUTE_ID": 305001204,
      "STOP_NAME": "봉동신기마을",
      "SERVICE_ID": 31805,
      "NODE_ID": 312101806,
      "STOP_ORD": 9,
      "LAT": 35.93479253
    },
    {
      "ROUTE_NAME": "541",
      "ROUTE_ORD": 10,
      "STOP_ID": 312101814,
      "LNG": 127.1599571,
      "BRT_SUBID": "0",
      "ROUTE_ID": 305001204,
      "STOP_NAME": "완주중",
      "SERVICE_ID": 31813,
      "NODE_ID": 312101814,
      "STOP_ORD": 10,
      "LAT": 35.9356299
    },
    {
      "ROUTE_NAME": "541",
      "ROUTE_ORD": 11,
      "STOP_ID": 312101816,
      "LNG": 127.16169754,
      "BRT_SUBID": "0",
      "ROUTE_ID": 305001204,
      "STOP_NAME": "구봉동읍사무소",
      "SERVICE_ID": 31815,
      "NODE_ID": 312101816,
      "STOP_ORD": 11,
      "LAT": 35.93646965
    },
    {
      "ROUTE_NAME": "541",
      "ROUTE_ORD": 12,
      "STOP_ID": 312101825,
      "LNG": 127.16668166,
      "BRT_SUBID": "0",
      "ROUTE_ID": 305001204,
      "STOP_NAME": "봉동농협",
      "SERVICE_ID": 31824,
      "NODE_ID": 312101825,
      "STOP_ORD": 12,
      "LAT": 35.93872548
    },
    {
      "ROUTE_NAME": "541",
      "ROUTE_ORD": 13,
      "STOP_ID": 312101820,
      "LNG": 127.16815446,
      "BRT_SUBID": "0",
      "ROUTE_ID": 305001204,
      "STOP_NAME": "봉동전통시장",
      "SERVICE_ID": 31819,
      "NODE_ID": 312101820,
      "STOP_ORD": 13,
      "LAT": 35.93783158
    },
    {
      "ROUTE_NAME": "541",
      "ROUTE_ORD": 14,
      "STOP_ID": 312101792,
      "LNG": 127.168542,
      "BRT_SUBID": "0",
      "ROUTE_ID": 305001204,
      "STOP_NAME": "보상마을",
      "SERVICE_ID": 31791,
      "NODE_ID": 312101792,
      "STOP_ORD": 14,
      "LAT": 35.9319952
    },
    {
      "ROUTE_NAME": "541",
      "ROUTE_ORD": 15,
      "STOP_ID": 312101768,
      "LNG": 127.16602905,
      "BRT_SUBID": "0",
      "ROUTE_ID": 305001204,
      "STOP_NAME": "완주경찰서",
      "SERVICE_ID": 31767,
      "NODE_ID": 312101768,
      "STOP_ORD": 15,
      "LAT": 35.92743643
    },
    {
      "ROUTE_NAME": "541",
      "ROUTE_ORD": 16,
      "STOP_ID": 312101752,
      "LNG": 127.1653387,
      "BRT_SUBID": "0",
      "ROUTE_ID": 305001204,
      "STOP_NAME": "마그내다리",
      "SERVICE_ID": 31751,
      "NODE_ID": 312101752,
      "STOP_ORD": 16,
      "LAT": 35.9250368
    },
    {
      "ROUTE_NAME": "541",
      "ROUTE_ORD": 17,
      "STOP_ID": 312101728,
      "LNG": 127.16752884,
      "BRT_SUBID": "0",
      "ROUTE_ID": 305001204,
      "STOP_NAME": "하이트맥주",
      "SERVICE_ID": 31727,
      "NODE_ID": 312101728,
      "STOP_ORD": 17,
      "LAT": 35.92041312
    },
    {
      "ROUTE_NAME": "541",
      "ROUTE_ORD": 18,
      "STOP_ID": 312101689,
      "LNG": 127.16194048,
      "BRT_SUBID": "0",
      "ROUTE_ID": 305001204,
      "STOP_NAME": "서당리",
      "SERVICE_ID": 31688,
      "NODE_ID": 312101689,
      "STOP_ORD": 18,
      "LAT": 35.91296292
    },
    {
      "ROUTE_NAME": "541",
      "ROUTE_ORD": 19,
      "STOP_ID": 312101662,
      "LNG": 127.15814036,
      "BRT_SUBID": "0",
      "ROUTE_ID": 305001204,
      "STOP_NAME": "구만리",
      "SERVICE_ID": 31661,
      "NODE_ID": 312101662,
      "STOP_ORD": 19,
      "LAT": 35.90907386
    },
    {
      "ROUTE_NAME": "541",
      "ROUTE_ORD": 20,
      "STOP_ID": 312101637,
      "LNG": 127.1565683,
      "BRT_SUBID": "0",
      "ROUTE_ID": 305001204,
      "STOP_NAME": "복합문화지구누에.용봉초교",
      "SERVICE_ID": 31636,
      "NODE_ID": 312101637,
      "STOP_ORD": 20,
      "LAT": 35.904808
    },
    {
      "ROUTE_NAME": "541",
      "ROUTE_ORD": 21,
      "STOP_ID": 312101622,
      "LNG": 127.1560683,
      "BRT_SUBID": "0",
      "ROUTE_ID": 305001204,
      "STOP_NAME": "벽성대",
      "SERVICE_ID": 31621,
      "NODE_ID": 312101622,
      "STOP_ORD": 21,
      "LAT": 35.89917939
    },
    {
      "ROUTE_NAME": "541",
      "ROUTE_ORD": 22,
      "STOP_ID": 312101562,
      "LNG": 127.15617155,
      "BRT_SUBID": "0",
      "ROUTE_ID": 305001204,
      "STOP_NAME": "상운리입구",
      "SERVICE_ID": 31561,
      "NODE_ID": 312101562,
      "STOP_ORD": 22,
      "LAT": 35.88886314
    },
    {
      "ROUTE_NAME": "541",
      "ROUTE_ORD": 23,
      "STOP_ID": 312101532,
      "LNG": 127.15601684,
      "BRT_SUBID": "0",
      "ROUTE_ID": 305001204,
      "STOP_NAME": "운교마을",
      "SERVICE_ID": 31531,
      "NODE_ID": 312101532,
      "STOP_ORD": 23,
      "LAT": 35.88433656
    },
    {
      "ROUTE_NAME": "541",
      "ROUTE_ORD": 24,
      "STOP_ID": 312101507,
      "LNG": 127.15566101,
      "BRT_SUBID": "0",
      "ROUTE_ID": 305001204,
      "STOP_NAME": "용진",
      "SERVICE_ID": 31506,
      "NODE_ID": 312101507,
      "STOP_ORD": 24,
      "LAT": 35.88140249
    },
    {
      "ROUTE_NAME": "541",
      "ROUTE_ORD": 25,
      "STOP_ID": 312101461,
      "LNG": 127.15715693,
      "BRT_SUBID": "0",
      "ROUTE_ID": 305001204,
      "STOP_NAME": "소양교",
      "SERVICE_ID": 31460,
      "NODE_ID": 312101461,
      "STOP_ORD": 25,
      "LAT": 35.87612216
    },
    {
      "ROUTE_NAME": "541",
      "ROUTE_ORD": 26,
      "STOP_ID": 306101406,
      "LNG": 127.15812863,
      "BRT_SUBID": "0",
      "ROUTE_ID": 305001204,
      "STOP_NAME": "초포삼거리",
      "SERVICE_ID": 31405,
      "NODE_ID": 306101406,
      "STOP_ORD": 26,
      "LAT": 35.87126792
    },
    {
      "ROUTE_NAME": "541",
      "ROUTE_ORD": 27,
      "STOP_ID": 306101375,
      "LNG": 127.160048,
      "BRT_SUBID": "0",
      "ROUTE_ID": 305001204,
      "STOP_NAME": "배미실새터",
      "SERVICE_ID": 31374,
      "NODE_ID": 306101375,
      "STOP_ORD": 27,
      "LAT": 35.867997
    },
    {
      "ROUTE_NAME": "541",
      "ROUTE_ORD": 28,
      "STOP_ID": 306101335,
      "LNG": 127.16027593,
      "BRT_SUBID": "0",
      "ROUTE_ID": 305001204,
      "STOP_NAME": "전북자동차학원",
      "SERVICE_ID": 31334,
      "NODE_ID": 306101335,
      "STOP_ORD": 28,
      "LAT": 35.86564054
    },
    {
      "ROUTE_NAME": "541",
      "ROUTE_ORD": 29,
      "STOP_ID": 306101293,
      "LNG": 127.15972862,
      "BRT_SUBID": "0",
      "ROUTE_ID": 305001204,
      "STOP_NAME": "호성중",
      "SERVICE_ID": 31292,
      "NODE_ID": 306101293,
      "STOP_ORD": 29,
      "LAT": 35.86262591
    },
    {
      "ROUTE_NAME": "541",
      "ROUTE_ORD": 30,
      "STOP_ID": 306101252,
      "LNG": 127.158203,
      "BRT_SUBID": "0",
      "ROUTE_ID": 305001204,
      "STOP_NAME": "기린원",
      "SERVICE_ID": 31251,
      "NODE_ID": 306101252,
      "STOP_ORD": 30,
      "LAT": 35.858764
    },
    {
      "ROUTE_NAME": "541",
      "ROUTE_ORD": 31,
      "STOP_ID": 306101193,
      "LNG": 127.15760015,
      "BRT_SUBID": "0",
      "ROUTE_ID": 305001204,
      "STOP_NAME": "기린중",
      "SERVICE_ID": 31192,
      "NODE_ID": 306101193,
      "STOP_ORD": 31,
      "LAT": 35.85455441
    },
    {
      "ROUTE_NAME": "541",
      "ROUTE_ORD": 32,
      "STOP_ID": 306101110,
      "LNG": 127.1588352,
      "BRT_SUBID": "0",
      "ROUTE_ID": 305001204,
      "STOP_NAME": "전주역첫마중길",
      "SERVICE_ID": 31109,
      "NODE_ID": 306101110,
      "STOP_ORD": 32,
      "LAT": 35.8488499
    },
    {
      "ROUTE_NAME": "541",
      "ROUTE_ORD": 33,
      "STOP_ID": 306101092,
      "LNG": 127.155193,
      "BRT_SUBID": "0",
      "ROUTE_ID": 305001204,
      "STOP_NAME": "덕진보건소.한국전기안전공사전북본부",
      "SERVICE_ID": 31091,
      "NODE_ID": 306101092,
      "STOP_ORD": 33,
      "LAT": 35.847489
    },
    {
      "ROUTE_NAME": "541",
      "ROUTE_ORD": 34,
      "STOP_ID": 306101080,
      "LNG": 127.15287844,
      "BRT_SUBID": "0",
      "ROUTE_ID": 305001204,
      "STOP_NAME": "명주골네거리.대자인병원",
      "SERVICE_ID": 31079,
      "NODE_ID": 306101080,
      "STOP_ORD": 34,
      "LAT": 35.84548171
    },
    {
      "ROUTE_NAME": "541",
      "ROUTE_ORD": 35,
      "STOP_ID": 306101048,
      "LNG": 127.15200998,
      "BRT_SUBID": "0",
      "ROUTE_ID": 305001204,
      "STOP_NAME": "인후위브어울림아파트",
      "SERVICE_ID": 31047,
      "NODE_ID": 306101048,
      "STOP_ORD": 35,
      "LAT": 35.8426526
    },
    {
      "ROUTE_NAME": "541",
      "ROUTE_ORD": 36,
      "STOP_ID": 306100992,
      "LNG": 127.15075133,
      "BRT_SUBID": "0",
      "ROUTE_ID": 305001204,
      "STOP_NAME": "동중학교",
      "SERVICE_ID": 30991,
      "NODE_ID": 306100992,
      "STOP_ORD": 36,
      "LAT": 35.83782996
    },
    {
      "ROUTE_NAME": "541",
      "ROUTE_ORD": 37,
      "STOP_ID": 306100943,
      "LNG": 127.14759274,
      "BRT_SUBID": "0",
      "ROUTE_ID": 305001204,
      "STOP_NAME": "전주생명과학고등학교",
      "SERVICE_ID": 30943,
      "NODE_ID": 306100943,
      "STOP_ORD": 37,
      "LAT": 35.83506423
    },
    {
      "ROUTE_NAME": "541",
      "ROUTE_ORD": 38,
      "STOP_ID": 306100898,
      "LNG": 127.14490334,
      "BRT_SUBID": "0",
      "ROUTE_ID": 305001204,
      "STOP_NAME": "모래내시장",
      "SERVICE_ID": 30898,
      "NODE_ID": 306100898,
      "STOP_ORD": 38,
      "LAT": 35.83301705
    },
    {
      "ROUTE_NAME": "541",
      "ROUTE_ORD": 39,
      "STOP_ID": 306100827,
      "LNG": 127.14283256,
      "BRT_SUBID": "0",
      "ROUTE_ID": 305001204,
      "STOP_NAME": "기린대로현대병원",
      "SERVICE_ID": 30827,
      "NODE_ID": 306100827,
      "STOP_ORD": 39,
      "LAT": 35.82894399
    },
    {
      "ROUTE_NAME": "541",
      "ROUTE_ORD": 40,
      "STOP_ID": 306100781,
      "LNG": 127.1465455,
      "BRT_SUBID": "0",
      "ROUTE_ID": 305001204,
      "STOP_NAME": "대우빌딩",
      "SERVICE_ID": 30781,
      "NODE_ID": 306100781,
      "STOP_ORD": 40,
      "LAT": 35.82578923
    },
    {
      "ROUTE_NAME": "541",
      "ROUTE_ORD": 41,
      "STOP_ID": 306100731,
      "LNG": 127.14967928,
      "BRT_SUBID": "0",
      "ROUTE_ID": 305001204,
      "STOP_NAME": "전주시청.노송동시외버스정류소",
      "SERVICE_ID": 30731,
      "NODE_ID": 306100731,
      "STOP_ORD": 41,
      "LAT": 35.82307474
    },
    {
      "ROUTE_NAME": "541",
      "ROUTE_ORD": 42,
      "STOP_ID": 305100703,
      "LNG": 127.15228,
      "BRT_SUBID": "0",
      "ROUTE_ID": 305001204,
      "STOP_NAME": "기린대로 병무청",
      "SERVICE_ID": 30703,
      "NODE_ID": 305100703,
      "STOP_ORD": 42,
      "LAT": 35.82096
    },
    {
      "ROUTE_NAME": "541",
      "ROUTE_ORD": 43,
      "STOP_ID": 305100681,
      "LNG": 127.15058311,
      "BRT_SUBID": "0",
      "ROUTE_ID": 305001204,
      "STOP_NAME": "동부시장",
      "SERVICE_ID": 30681,
      "NODE_ID": 305100681,
      "STOP_ORD": 43,
      "LAT": 35.81983521
    },
    {
      "ROUTE_NAME": "541",
      "ROUTE_ORD": 44,
      "STOP_ID": 305100645,
      "LNG": 127.147313,
      "BRT_SUBID": "0",
      "ROUTE_ID": 305001204,
      "STOP_NAME": "팔달로 예술회관",
      "SERVICE_ID": 30645,
      "NODE_ID": 305100645,
      "STOP_ORD": 44,
      "LAT": 35.817028
    },
    {
      "ROUTE_NAME": "541",
      "ROUTE_ORD": 45,
      "STOP_ID": 305100628,
      "LNG": 127.14699101,
      "BRT_SUBID": "0",
      "ROUTE_ID": 305001204,
      "STOP_NAME": "전라감영.완산경찰서",
      "SERVICE_ID": 30628,
      "NODE_ID": 305100628,
      "STOP_ORD": 45,
      "LAT": 35.81594824
    },
    {
      "ROUTE_NAME": "541",
      "ROUTE_ORD": 46,
      "STOP_ID": 305100611,
      "LNG": 127.14274571,
      "BRT_SUBID": "0",
      "ROUTE_ID": 305001204,
      "STOP_NAME": "전주시보건소앞",
      "SERVICE_ID": 30611,
      "NODE_ID": 305100611,
      "STOP_ORD": 46,
      "LAT": 35.81515762
    },
    {
      "ROUTE_NAME": "541",
      "ROUTE_ORD": 47,
      "STOP_ID": 305100568,
      "LNG": 127.13903665,
      "BRT_SUBID": "0",
      "ROUTE_ID": 305001204,
      "STOP_NAME": "완산동시외버스정류소",
      "SERVICE_ID": 30568,
      "NODE_ID": 305100568,
      "STOP_ORD": 47,
      "LAT": 35.81225757
    },
    {
      "ROUTE_NAME": "541",
      "ROUTE_ORD": 48,
      "STOP_ID": 305100538,
      "LNG": 127.135618,
      "BRT_SUBID": "0",
      "ROUTE_ID": 305001204,
      "STOP_NAME": "용머리고개.완산동주민센터",
      "SERVICE_ID": 30538,
      "NODE_ID": 305100538,
      "STOP_ORD": 48,
      "LAT": 35.808837
    },
    {
      "ROUTE_NAME": "541",
      "ROUTE_ORD": 49,
      "STOP_ID": 305100525,
      "LNG": 127.130662,
      "BRT_SUBID": "0",
      "ROUTE_ID": 305001204,
      "STOP_NAME": "효자주공3단지",
      "SERVICE_ID": 30525,
      "NODE_ID": 305100525,
      "STOP_ORD": 49,
      "LAT": 35.807223
    },
    {
      "ROUTE_NAME": "541",
      "ROUTE_ORD": 50,
      "STOP_ID": 305100509,
      "LNG": 127.125855,
      "BRT_SUBID": "0",
      "ROUTE_ID": 305001204,
      "STOP_NAME": "서부시장",
      "SERVICE_ID": 30509,
      "NODE_ID": 305100509,
      "STOP_ORD": 50,
      "LAT": 35.805948
    },
    {
      "ROUTE_NAME": "541",
      "ROUTE_ORD": 51,
      "STOP_ID": 305100514,
      "LNG": 127.120957,
      "BRT_SUBID": "0",
      "ROUTE_ID": 305001204,
      "STOP_NAME": "효자광장.전주시청소년상담센터",
      "SERVICE_ID": 30514,
      "NODE_ID": 305100514,
      "STOP_ORD": 51,
      "LAT": 35.806287
    },
    {
      "ROUTE_NAME": "541",
      "ROUTE_ORD": 52,
      "STOP_ID": 305100520,
      "LNG": 127.1175812,
      "BRT_SUBID": "0",
      "ROUTE_ID": 305001204,
      "STOP_NAME": "안행교",
      "SERVICE_ID": 30520,
      "NODE_ID": 305100520,
      "STOP_ORD": 52,
      "LAT": 35.80670585
    },
    {
      "ROUTE_NAME": "541",
      "ROUTE_ORD": 53,
      "STOP_ID": 305100553,
      "LNG": 127.11475989,
      "BRT_SUBID": "0",
      "ROUTE_ID": 305001204,
      "STOP_NAME": "서전주중",
      "SERVICE_ID": 30553,
      "NODE_ID": 305100553,
      "STOP_ORD": 53,
      "LAT": 35.81107333
    },
    {
      "ROUTE_NAME": "541",
      "ROUTE_ORD": 54,
      "STOP_ID": 305100576,
      "LNG": 127.11388786,
      "BRT_SUBID": "0",
      "ROUTE_ID": 305001204,
      "STOP_NAME": "거마평로이동교",
      "SERVICE_ID": 30576,
      "NODE_ID": 305100576,
      "STOP_ORD": 54,
      "LAT": 35.81288005
    },
    {
      "ROUTE_NAME": "541",
      "ROUTE_ORD": 55,
      "STOP_ID": 305100592,
      "LNG": 127.1080203,
      "BRT_SUBID": "0",
      "ROUTE_ID": 305001204,
      "STOP_NAME": "효자SK리더스뷰",
      "SERVICE_ID": 30592,
      "NODE_ID": 305100592,
      "STOP_ORD": 55,
      "LAT": 35.81381547
    },
    {
      "ROUTE_NAME": "541",
      "ROUTE_ORD": 56,
      "STOP_ID": 305102001,
      "LNG": 127.103754,
      "BRT_SUBID": "0",
      "ROUTE_ID": 305001204,
      "STOP_NAME": "전북선거관리위원회",
      "SERVICE_ID": 32001,
      "NODE_ID": 305102001,
      "STOP_ORD": 56,
      "LAT": 35.813757
    },
    {
      "ROUTE_NAME": "541",
      "ROUTE_ORD": 57,
      "STOP_ID": 305100591,
      "LNG": 127.09796491,
      "BRT_SUBID": "0",
      "ROUTE_ID": 305001204,
      "STOP_NAME": "호남제일고",
      "SERVICE_ID": 30591,
      "NODE_ID": 305100591,
      "STOP_ORD": 57,
      "LAT": 35.81379234
    },
    {
      "ROUTE_NAME": "541",
      "ROUTE_ORD": 58,
      "STOP_ID": 305100630,
      "LNG": 127.094854,
      "BRT_SUBID": "0",
      "ROUTE_ID": 305001204,
      "STOP_NAME": "영생고 전주대사대부고",
      "SERVICE_ID": 30630,
      "NODE_ID": 305100630,
      "STOP_ORD": 58,
      "LAT": 35.816115
    },
    {
      "ROUTE_NAME": "541",
      "ROUTE_ORD": 59,
      "STOP_ID": 305100651,
      "LNG": 127.092247,
      "BRT_SUBID": "0",
      "ROUTE_ID": 305001204,
      "STOP_NAME": "전주대학교",
      "SERVICE_ID": 30651,
      "NODE_ID": 305100651,
      "STOP_ORD": 59,
      "LAT": 35.81862
    }
  ]
}