{
  "resultList": [
    {
      "ROUTE_NAME": "104",
      "ROUTE_ORD": 1,
      "STOP_ID": 305132105,
      "LNG": 127.1226872,
      "BRT_SUBID": "0",
      "ROUTE_ID": 305001094,
      "STOP_NAME": "평화동종점",
      "SERVICE_ID": 32105,
      "NODE_ID": 305132105,
      "STOP_ORD": 1,
      "LAT": 35.77802464
    },
    {
      "ROUTE_NAME": "104",
      "ROUTE_ORD": 2,
      "STOP_ID": 305132106,
      "LNG": 127.1279211,
      "BRT_SUBID": "0",
      "ROUTE_ID": 305001094,
      "STOP_NAME": "문정마을",
      "SERVICE_ID": 32106,
      "NODE_ID": 305132106,
      "STOP_ORD": 2,
      "LAT": 35.77781936
    },
    {
      "ROUTE_NAME": "104",
      "ROUTE_ORD": 3,
      "STOP_ID": 305100279,
      "LNG": 127.129321,
      "BRT_SUBID": "0",
      "ROUTE_ID": 305001094,
      "STOP_NAME": "전주교도소",
      "SERVICE_ID": 30279,
      "NODE_ID": 305100279,
      "STOP_ORD": 3,
      "LAT": 35.779327
    },
    {
      "ROUTE_NAME": "104",
      "ROUTE_ORD": 4,
      "STOP_ID": 305100293,
      "LNG": 127.12998758,
      "BRT_SUBID": "0",
      "ROUTE_ID": 305001094,
      "STOP_NAME": "평화그린1차아파트",
      "SERVICE_ID": 30293,
      "NODE_ID": 305100293,
      "STOP_ORD": 4,
      "LAT": 35.78420517
    },
    {
      "ROUTE_NAME": "104",
      "ROUTE_ORD": 5,
      "STOP_ID": 305100300,
      "LNG": 127.134111,
      "BRT_SUBID": "0",
      "ROUTE_ID": 305001094,
      "STOP_NAME": "평화그린2차아파트",
      "SERVICE_ID": 30300,
      "NODE_ID": 305100300,
      "STOP_ORD": 5,
      "LAT": 35.785667
    },
    {
      "ROUTE_NAME": "104",
      "ROUTE_ORD": 6,
      "STOP_ID": 305100314,
      "LNG": 127.13073783,
      "BRT_SUBID": "0",
      "ROUTE_ID": 305001094,
      "STOP_NAME": "평화삼성강남아파트",
      "SERVICE_ID": 30314,
      "NODE_ID": 305100314,
      "STOP_ORD": 6,
      "LAT": 35.78844676
    },
    {
      "ROUTE_NAME": "104",
      "ROUTE_ORD": 7,
      "STOP_ID": 305100335,
      "LNG": 127.13177488,
      "BRT_SUBID": "0",
      "ROUTE_ID": 305001094,
      "STOP_NAME": "주공4단지.꽃밭정이아파트",
      "SERVICE_ID": 30335,
      "NODE_ID": 305100335,
      "STOP_ORD": 7,
      "LAT": 35.79175305
    },
    {
      "ROUTE_NAME": "104",
      "ROUTE_ORD": 8,
      "STOP_ID": 305100374,
      "LNG": 127.130372,
      "BRT_SUBID": "0",
      "ROUTE_ID": 305001094,
      "STOP_NAME": "삼천우성아파트",
      "SERVICE_ID": 30374,
      "NODE_ID": 305100374,
      "STOP_ORD": 8,
      "LAT": 35.79518
    },
    {
      "ROUTE_NAME": "104",
      "ROUTE_ORD": 9,
      "STOP_ID": 305100351,
      "LNG": 127.12415305,
      "BRT_SUBID": "0",
      "ROUTE_ID": 305001094,
      "STOP_NAME": "양지중학교",
      "SERVICE_ID": 30351,
      "NODE_ID": 305100351,
      "STOP_ORD": 9,
      "LAT": 35.79380545
    },
    {
      "ROUTE_NAME": "104",
      "ROUTE_ORD": 10,
      "STOP_ID": 305100346,
      "LNG": 127.12222405,
      "BRT_SUBID": "0",
      "ROUTE_ID": 305001094,
      "STOP_NAME": "평화동신아파트",
      "SERVICE_ID": 30346,
      "NODE_ID": 305100346,
      "STOP_ORD": 10,
      "LAT": 35.79336774
    },
    {
      "ROUTE_NAME": "104",
      "ROUTE_ORD": 11,
      "STOP_ID": 305100339,
      "LNG": 127.117669,
      "BRT_SUBID": "0",
      "ROUTE_ID": 305001094,
      "STOP_NAME": "한솔재활요양병원",
      "SERVICE_ID": 30339,
      "NODE_ID": 305100339,
      "STOP_ORD": 11,
      "LAT": 35.792599
    },
    {
      "ROUTE_NAME": "104",
      "ROUTE_ORD": 12,
      "STOP_ID": 305100354,
      "LNG": 127.116972,
      "BRT_SUBID": "0",
      "ROUTE_ID": 305001094,
      "STOP_NAME": "삼천흥건1차아파트",
      "SERVICE_ID": 30354,
      "NODE_ID": 305100354,
      "STOP_ORD": 12,
      "LAT": 35.79414
    },
    {
      "ROUTE_NAME": "104",
      "ROUTE_ORD": 13,
      "STOP_ID": 305100378,
      "LNG": 127.117015,
      "BRT_SUBID": "0",
      "ROUTE_ID": 305001094,
      "STOP_NAME": "삼천흥건2차아파트",
      "SERVICE_ID": 30378,
      "NODE_ID": 305100378,
      "STOP_ORD": 13,
      "LAT": 35.796163
    },
    {
      "ROUTE_NAME": "104",
      "ROUTE_ORD": 14,
      "STOP_ID": 305100426,
      "LNG": 127.11701353,
      "BRT_SUBID": "0",
      "ROUTE_ID": 305001094,
      "STOP_NAME": "풍남중",
      "SERVICE_ID": 30426,
      "NODE_ID": 305100426,
      "STOP_ORD": 14,
      "LAT": 35.79917526
    },
    {
      "ROUTE_NAME": "104",
      "ROUTE_ORD": 15,
      "STOP_ID": 305100475,
      "LNG": 127.116897,
      "BRT_SUBID": "0",
      "ROUTE_ID": 305001094,
      "STOP_NAME": "상산고",
      "SERVICE_ID": 30475,
      "NODE_ID": 305100475,
      "STOP_ORD": 15,
      "LAT": 35.803912
    },
    {
      "ROUTE_NAME": "104",
      "ROUTE_ORD": 16,
      "STOP_ID": 305100507,
      "LNG": 127.11285154,
      "BRT_SUBID": "0",
      "ROUTE_ID": 305001094,
      "STOP_NAME": "효자롯데아파트",
      "SERVICE_ID": 30507,
      "NODE_ID": 305100507,
      "STOP_ORD": 16,
      "LAT": 35.80587545
    },
    {
      "ROUTE_NAME": "104",
      "ROUTE_ORD": 17,
      "STOP_ID": 305100488,
      "LNG": 127.107847,
      "BRT_SUBID": "0",
      "ROUTE_ID": 305001094,
      "STOP_NAME": "우전초교",
      "SERVICE_ID": 30488,
      "NODE_ID": 305100488,
      "STOP_ORD": 17,
      "LAT": 35.804469
    },
    {
      "ROUTE_NAME": "104",
      "ROUTE_ORD": 18,
      "STOP_ID": 305100519,
      "LNG": 127.1037249,
      "BRT_SUBID": "0",
      "ROUTE_ID": 305001094,
      "STOP_NAME": "휴먼시아6단지.LH전북지역본부",
      "SERVICE_ID": 30519,
      "NODE_ID": 305100519,
      "STOP_ORD": 18,
      "LAT": 35.8062129
    },
    {
      "ROUTE_NAME": "104",
      "ROUTE_ORD": 19,
      "STOP_ID": 305100528,
      "LNG": 127.100363,
      "BRT_SUBID": "0",
      "ROUTE_ID": 305001094,
      "STOP_NAME": "효자휴먼시아 2.3단지",
      "SERVICE_ID": 30528,
      "NODE_ID": 305100528,
      "STOP_ORD": 19,
      "LAT": 35.808741
    },
    {
      "ROUTE_NAME": "104",
      "ROUTE_ORD": 20,
      "STOP_ID": 305100501,
      "LNG": 127.097193,
      "BRT_SUBID": "0",
      "ROUTE_ID": 305001094,
      "STOP_NAME": "데시앙아이린정문",
      "SERVICE_ID": 30501,
      "NODE_ID": 305100501,
      "STOP_ORD": 20,
      "LAT": 35.805348
    },
    {
      "ROUTE_NAME": "104",
      "ROUTE_ORD": 21,
      "STOP_ID": 305032463,
      "LNG": 127.0957418,
      "BRT_SUBID": "0",
      "ROUTE_ID": 305001094,
      "STOP_NAME": "비전대학교입구",
      "SERVICE_ID": 36397,
      "NODE_ID": 305032463,
      "STOP_ORD": 21,
      "LAT": 35.806547
    },
    {
      "ROUTE_NAME": "104",
      "ROUTE_ORD": 22,
      "STOP_ID": 305032180,
      "LNG": 127.094141,
      "BRT_SUBID": "0",
      "ROUTE_ID": 305001094,
      "STOP_NAME": "동암차돌학교",
      "SERVICE_ID": 32180,
      "NODE_ID": 305032180,
      "STOP_ORD": 22,
      "LAT": 35.810855
    },
    {
      "ROUTE_NAME": "104",
      "ROUTE_ORD": 23,
      "STOP_ID": 305032182,
      "LNG": 127.0942,
      "BRT_SUBID": "0",
      "ROUTE_ID": 305001094,
      "STOP_NAME": "전주대학교정문",
      "SERVICE_ID": 32182,
      "NODE_ID": 305032182,
      "STOP_ORD": 23,
      "LAT": 35.812484
    },
    {
      "ROUTE_NAME": "104",
      "ROUTE_ORD": 24,
      "STOP_ID": 305100630,
      "LNG": 127.094854,
      "BRT_SUBID": "0",
      "ROUTE_ID": 305001094,
      "STOP_NAME": "영생고 전주대사대부고",
      "SERVICE_ID": 30630,
      "NODE_ID": 305100630,
      "STOP_ORD": 24,
      "LAT": 35.816115
    },
    {
      "ROUTE_NAME": "104",
      "ROUTE_ORD": 25,
      "STOP_ID": 312032097,
      "LNG": 127.09928,
      "BRT_SUBID": "0",
      "ROUTE_ID": 305001094,
      "STOP_NAME": "농소전원마을",
      "SERVICE_ID": 32097,
      "NODE_ID": 312032097,
      "STOP_ORD": 25,
      "LAT": 35.818664
    },
    {
      "ROUTE_NAME": "104",
      "ROUTE_ORD": 26,
      "STOP_ID": 305100659,
      "LNG": 127.1033784,
      "BRT_SUBID": "0",
      "ROUTE_ID": 305001094,
      "STOP_NAME": "유로병원",
      "SERVICE_ID": 30659,
      "NODE_ID": 305100659,
      "STOP_ORD": 26,
      "LAT": 35.8189057
    },
    {
      "ROUTE_NAME": "104",
      "ROUTE_ORD": 27,
      "STOP_ID": 305100661,
      "LNG": 127.107954,
      "BRT_SUBID": "0",
      "ROUTE_ID": 305001094,
      "STOP_NAME": "효자로전북도청",
      "SERVICE_ID": 30661,
      "NODE_ID": 305100661,
      "STOP_ORD": 27,
      "LAT": 35.818896
    },
    {
      "ROUTE_NAME": "104",
      "ROUTE_ORD": 28,
      "STOP_ID": 305100658,
      "LNG": 127.1143533,
      "BRT_SUBID": "0",
      "ROUTE_ID": 305001094,
      "STOP_NAME": "효자다리",
      "SERVICE_ID": 30658,
      "NODE_ID": 305100658,
      "STOP_ORD": 28,
      "LAT": 35.8188954
    },
    {
      "ROUTE_NAME": "104",
      "ROUTE_ORD": 29,
      "STOP_ID": 305100710,
      "LNG": 127.116339,
      "BRT_SUBID": "0",
      "ROUTE_ID": 305001094,
      "STOP_NAME": "중화산2동주민센터",
      "SERVICE_ID": 30710,
      "NODE_ID": 305100710,
      "STOP_ORD": 29,
      "LAT": 35.820147
    },
    {
      "ROUTE_NAME": "104",
      "ROUTE_ORD": 30,
      "STOP_ID": 305100759,
      "LNG": 127.11607978,
      "BRT_SUBID": "0",
      "ROUTE_ID": 305001094,
      "STOP_NAME": "현대에코르아파트",
      "SERVICE_ID": 30759,
      "NODE_ID": 305100759,
      "STOP_ORD": 30,
      "LAT": 35.82461453
    },
    {
      "ROUTE_NAME": "104",
      "ROUTE_ORD": 31,
      "STOP_ID": 305100783,
      "LNG": 127.11580966,
      "BRT_SUBID": "0",
      "ROUTE_ID": 305001094,
      "STOP_NAME": "서신로마전교",
      "SERVICE_ID": 30783,
      "NODE_ID": 305100783,
      "STOP_ORD": 31,
      "LAT": 35.82601545
    },
    {
      "ROUTE_NAME": "104",
      "ROUTE_ORD": 32,
      "STOP_ID": 305100813,
      "LNG": 127.115947,
      "BRT_SUBID": "0",
      "ROUTE_ID": 305001094,
      "STOP_NAME": "서신신협",
      "SERVICE_ID": 30813,
      "NODE_ID": 305100813,
      "STOP_ORD": 32,
      "LAT": 35.827569
    },
    {
      "ROUTE_NAME": "104",
      "ROUTE_ORD": 33,
      "STOP_ID": 305100860,
      "LNG": 127.115958,
      "BRT_SUBID": "0",
      "ROUTE_ID": 305001094,
      "STOP_NAME": "서신동주민센터",
      "SERVICE_ID": 30860,
      "NODE_ID": 305100860,
      "STOP_ORD": 33,
      "LAT": 35.830831
    },
    {
      "ROUTE_NAME": "104",
      "ROUTE_ORD": 34,
      "STOP_ID": 305100876,
      "LNG": 127.11761223,
      "BRT_SUBID": "0",
      "ROUTE_ID": 305001094,
      "STOP_NAME": "서신현대.동아아파트",
      "SERVICE_ID": 30876,
      "NODE_ID": 305100876,
      "STOP_ORD": 34,
      "LAT": 35.83213953
    },
    {
      "ROUTE_NAME": "104",
      "ROUTE_ORD": 35,
      "STOP_ID": 305100877,
      "LNG": 127.12083358,
      "BRT_SUBID": "0",
      "ROUTE_ID": 305001094,
      "STOP_NAME": "이마트",
      "SERVICE_ID": 30877,
      "NODE_ID": 305100877,
      "STOP_ORD": 35,
      "LAT": 35.83209104
    },
    {
      "ROUTE_NAME": "104",
      "ROUTE_ORD": 36,
      "STOP_ID": 306100961,
      "LNG": 127.12520761,
      "BRT_SUBID": "0",
      "ROUTE_ID": 305001094,
      "STOP_NAME": "종합경기장",
      "SERVICE_ID": 30961,
      "NODE_ID": 306100961,
      "STOP_ORD": 36,
      "LAT": 35.83627383
    },
    {
      "ROUTE_NAME": "104",
      "ROUTE_ORD": 37,
      "STOP_ID": 306101035,
      "LNG": 127.127164,
      "BRT_SUBID": "0",
      "ROUTE_ID": 305001094,
      "STOP_NAME": "전북대학교.소나무한의원앞",
      "SERVICE_ID": 31034,
      "NODE_ID": 306101035,
      "STOP_ORD": 37,
      "LAT": 35.841467
    },
    {
      "ROUTE_NAME": "104",
      "ROUTE_ORD": 38,
      "STOP_ID": 306101084,
      "LNG": 127.12136775,
      "BRT_SUBID": "0",
      "ROUTE_ID": 305001094,
      "STOP_NAME": "기린대로덕진공원",
      "SERVICE_ID": 31083,
      "NODE_ID": 306101084,
      "STOP_ORD": 38,
      "LAT": 35.84574561
    },
    {
      "ROUTE_NAME": "104",
      "ROUTE_ORD": 39,
      "STOP_ID": 306101113,
      "LNG": 127.11968893,
      "BRT_SUBID": "0",
      "ROUTE_ID": 305001094,
      "STOP_NAME": "도립국악원",
      "SERVICE_ID": 31112,
      "NODE_ID": 306101113,
      "STOP_ORD": 39,
      "LAT": 35.84934543
    },
    {
      "ROUTE_NAME": "104",
      "ROUTE_ORD": 40,
      "STOP_ID": 306101170,
      "LNG": 127.11979367,
      "BRT_SUBID": "0",
      "ROUTE_ID": 305001094,
      "STOP_NAME": "도립여성중고 롯데마트",
      "SERVICE_ID": 31169,
      "NODE_ID": 306101170,
      "STOP_ORD": 40,
      "LAT": 35.85361352
    },
    {
      "ROUTE_NAME": "104",
      "ROUTE_ORD": 41,
      "STOP_ID": 306101233,
      "LNG": 127.12077329,
      "BRT_SUBID": "0",
      "ROUTE_ID": 305001094,
      "STOP_NAME": "송천1동주민센터",
      "SERVICE_ID": 31232,
      "NODE_ID": 306101233,
      "STOP_ORD": 41,
      "LAT": 35.85701397
    },
    {
      "ROUTE_NAME": "104",
      "ROUTE_ORD": 42,
      "STOP_ID": 306101280,
      "LNG": 127.12156208,
      "BRT_SUBID": "0",
      "ROUTE_ID": 305001094,
      "STOP_NAME": "전라고",
      "SERVICE_ID": 31279,
      "NODE_ID": 306101280,
      "STOP_ORD": 42,
      "LAT": 35.86055764
    },
    {
      "ROUTE_NAME": "104",
      "ROUTE_ORD": 43,
      "STOP_ID": 306101307,
      "LNG": 127.12369476,
      "BRT_SUBID": "0",
      "ROUTE_ID": 305001094,
      "STOP_NAME": "송북초교",
      "SERVICE_ID": 31306,
      "NODE_ID": 306101307,
      "STOP_ORD": 43,
      "LAT": 35.86363645
    },
    {
      "ROUTE_NAME": "104",
      "ROUTE_ORD": 44,
      "STOP_ID": 306101320,
      "LNG": 127.12708911,
      "BRT_SUBID": "0",
      "ROUTE_ID": 305001094,
      "STOP_NAME": "송천주공2단지",
      "SERVICE_ID": 31319,
      "NODE_ID": 306101320,
      "STOP_ORD": 44,
      "LAT": 35.86436962
    },
    {
      "ROUTE_NAME": "104",
      "ROUTE_ORD": 45,
      "STOP_ID": 306101344,
      "LNG": 127.12733436,
      "BRT_SUBID": "0",
      "ROUTE_ID": 305001094,
      "STOP_NAME": "송천현대아파트",
      "SERVICE_ID": 31343,
      "NODE_ID": 306101344,
      "STOP_ORD": 45,
      "LAT": 35.8662239
    },
    {
      "ROUTE_NAME": "104",
      "ROUTE_ORD": 46,
      "STOP_ID": 306101363,
      "LNG": 127.127379,
      "BRT_SUBID": "0",
      "ROUTE_ID": 305001094,
      "STOP_NAME": "송천주공아파트",
      "SERVICE_ID": 31362,
      "NODE_ID": 306101363,
      "STOP_ORD": 46,
      "LAT": 35.867602
    },
    {
      "ROUTE_NAME": "104",
      "ROUTE_ORD": 47,
      "STOP_ID": 306032307,
      "LNG": 127.1184873,
      "BRT_SUBID": "0",
      "ROUTE_ID": 305001094,
      "STOP_NAME": "동부대로 농수산시장",
      "SERVICE_ID": 36226,
      "NODE_ID": 306032307,
      "STOP_ORD": 47,
      "LAT": 35.8699127
    },
    {
      "ROUTE_NAME": "104",
      "ROUTE_ORD": 48,
      "STOP_ID": 306032306,
      "LNG": 127.114241,
      "BRT_SUBID": "0",
      "ROUTE_ID": 305001094,
      "STOP_NAME": "메가월드",
      "SERVICE_ID": 36211,
      "NODE_ID": 306032306,
      "STOP_ORD": 48,
      "LAT": 35.869941
    },
    {
      "ROUTE_NAME": "104",
      "ROUTE_ORD": 49,
      "STOP_ID": 306032304,
      "LNG": 127.109252,
      "BRT_SUBID": "0",
      "ROUTE_ID": 305001094,
      "STOP_NAME": "송천동종점",
      "SERVICE_ID": 36208,
      "NODE_ID": 306032304,
      "STOP_ORD": 49,
      "LAT": 35.8697397
    }
  ]
}