{
  "resultList": [
    {
      "ROUTE_NAME": "165",
      "ROUTE_ORD": 1,
      "STOP_ID": 305100601,
      "LNG": 127.14816867,
      "BRT_SUBID": "A",
      "ROUTE_ID": 305001521,
      "STOP_NAME": "전동성당.한옥마을",
      "SERVICE_ID": 30601,
      "NODE_ID": 305100601,
      "STOP_ORD": 1,
      "LAT": 35.81459568
    },
    {
      "ROUTE_NAME": "165",
      "ROUTE_ORD": 2,
      "STOP_ID": 305100573,
      "LNG": 127.1488857,
      "BRT_SUBID": "A",
      "ROUTE_ID": 305001521,
      "STOP_NAME": "남부시장",
      "SERVICE_ID": 30573,
      "NODE_ID": 305100573,
      "STOP_ORD": 2,
      "LAT": 35.81273721
    },
    {
      "ROUTE_NAME": "165",
      "ROUTE_ORD": 3,
      "STOP_ID": 305032533,
      "LNG": 127.1495396,
      "BRT_SUBID": "A",
      "ROUTE_ID": 305001521,
      "STOP_NAME": "서학예술마을.전주교대입구",
      "SERVICE_ID": 36467,
      "NODE_ID": 305032533,
      "STOP_ORD": 3,
      "LAT": 35.8080187
    },
    {
      "ROUTE_NAME": "165",
      "ROUTE_ORD": 4,
      "STOP_ID": 305100511,
      "LNG": 127.14952214,
      "BRT_SUBID": "A",
      "ROUTE_ID": 305001521,
      "STOP_NAME": "공수내다리",
      "SERVICE_ID": 30511,
      "NODE_ID": 305100511,
      "STOP_ORD": 4,
      "LAT": 35.80600343
    },
    {
      "ROUTE_NAME": "165",
      "ROUTE_ORD": 5,
      "STOP_ID": 305100472,
      "LNG": 127.147892,
      "BRT_SUBID": "A",
      "ROUTE_ID": 305001521,
      "STOP_NAME": "서서학예그린아파트",
      "SERVICE_ID": 30472,
      "NODE_ID": 305100472,
      "STOP_ORD": 5,
      "LAT": 35.803159
    },
    {
      "ROUTE_NAME": "165",
      "ROUTE_ORD": 6,
      "STOP_ID": 305100453,
      "LNG": 127.14622023,
      "BRT_SUBID": "A",
      "ROUTE_ID": 305001521,
      "STOP_NAME": "서서학우정목련아파트",
      "SERVICE_ID": 30453,
      "NODE_ID": 305100453,
      "STOP_ORD": 6,
      "LAT": 35.80135462
    },
    {
      "ROUTE_NAME": "165",
      "ROUTE_ORD": 7,
      "STOP_ID": 305100434,
      "LNG": 127.143638,
      "BRT_SUBID": "A",
      "ROUTE_ID": 305001521,
      "STOP_NAME": "장승백이",
      "SERVICE_ID": 30434,
      "NODE_ID": 305100434,
      "STOP_ORD": 7,
      "LAT": 35.799783
    },
    {
      "ROUTE_NAME": "165",
      "ROUTE_ORD": 8,
      "STOP_ID": 305100423,
      "LNG": 127.14108794,
      "BRT_SUBID": "A",
      "ROUTE_ID": 305001521,
      "STOP_NAME": "평화주공1.2단지",
      "SERVICE_ID": 30423,
      "NODE_ID": 305100423,
      "STOP_ORD": 8,
      "LAT": 35.79883454
    },
    {
      "ROUTE_NAME": "165",
      "ROUTE_ORD": 9,
      "STOP_ID": 305100397,
      "LNG": 127.13737968,
      "BRT_SUBID": "A",
      "ROUTE_ID": 305001521,
      "STOP_NAME": "완산여고",
      "SERVICE_ID": 30397,
      "NODE_ID": 305100397,
      "STOP_ORD": 9,
      "LAT": 35.79746601
    },
    {
      "ROUTE_NAME": "165",
      "ROUTE_ORD": 10,
      "STOP_ID": 305100387,
      "LNG": 127.13461747,
      "BRT_SUBID": "A",
      "ROUTE_ID": 305001521,
      "STOP_NAME": "꽃밭정이네거리",
      "SERVICE_ID": 30387,
      "NODE_ID": 305100387,
      "STOP_ORD": 10,
      "LAT": 35.79650315
    },
    {
      "ROUTE_NAME": "165",
      "ROUTE_ORD": 11,
      "STOP_ID": 305100374,
      "LNG": 127.130372,
      "BRT_SUBID": "A",
      "ROUTE_ID": 305001521,
      "STOP_NAME": "삼천우성아파트",
      "SERVICE_ID": 30374,
      "NODE_ID": 305100374,
      "STOP_ORD": 11,
      "LAT": 35.79518
    },
    {
      "ROUTE_NAME": "165",
      "ROUTE_ORD": 12,
      "STOP_ID": 305100351,
      "LNG": 127.12415305,
      "BRT_SUBID": "A",
      "ROUTE_ID": 305001521,
      "STOP_NAME": "양지중학교",
      "SERVICE_ID": 30351,
      "NODE_ID": 305100351,
      "STOP_ORD": 12,
      "LAT": 35.79380545
    },
    {
      "ROUTE_NAME": "165",
      "ROUTE_ORD": 13,
      "STOP_ID": 305100346,
      "LNG": 127.12222405,
      "BRT_SUBID": "A",
      "ROUTE_ID": 305001521,
      "STOP_NAME": "평화동신아파트",
      "SERVICE_ID": 30346,
      "NODE_ID": 305100346,
      "STOP_ORD": 13,
      "LAT": 35.79336774
    },
    {
      "ROUTE_NAME": "165",
      "ROUTE_ORD": 14,
      "STOP_ID": 305100339,
      "LNG": 127.117669,
      "BRT_SUBID": "A",
      "ROUTE_ID": 305001521,
      "STOP_NAME": "한솔재활요양병원",
      "SERVICE_ID": 30339,
      "NODE_ID": 305100339,
      "STOP_ORD": 14,
      "LAT": 35.792599
    },
    {
      "ROUTE_NAME": "165",
      "ROUTE_ORD": 15,
      "STOP_ID": 305100354,
      "LNG": 127.116972,
      "BRT_SUBID": "A",
      "ROUTE_ID": 305001521,
      "STOP_NAME": "삼천흥건1차아파트",
      "SERVICE_ID": 30354,
      "NODE_ID": 305100354,
      "STOP_ORD": 15,
      "LAT": 35.79414
    },
    {
      "ROUTE_NAME": "165",
      "ROUTE_ORD": 16,
      "STOP_ID": 305100378,
      "LNG": 127.117015,
      "BRT_SUBID": "A",
      "ROUTE_ID": 305001521,
      "STOP_NAME": "삼천흥건2차아파트",
      "SERVICE_ID": 30378,
      "NODE_ID": 305100378,
      "STOP_ORD": 16,
      "LAT": 35.796163
    },
    {
      "ROUTE_NAME": "165",
      "ROUTE_ORD": 17,
      "STOP_ID": 305100426,
      "LNG": 127.11701353,
      "BRT_SUBID": "A",
      "ROUTE_ID": 305001521,
      "STOP_NAME": "풍남중",
      "SERVICE_ID": 30426,
      "NODE_ID": 305100426,
      "STOP_ORD": 17,
      "LAT": 35.79917526
    },
    {
      "ROUTE_NAME": "165",
      "ROUTE_ORD": 18,
      "STOP_ID": 305100475,
      "LNG": 127.116897,
      "BRT_SUBID": "A",
      "ROUTE_ID": 305001521,
      "STOP_NAME": "상산고",
      "SERVICE_ID": 30475,
      "NODE_ID": 305100475,
      "STOP_ORD": 18,
      "LAT": 35.803912
    },
    {
      "ROUTE_NAME": "165",
      "ROUTE_ORD": 20,
      "STOP_ID": 305100553,
      "LNG": 127.11475989,
      "BRT_SUBID": "A",
      "ROUTE_ID": 305001521,
      "STOP_NAME": "서전주중",
      "SERVICE_ID": 30553,
      "NODE_ID": 305100553,
      "STOP_ORD": 19,
      "LAT": 35.81107333
    },
    {
      "ROUTE_NAME": "165",
      "ROUTE_ORD": 21,
      "STOP_ID": 305100576,
      "LNG": 127.11388786,
      "BRT_SUBID": "A",
      "ROUTE_ID": 305001521,
      "STOP_NAME": "거마평로이동교",
      "SERVICE_ID": 30576,
      "NODE_ID": 305100576,
      "STOP_ORD": 20,
      "LAT": 35.81288005
    },
    {
      "ROUTE_NAME": "165",
      "ROUTE_ORD": 22,
      "STOP_ID": 305032285,
      "LNG": 127.111988,
      "BRT_SUBID": "A",
      "ROUTE_ID": 305001521,
      "STOP_NAME": "씨티병원",
      "SERVICE_ID": 32285,
      "NODE_ID": 305032285,
      "STOP_ORD": 21,
      "LAT": 35.815529
    },
    {
      "ROUTE_NAME": "165",
      "ROUTE_ORD": 23,
      "STOP_ID": 305100667,
      "LNG": 127.10768278,
      "BRT_SUBID": "A",
      "ROUTE_ID": 305001521,
      "STOP_NAME": "효자로전북도청",
      "SERVICE_ID": 30667,
      "NODE_ID": 305100667,
      "STOP_ORD": 22,
      "LAT": 35.81918961
    },
    {
      "ROUTE_NAME": "165",
      "ROUTE_ORD": 24,
      "STOP_ID": 305100665,
      "LNG": 127.10407321,
      "BRT_SUBID": "A",
      "ROUTE_ID": 305001521,
      "STOP_NAME": "유로병원",
      "SERVICE_ID": 30665,
      "NODE_ID": 305100665,
      "STOP_ORD": 23,
      "LAT": 35.81920232
    },
    {
      "ROUTE_NAME": "165",
      "ROUTE_ORD": 25,
      "STOP_ID": 305100631,
      "LNG": 127.101774,
      "BRT_SUBID": "A",
      "ROUTE_ID": 305001521,
      "STOP_NAME": "전일고 롯데마트",
      "SERVICE_ID": 30631,
      "NODE_ID": 305100631,
      "STOP_ORD": 24,
      "LAT": 35.816119
    },
    {
      "ROUTE_NAME": "165",
      "ROUTE_ORD": 26,
      "STOP_ID": 305100591,
      "LNG": 127.09796491,
      "BRT_SUBID": "A",
      "ROUTE_ID": 305001521,
      "STOP_NAME": "호남제일고",
      "SERVICE_ID": 30591,
      "NODE_ID": 305100591,
      "STOP_ORD": 25,
      "LAT": 35.81379234
    },
    {
      "ROUTE_NAME": "165",
      "ROUTE_ORD": 27,
      "STOP_ID": 305100630,
      "LNG": 127.094854,
      "BRT_SUBID": "A",
      "ROUTE_ID": 305001521,
      "STOP_NAME": "영생고 전주대사대부고",
      "SERVICE_ID": 30630,
      "NODE_ID": 305100630,
      "STOP_ORD": 26,
      "LAT": 35.816115
    },
    {
      "ROUTE_NAME": "165",
      "ROUTE_ORD": 28,
      "STOP_ID": 305100651,
      "LNG": 127.092247,
      "BRT_SUBID": "A",
      "ROUTE_ID": 305001521,
      "STOP_NAME": "전주대학교",
      "SERVICE_ID": 30651,
      "NODE_ID": 305100651,
      "STOP_ORD": 27,
      "LAT": 35.81862
    },
    {
      "ROUTE_NAME": "165",
      "ROUTE_ORD": 29,
      "STOP_ID": 305100687,
      "LNG": 127.08900147,
      "BRT_SUBID": "A",
      "ROUTE_ID": 305001521,
      "STOP_NAME": "은화학교",
      "SERVICE_ID": 30687,
      "NODE_ID": 305100687,
      "STOP_ORD": 28,
      "LAT": 35.82026499
    },
    {
      "ROUTE_NAME": "165",
      "ROUTE_ORD": 30,
      "STOP_ID": 305100717,
      "LNG": 127.08483503,
      "BRT_SUBID": "A",
      "ROUTE_ID": 305001521,
      "STOP_NAME": "효자공원",
      "SERVICE_ID": 30717,
      "NODE_ID": 305100717,
      "STOP_ORD": 29,
      "LAT": 35.82187035
    },
    {
      "ROUTE_NAME": "165",
      "ROUTE_ORD": 31,
      "STOP_ID": 305100734,
      "LNG": 127.08120102,
      "BRT_SUBID": "A",
      "ROUTE_ID": 305001521,
      "STOP_NAME": "만절리고개",
      "SERVICE_ID": 30734,
      "NODE_ID": 305100734,
      "STOP_ORD": 30,
      "LAT": 35.82352817
    },
    {
      "ROUTE_NAME": "165",
      "ROUTE_ORD": 32,
      "STOP_ID": 305100771,
      "LNG": 127.070596,
      "BRT_SUBID": "A",
      "ROUTE_ID": 305001521,
      "STOP_NAME": "혁신도시입구",
      "SERVICE_ID": 30771,
      "NODE_ID": 305100771,
      "STOP_ORD": 31,
      "LAT": 35.826282
    },
    {
      "ROUTE_NAME": "165",
      "ROUTE_ORD": 33,
      "STOP_ID": 306100839,
      "LNG": 127.071176,
      "BRT_SUBID": "A",
      "ROUTE_ID": 305001521,
      "STOP_NAME": "용흥마을",
      "SERVICE_ID": 30839,
      "NODE_ID": 306100839,
      "STOP_ORD": 32,
      "LAT": 35.829318
    },
    {
      "ROUTE_NAME": "165",
      "ROUTE_ORD": 34,
      "STOP_ID": 306100865,
      "LNG": 127.07221289,
      "BRT_SUBID": "A",
      "ROUTE_ID": 305001521,
      "STOP_NAME": "두현마을",
      "SERVICE_ID": 30865,
      "NODE_ID": 306100865,
      "STOP_ORD": 33,
      "LAT": 35.83228875
    },
    {
      "ROUTE_NAME": "165",
      "ROUTE_ORD": 35,
      "STOP_ID": 305032186,
      "LNG": 127.0744,
      "BRT_SUBID": "A",
      "ROUTE_ID": 305001521,
      "STOP_NAME": "월평마을",
      "SERVICE_ID": 32186,
      "NODE_ID": 305032186,
      "STOP_ORD": 34,
      "LAT": 35.8344
    },
    {
      "ROUTE_NAME": "165",
      "ROUTE_ORD": 36,
      "STOP_ID": 306032157,
      "LNG": 127.073815,
      "BRT_SUBID": "A",
      "ROUTE_ID": 305001521,
      "STOP_NAME": "만성퍼스트리움",
      "SERVICE_ID": 32157,
      "NODE_ID": 306032157,
      "STOP_ORD": 35,
      "LAT": 35.837659
    },
    {
      "ROUTE_NAME": "165",
      "ROUTE_ORD": 37,
      "STOP_ID": 306032155,
      "LNG": 127.069663,
      "BRT_SUBID": "A",
      "ROUTE_ID": 305001521,
      "STOP_NAME": "국민연금공단",
      "SERVICE_ID": 32155,
      "NODE_ID": 306032155,
      "STOP_ORD": 36,
      "LAT": 35.838914
    },
    {
      "ROUTE_NAME": "165",
      "ROUTE_ORD": 38,
      "STOP_ID": 305032359,
      "LNG": 127.065087,
      "BRT_SUBID": "A",
      "ROUTE_ID": 305001521,
      "STOP_NAME": "한국국토정보공사",
      "SERVICE_ID": 36256,
      "NODE_ID": 305032359,
      "STOP_ORD": 37,
      "LAT": 35.838649
    },
    {
      "ROUTE_NAME": "165",
      "ROUTE_ORD": 39,
      "STOP_ID": 306032153,
      "LNG": 127.063649,
      "BRT_SUBID": "A",
      "ROUTE_ID": 305001521,
      "STOP_NAME": "호반2차아파트",
      "SERVICE_ID": 32153,
      "NODE_ID": 306032153,
      "STOP_ORD": 38,
      "LAT": 35.843049
    },
    {
      "ROUTE_NAME": "165",
      "ROUTE_ORD": 40,
      "STOP_ID": 305032327,
      "LNG": 127.06211,
      "BRT_SUBID": "A",
      "ROUTE_ID": 305001521,
      "STOP_NAME": "한일베라체아파트",
      "SERVICE_ID": 36219,
      "NODE_ID": 305032327,
      "STOP_ORD": 39,
      "LAT": 35.845367
    },
    {
      "ROUTE_NAME": "165",
      "ROUTE_ORD": 41,
      "STOP_ID": 312032129,
      "LNG": 127.0576893,
      "BRT_SUBID": "A",
      "ROUTE_ID": 305001521,
      "STOP_NAME": "우미린2차아파트",
      "SERVICE_ID": 32129,
      "NODE_ID": 312032129,
      "STOP_ORD": 40,
      "LAT": 35.8458
    },
    {
      "ROUTE_NAME": "165",
      "ROUTE_ORD": 42,
      "STOP_ID": 312032141,
      "LNG": 127.05744365,
      "BRT_SUBID": "A",
      "ROUTE_ID": 305001521,
      "STOP_NAME": "온빛초등학교",
      "SERVICE_ID": 32141,
      "NODE_ID": 312032141,
      "STOP_ORD": 41,
      "LAT": 35.84257278
    },
    {
      "ROUTE_NAME": "165",
      "ROUTE_ORD": 43,
      "STOP_ID": 312032217,
      "LNG": 127.058419,
      "BRT_SUBID": "A",
      "ROUTE_ID": 305001521,
      "STOP_NAME": "혁신호반5차아파트",
      "SERVICE_ID": 32217,
      "NODE_ID": 312032217,
      "STOP_ORD": 42,
      "LAT": 35.840295
    },
    {
      "ROUTE_NAME": "165",
      "ROUTE_ORD": 44,
      "STOP_ID": 312032138,
      "LNG": 127.05747997,
      "BRT_SUBID": "A",
      "ROUTE_ID": 305001521,
      "STOP_NAME": "혁신농협지점사거리",
      "SERVICE_ID": 32138,
      "NODE_ID": 312032138,
      "STOP_ORD": 43,
      "LAT": 35.83853584
    },
    {
      "ROUTE_NAME": "165",
      "ROUTE_ORD": 45,
      "STOP_ID": 312032113,
      "LNG": 127.055581,
      "BRT_SUBID": "A",
      "ROUTE_ID": 305001521,
      "STOP_NAME": "혁신이노힐스아파트",
      "SERVICE_ID": 32113,
      "NODE_ID": 312032113,
      "STOP_ORD": 44,
      "LAT": 35.837583
    },
    {
      "ROUTE_NAME": "165",
      "ROUTE_ORD": 46,
      "STOP_ID": 312032173,
      "LNG": 127.055576,
      "BRT_SUBID": "A",
      "ROUTE_ID": 305001521,
      "STOP_NAME": "한국전기안전공사본사",
      "SERVICE_ID": 32173,
      "NODE_ID": 312032173,
      "STOP_ORD": 45,
      "LAT": 35.834896
    },
    {
      "ROUTE_NAME": "165",
      "ROUTE_ORD": 47,
      "STOP_ID": 312032221,
      "LNG": 127.049171,
      "BRT_SUBID": "A",
      "ROUTE_ID": 305001521,
      "STOP_NAME": "한국식품연구원",
      "SERVICE_ID": 32211,
      "NODE_ID": 312032221,
      "STOP_ORD": 46,
      "LAT": 35.833519
    },
    {
      "ROUTE_NAME": "165",
      "ROUTE_ORD": 48,
      "STOP_ID": 312032212,
      "LNG": 127.041113,
      "BRT_SUBID": "A",
      "ROUTE_ID": 305001521,
      "STOP_NAME": "국립농업과학원",
      "SERVICE_ID": 32212,
      "NODE_ID": 312032212,
      "STOP_ORD": 47,
      "LAT": 35.833415
    },
    {
      "ROUTE_NAME": "165",
      "ROUTE_ORD": 49,
      "STOP_ID": 312032263,
      "LNG": 127.03357616,
      "BRT_SUBID": "A",
      "ROUTE_ID": 305001521,
      "STOP_NAME": "국립원예특작과학원",
      "SERVICE_ID": 32263,
      "NODE_ID": 312032263,
      "STOP_ORD": 48,
      "LAT": 35.83535427
    },
    {
      "ROUTE_NAME": "165",
      "ROUTE_ORD": 50,
      "STOP_ID": 312032123,
      "LNG": 127.023878,
      "BRT_SUBID": "A",
      "ROUTE_ID": 305001521,
      "STOP_NAME": "농원삼거리",
      "SERVICE_ID": 32123,
      "NODE_ID": 312032123,
      "STOP_ORD": 49,
      "LAT": 35.834796
    },
    {
      "ROUTE_NAME": "165",
      "ROUTE_ORD": 51,
      "STOP_ID": 312032117,
      "LNG": 127.024671,
      "BRT_SUBID": "A",
      "ROUTE_ID": 305001521,
      "STOP_NAME": "지방자치인재개발원",
      "SERVICE_ID": 32117,
      "NODE_ID": 312032117,
      "STOP_ORD": 50,
      "LAT": 35.83273
    },
    {
      "ROUTE_NAME": "165",
      "ROUTE_ORD": 52,
      "STOP_ID": 312032124,
      "LNG": 127.024376,
      "BRT_SUBID": "A",
      "ROUTE_ID": 305001521,
      "STOP_NAME": "혁신에코르3단지",
      "SERVICE_ID": 32124,
      "NODE_ID": 312032124,
      "STOP_ORD": 51,
      "LAT": 35.826402
    },
    {
      "ROUTE_NAME": "165",
      "ROUTE_ORD": 53,
      "STOP_ID": 312100756,
      "LNG": 127.02237918,
      "BRT_SUBID": "A",
      "ROUTE_ID": 305001521,
      "STOP_NAME": "삼우중",
      "SERVICE_ID": 30756,
      "NODE_ID": 312100756,
      "STOP_ORD": 52,
      "LAT": 35.82453192
    },
    {
      "ROUTE_NAME": "165",
      "ROUTE_ORD": 54,
      "STOP_ID": 312132265,
      "LNG": 127.0206476,
      "BRT_SUBID": "A",
      "ROUTE_ID": 305001521,
      "STOP_NAME": "이서종점",
      "SERVICE_ID": 32265,
      "NODE_ID": 312132265,
      "STOP_ORD": 53,
      "LAT": 35.8198475
    },
    {
      "ROUTE_NAME": "165",
      "ROUTE_ORD": 55,
      "STOP_ID": 305032675,
      "LNG": 127.0199833,
      "BRT_SUBID": "A",
      "ROUTE_ID": 305001521,
      "STOP_NAME": "이서회차지",
      "SERVICE_ID": 36609,
      "NODE_ID": 305032675,
      "STOP_ORD": 54,
      "LAT": 35.817095
    }
  ]
}