{
  "resultList": [
    {
      "ROUTE_NAME": "34-1",
      "ROUTE_ORD": 1,
      "STOP_ID": 312101642,
      "LNG": 127.17092453,
      "BRT_SUBID": "B",
      "ROUTE_ID": 305001077,
      "STOP_NAME": "지암마을",
      "SERVICE_ID": 31641,
      "NODE_ID": 312101642,
      "STOP_ORD": 1,
      "LAT": 35.90451218
    },
    {
      "ROUTE_NAME": "34-1",
      "ROUTE_ORD": 2,
      "STOP_ID": 305032742,
      "LNG": 127.1673034,
      "BRT_SUBID": "B",
      "ROUTE_ID": 305001077,
      "STOP_NAME": "운곡모아미래도1.2차아파트",
      "SERVICE_ID": 36676,
      "NODE_ID": 305032742,
      "STOP_ORD": 2,
      "LAT": 35.90378502
    },
    {
      "ROUTE_NAME": "34-1",
      "ROUTE_ORD": 3,
      "STOP_ID": 312102030,
      "LNG": 127.16176944,
      "BRT_SUBID": "B",
      "ROUTE_ID": 305001077,
      "STOP_NAME": "완주군청",
      "SERVICE_ID": 32030,
      "NODE_ID": 312102030,
      "STOP_ORD": 3,
      "LAT": 35.90364372
    },
    {
      "ROUTE_NAME": "34-1",
      "ROUTE_ORD": 4,
      "STOP_ID": 312102031,
      "LNG": 127.15812971,
      "BRT_SUBID": "B",
      "ROUTE_ID": 305001077,
      "STOP_NAME": "운곡마을",
      "SERVICE_ID": 32031,
      "NODE_ID": 312102031,
      "STOP_ORD": 4,
      "LAT": 35.90422213
    },
    {
      "ROUTE_NAME": "34-1",
      "ROUTE_ORD": 5,
      "STOP_ID": 312101638,
      "LNG": 127.15698152,
      "BRT_SUBID": "B",
      "ROUTE_ID": 305001077,
      "STOP_NAME": "복합문화지구누에.용봉초교",
      "SERVICE_ID": 31637,
      "NODE_ID": 312101638,
      "STOP_ORD": 5,
      "LAT": 35.90458201
    },
    {
      "ROUTE_NAME": "34-1",
      "ROUTE_ORD": 6,
      "STOP_ID": 312101657,
      "LNG": 127.15813098,
      "BRT_SUBID": "B",
      "ROUTE_ID": 305001077,
      "STOP_NAME": "구만리",
      "SERVICE_ID": 31656,
      "NODE_ID": 312101657,
      "STOP_ORD": 6,
      "LAT": 35.90832815
    },
    {
      "ROUTE_NAME": "34-1",
      "ROUTE_ORD": 7,
      "STOP_ID": 312101692,
      "LNG": 127.16295586,
      "BRT_SUBID": "B",
      "ROUTE_ID": 305001077,
      "STOP_NAME": "서당리",
      "SERVICE_ID": 31691,
      "NODE_ID": 312101692,
      "STOP_ORD": 7,
      "LAT": 35.91337289
    },
    {
      "ROUTE_NAME": "34-1",
      "ROUTE_ORD": 8,
      "STOP_ID": 312101736,
      "LNG": 127.16819719,
      "BRT_SUBID": "B",
      "ROUTE_ID": 305001077,
      "STOP_NAME": "하이트맥주",
      "SERVICE_ID": 31735,
      "NODE_ID": 312101736,
      "STOP_ORD": 8,
      "LAT": 35.92086102
    },
    {
      "ROUTE_NAME": "34-1",
      "ROUTE_ORD": 9,
      "STOP_ID": 312101756,
      "LNG": 127.165439,
      "BRT_SUBID": "B",
      "ROUTE_ID": 305001077,
      "STOP_NAME": "마그내다리",
      "SERVICE_ID": 31755,
      "NODE_ID": 312101756,
      "STOP_ORD": 9,
      "LAT": 35.9251687
    },
    {
      "ROUTE_NAME": "34-1",
      "ROUTE_ORD": 10,
      "STOP_ID": 312101764,
      "LNG": 127.16395544,
      "BRT_SUBID": "B",
      "ROUTE_ID": 305001077,
      "STOP_NAME": "낙평리",
      "SERVICE_ID": 31763,
      "NODE_ID": 312101764,
      "STOP_ORD": 10,
      "LAT": 35.92685216
    },
    {
      "ROUTE_NAME": "34-1",
      "ROUTE_ORD": 11,
      "STOP_ID": 312101782,
      "LNG": 127.16123509,
      "BRT_SUBID": "B",
      "ROUTE_ID": 305001077,
      "STOP_NAME": "봉동주공아파트",
      "SERVICE_ID": 31781,
      "NODE_ID": 312101782,
      "STOP_ORD": 11,
      "LAT": 35.92952914
    },
    {
      "ROUTE_NAME": "34-1",
      "ROUTE_ORD": 12,
      "STOP_ID": 312101781,
      "LNG": 127.16083438,
      "BRT_SUBID": "B",
      "ROUTE_ID": 305001077,
      "STOP_NAME": "봉동주공아파트",
      "SERVICE_ID": 31780,
      "NODE_ID": 312101781,
      "STOP_ORD": 12,
      "LAT": 35.92929823
    },
    {
      "ROUTE_NAME": "34-1",
      "ROUTE_ORD": 13,
      "STOP_ID": 312101774,
      "LNG": 127.16234212,
      "BRT_SUBID": "B",
      "ROUTE_ID": 305001077,
      "STOP_NAME": "낙평리",
      "SERVICE_ID": 31773,
      "NODE_ID": 312101774,
      "STOP_ORD": 13,
      "LAT": 35.92787194
    },
    {
      "ROUTE_NAME": "34-1",
      "ROUTE_ORD": 14,
      "STOP_ID": 312101766,
      "LNG": 127.16602905,
      "BRT_SUBID": "B",
      "ROUTE_ID": 305001077,
      "STOP_NAME": "완주경찰서",
      "SERVICE_ID": 31765,
      "NODE_ID": 312101766,
      "STOP_ORD": 14,
      "LAT": 35.92709592
    },
    {
      "ROUTE_NAME": "34-1",
      "ROUTE_ORD": 15,
      "STOP_ID": 312101793,
      "LNG": 127.1686913,
      "BRT_SUBID": "B",
      "ROUTE_ID": 305001077,
      "STOP_NAME": "보상마을",
      "SERVICE_ID": 31792,
      "NODE_ID": 312101793,
      "STOP_ORD": 15,
      "LAT": 35.9320858
    },
    {
      "ROUTE_NAME": "34-1",
      "ROUTE_ORD": 16,
      "STOP_ID": 312101819,
      "LNG": 127.16833496,
      "BRT_SUBID": "B",
      "ROUTE_ID": 305001077,
      "STOP_NAME": "봉동전통시장.동창햇살창조센터",
      "SERVICE_ID": 31818,
      "NODE_ID": 312101819,
      "STOP_ORD": 16,
      "LAT": 35.9384139
    },
    {
      "ROUTE_NAME": "34-1",
      "ROUTE_ORD": 17,
      "STOP_ID": 312101828,
      "LNG": 127.16729171,
      "BRT_SUBID": "B",
      "ROUTE_ID": 305001077,
      "STOP_NAME": "봉동농협",
      "SERVICE_ID": 31827,
      "NODE_ID": 312101828,
      "STOP_ORD": 17,
      "LAT": 35.93914303
    },
    {
      "ROUTE_NAME": "34-1",
      "ROUTE_ORD": 18,
      "STOP_ID": 312101817,
      "LNG": 127.16218734,
      "BRT_SUBID": "B",
      "ROUTE_ID": 305001077,
      "STOP_NAME": "구봉동읍사무소",
      "SERVICE_ID": 31816,
      "NODE_ID": 312101817,
      "STOP_ORD": 18,
      "LAT": 35.93688778
    },
    {
      "ROUTE_NAME": "34-1",
      "ROUTE_ORD": 19,
      "STOP_ID": 312101815,
      "LNG": 127.1598458,
      "BRT_SUBID": "B",
      "ROUTE_ID": 305001077,
      "STOP_NAME": "완주중",
      "SERVICE_ID": 31814,
      "NODE_ID": 312101815,
      "STOP_ORD": 19,
      "LAT": 35.9357287
    },
    {
      "ROUTE_NAME": "34-1",
      "ROUTE_ORD": 20,
      "STOP_ID": 312101808,
      "LNG": 127.15571603,
      "BRT_SUBID": "B",
      "ROUTE_ID": 305001077,
      "STOP_NAME": "봉동신기마을",
      "SERVICE_ID": 31807,
      "NODE_ID": 312101808,
      "STOP_ORD": 20,
      "LAT": 35.93495534
    },
    {
      "ROUTE_NAME": "34-1",
      "ROUTE_ORD": 21,
      "STOP_ID": 312101803,
      "LNG": 127.15152093,
      "BRT_SUBID": "B",
      "ROUTE_ID": 305001077,
      "STOP_NAME": "신중리",
      "SERVICE_ID": 31802,
      "NODE_ID": 312101803,
      "STOP_ORD": 21,
      "LAT": 35.93421416
    },
    {
      "ROUTE_NAME": "34-1",
      "ROUTE_ORD": 22,
      "STOP_ID": 312101789,
      "LNG": 127.14378914,
      "BRT_SUBID": "B",
      "ROUTE_ID": 305001077,
      "STOP_NAME": "배을마을입구",
      "SERVICE_ID": 31788,
      "NODE_ID": 312101789,
      "STOP_ORD": 22,
      "LAT": 35.93137801
    },
    {
      "ROUTE_NAME": "34-1",
      "ROUTE_ORD": 23,
      "STOP_ID": 312101784,
      "LNG": 127.1397644,
      "BRT_SUBID": "B",
      "ROUTE_ID": 305001077,
      "STOP_NAME": "상구미리",
      "SERVICE_ID": 31783,
      "NODE_ID": 312101784,
      "STOP_ORD": 23,
      "LAT": 35.92997783
    },
    {
      "ROUTE_NAME": "34-1",
      "ROUTE_ORD": 24,
      "STOP_ID": 312101780,
      "LNG": 127.13557909,
      "BRT_SUBID": "B",
      "ROUTE_ID": 305001077,
      "STOP_NAME": "하구미리",
      "SERVICE_ID": 31779,
      "NODE_ID": 312101780,
      "STOP_ORD": 24,
      "LAT": 35.92884068
    },
    {
      "ROUTE_NAME": "34-1",
      "ROUTE_ORD": 25,
      "STOP_ID": 312101765,
      "LNG": 127.1268368,
      "BRT_SUBID": "B",
      "ROUTE_ID": 305001077,
      "STOP_NAME": "삼봉로.구.청완초교",
      "SERVICE_ID": 31764,
      "NODE_ID": 312101765,
      "STOP_ORD": 25,
      "LAT": 35.9271394
    },
    {
      "ROUTE_NAME": "34-1",
      "ROUTE_ORD": 26,
      "STOP_ID": 312101762,
      "LNG": 127.121558,
      "BRT_SUBID": "B",
      "ROUTE_ID": 305001077,
      "STOP_NAME": "삼봉로완주소방서",
      "SERVICE_ID": 31761,
      "NODE_ID": 312101762,
      "STOP_ORD": 26,
      "LAT": 35.926604
    },
    {
      "ROUTE_NAME": "34-1",
      "ROUTE_ORD": 27,
      "STOP_ID": 305032739,
      "LNG": 127.12072592,
      "BRT_SUBID": "B",
      "ROUTE_ID": 305001077,
      "STOP_NAME": "삼봉비엘로스아파트",
      "SERVICE_ID": 36673,
      "NODE_ID": 305032739,
      "STOP_ORD": 27,
      "LAT": 35.92422706
    },
    {
      "ROUTE_NAME": "34-1",
      "ROUTE_ORD": 28,
      "STOP_ID": 305032737,
      "LNG": 127.11831234,
      "BRT_SUBID": "B",
      "ROUTE_ID": 305001077,
      "STOP_NAME": "삼봉중흥S클래스아파트",
      "SERVICE_ID": 36671,
      "NODE_ID": 305032737,
      "STOP_ORD": 28,
      "LAT": 35.92180737
    },
    {
      "ROUTE_NAME": "34-1",
      "ROUTE_ORD": 29,
      "STOP_ID": 305032734,
      "LNG": 127.11575118,
      "BRT_SUBID": "B",
      "ROUTE_ID": 305001077,
      "STOP_NAME": "삼봉1단지아파트",
      "SERVICE_ID": 36668,
      "NODE_ID": 305032734,
      "STOP_ORD": 29,
      "LAT": 35.9225534
    },
    {
      "ROUTE_NAME": "34-1",
      "ROUTE_ORD": 30,
      "STOP_ID": 312101743,
      "LNG": 127.11370852,
      "BRT_SUBID": "B",
      "ROUTE_ID": 305001077,
      "STOP_NAME": "삼봉행복주택아파트",
      "SERVICE_ID": 31742,
      "NODE_ID": 312101743,
      "STOP_ORD": 30,
      "LAT": 35.92368641
    },
    {
      "ROUTE_NAME": "34-1",
      "ROUTE_ORD": 31,
      "STOP_ID": 312101739,
      "LNG": 127.10780672,
      "BRT_SUBID": "B",
      "ROUTE_ID": 305001077,
      "STOP_NAME": "청등마을입구",
      "SERVICE_ID": 31738,
      "NODE_ID": 312101739,
      "STOP_ORD": 31,
      "LAT": 35.92212414
    },
    {
      "ROUTE_NAME": "34-1",
      "ROUTE_ORD": 32,
      "STOP_ID": 312101737,
      "LNG": 127.10491872,
      "BRT_SUBID": "B",
      "ROUTE_ID": 305001077,
      "STOP_NAME": "석전리",
      "SERVICE_ID": 31736,
      "NODE_ID": 312101737,
      "STOP_ORD": 32,
      "LAT": 35.92130611
    },
    {
      "ROUTE_NAME": "34-1",
      "ROUTE_ORD": 33,
      "STOP_ID": 312101721,
      "LNG": 127.09489278,
      "BRT_SUBID": "B",
      "ROUTE_ID": 305001077,
      "STOP_NAME": "완주군공설운동장.별산리",
      "SERVICE_ID": 31720,
      "NODE_ID": 312101721,
      "STOP_ORD": 33,
      "LAT": 35.91914535
    },
    {
      "ROUTE_NAME": "34-1",
      "ROUTE_ORD": 34,
      "STOP_ID": 312101725,
      "LNG": 127.0900371,
      "BRT_SUBID": "B",
      "ROUTE_ID": 305001077,
      "STOP_NAME": "농원입구",
      "SERVICE_ID": 31724,
      "NODE_ID": 312101725,
      "STOP_ORD": 34,
      "LAT": 35.91964643
    },
    {
      "ROUTE_NAME": "34-1",
      "ROUTE_ORD": 35,
      "STOP_ID": 312101724,
      "LNG": 127.08668994,
      "BRT_SUBID": "B",
      "ROUTE_ID": 305001077,
      "STOP_NAME": "삼례IC네거리",
      "SERVICE_ID": 31723,
      "NODE_ID": 312101724,
      "STOP_ORD": 35,
      "LAT": 35.9196071
    },
    {
      "ROUTE_NAME": "34-1",
      "ROUTE_ORD": 36,
      "STOP_ID": 312101716,
      "LNG": 127.08383612,
      "BRT_SUBID": "B",
      "ROUTE_ID": 305001077,
      "STOP_NAME": "완주군청소년수련관",
      "SERVICE_ID": 31715,
      "NODE_ID": 312101716,
      "STOP_ORD": 36,
      "LAT": 35.91804306
    },
    {
      "ROUTE_NAME": "34-1",
      "ROUTE_ORD": 37,
      "STOP_ID": 312101710,
      "LNG": 127.08240242,
      "BRT_SUBID": "B",
      "ROUTE_ID": 305001077,
      "STOP_NAME": "삼례동원아파트",
      "SERVICE_ID": 31709,
      "NODE_ID": 312101710,
      "STOP_ORD": 37,
      "LAT": 35.91710895
    },
    {
      "ROUTE_NAME": "34-1",
      "ROUTE_ORD": 38,
      "STOP_ID": 312101703,
      "LNG": 127.08046972,
      "BRT_SUBID": "B",
      "ROUTE_ID": 305001077,
      "STOP_NAME": "삼례대영아파트",
      "SERVICE_ID": 31702,
      "NODE_ID": 312101703,
      "STOP_ORD": 38,
      "LAT": 35.91580375
    },
    {
      "ROUTE_NAME": "34-1",
      "ROUTE_ORD": 39,
      "STOP_ID": 312032794,
      "LNG": 127.0775301,
      "BRT_SUBID": "B",
      "ROUTE_ID": 305001077,
      "STOP_NAME": "삼례읍행정복지센터.삼례중입구",
      "SERVICE_ID": 36263,
      "NODE_ID": 312032794,
      "STOP_ORD": 39,
      "LAT": 35.9138145
    },
    {
      "ROUTE_NAME": "34-1",
      "ROUTE_ORD": 40,
      "STOP_ID": 312101681,
      "LNG": 127.0748464,
      "BRT_SUBID": "B",
      "ROUTE_ID": 305001077,
      "STOP_NAME": "삼례농협",
      "SERVICE_ID": 31680,
      "NODE_ID": 312101681,
      "STOP_ORD": 40,
      "LAT": 35.9120424
    },
    {
      "ROUTE_NAME": "34-1",
      "ROUTE_ORD": 41,
      "STOP_ID": 312101673,
      "LNG": 127.075066,
      "BRT_SUBID": "B",
      "ROUTE_ID": 305001077,
      "STOP_NAME": "삼례터미널",
      "SERVICE_ID": 31672,
      "NODE_ID": 312101673,
      "STOP_ORD": 41,
      "LAT": 35.910144
    }
  ]
}