{
  "resultList": [
    {
      "ROUTE_NAME": "535",
      "ROUTE_ORD": 1,
      "STOP_ID": 305100619,
      "LNG": 127.14597309,
      "BRT_SUBID": "A",
      "ROUTE_ID": 305001326,
      "STOP_NAME": "전라감영.완산경찰서",
      "SERVICE_ID": 30619,
      "NODE_ID": 305100619,
      "STOP_ORD": 1,
      "LAT": 35.81548195
    },
    {
      "ROUTE_NAME": "535",
      "ROUTE_ORD": 2,
      "STOP_ID": 305100657,
      "LNG": 127.14790878,
      "BRT_SUBID": "A",
      "ROUTE_ID": 305001326,
      "STOP_NAME": "충경로KT전주지사",
      "SERVICE_ID": 30657,
      "NODE_ID": 305100657,
      "STOP_ORD": 2,
      "LAT": 35.81872473
    },
    {
      "ROUTE_NAME": "535",
      "ROUTE_ORD": 3,
      "STOP_ID": 305100677,
      "LNG": 127.15085875,
      "BRT_SUBID": "A",
      "ROUTE_ID": 305001326,
      "STOP_NAME": "동부시장",
      "SERVICE_ID": 30677,
      "NODE_ID": 305100677,
      "STOP_ORD": 3,
      "LAT": 35.81964957
    },
    {
      "ROUTE_NAME": "535",
      "ROUTE_ORD": 4,
      "STOP_ID": 305100704,
      "LNG": 127.152248,
      "BRT_SUBID": "A",
      "ROUTE_ID": 305001326,
      "STOP_NAME": "기린대로 병무청",
      "SERVICE_ID": 30704,
      "NODE_ID": 305100704,
      "STOP_ORD": 4,
      "LAT": 35.82136
    },
    {
      "ROUTE_NAME": "535",
      "ROUTE_ORD": 5,
      "STOP_ID": 306100761,
      "LNG": 127.14844268,
      "BRT_SUBID": "A",
      "ROUTE_ID": 305001326,
      "STOP_NAME": "전주시청.노송동시외버스정류소",
      "SERVICE_ID": 30761,
      "NODE_ID": 306100761,
      "STOP_ORD": 5,
      "LAT": 35.82471365
    },
    {
      "ROUTE_NAME": "535",
      "ROUTE_ORD": 6,
      "STOP_ID": 306100792,
      "LNG": 127.14637385,
      "BRT_SUBID": "A",
      "ROUTE_ID": 305001326,
      "STOP_NAME": "전주농협",
      "SERVICE_ID": 30792,
      "NODE_ID": 306100792,
      "STOP_ORD": 6,
      "LAT": 35.82651832
    },
    {
      "ROUTE_NAME": "535",
      "ROUTE_ORD": 7,
      "STOP_ID": 306100842,
      "LNG": 127.14299561,
      "BRT_SUBID": "A",
      "ROUTE_ID": 305001326,
      "STOP_NAME": "기린대로현대병원",
      "SERVICE_ID": 30842,
      "NODE_ID": 306100842,
      "STOP_ORD": 7,
      "LAT": 35.82930275
    },
    {
      "ROUTE_NAME": "535",
      "ROUTE_ORD": 8,
      "STOP_ID": 306100864,
      "LNG": 127.14384075,
      "BRT_SUBID": "A",
      "ROUTE_ID": 305001326,
      "STOP_NAME": "모래내",
      "SERVICE_ID": 30864,
      "NODE_ID": 306100864,
      "STOP_ORD": 8,
      "LAT": 35.83167509
    },
    {
      "ROUTE_NAME": "535",
      "ROUTE_ORD": 9,
      "STOP_ID": 306100900,
      "LNG": 127.14549767,
      "BRT_SUBID": "A",
      "ROUTE_ID": 305001326,
      "STOP_NAME": "모래내시장",
      "SERVICE_ID": 30900,
      "NODE_ID": 306100900,
      "STOP_ORD": 9,
      "LAT": 35.83305726
    },
    {
      "ROUTE_NAME": "535",
      "ROUTE_ORD": 10,
      "STOP_ID": 306100940,
      "LNG": 127.14835046,
      "BRT_SUBID": "A",
      "ROUTE_ID": 305001326,
      "STOP_NAME": "전주생명과학고등학교",
      "SERVICE_ID": 30940,
      "NODE_ID": 306100940,
      "STOP_ORD": 10,
      "LAT": 35.83502944
    },
    {
      "ROUTE_NAME": "535",
      "ROUTE_ORD": 11,
      "STOP_ID": 306100999,
      "LNG": 127.151229,
      "BRT_SUBID": "A",
      "ROUTE_ID": 305001326,
      "STOP_NAME": "동중학교",
      "SERVICE_ID": 30998,
      "NODE_ID": 306100999,
      "STOP_ORD": 11,
      "LAT": 35.838527
    },
    {
      "ROUTE_NAME": "535",
      "ROUTE_ORD": 12,
      "STOP_ID": 306101052,
      "LNG": 127.15251465,
      "BRT_SUBID": "A",
      "ROUTE_ID": 305001326,
      "STOP_NAME": "인후위브어울림아파트",
      "SERVICE_ID": 31051,
      "NODE_ID": 306101052,
      "STOP_ORD": 12,
      "LAT": 35.84295257
    },
    {
      "ROUTE_NAME": "535",
      "ROUTE_ORD": 13,
      "STOP_ID": 306101085,
      "LNG": 127.153069,
      "BRT_SUBID": "A",
      "ROUTE_ID": 305001326,
      "STOP_NAME": "명주골네거리.대자인병원",
      "SERVICE_ID": 31084,
      "NODE_ID": 306101085,
      "STOP_ORD": 13,
      "LAT": 35.845872
    },
    {
      "ROUTE_NAME": "535",
      "ROUTE_ORD": 14,
      "STOP_ID": 306101094,
      "LNG": 127.1578906,
      "BRT_SUBID": "A",
      "ROUTE_ID": 305001326,
      "STOP_NAME": "전주역첫마중길",
      "SERVICE_ID": 31093,
      "NODE_ID": 306101094,
      "STOP_ORD": 14,
      "LAT": 35.8483197
    },
    {
      "ROUTE_NAME": "535",
      "ROUTE_ORD": 15,
      "STOP_ID": 306101130,
      "LNG": 127.160103,
      "BRT_SUBID": "A",
      "ROUTE_ID": 305001326,
      "STOP_NAME": "동부대로전주역",
      "SERVICE_ID": 31129,
      "NODE_ID": 306101130,
      "STOP_ORD": 15,
      "LAT": 35.85042866
    },
    {
      "ROUTE_NAME": "535",
      "ROUTE_ORD": 16,
      "STOP_ID": 306101186,
      "LNG": 127.15818391,
      "BRT_SUBID": "A",
      "ROUTE_ID": 305001326,
      "STOP_NAME": "기린중",
      "SERVICE_ID": 31185,
      "NODE_ID": 306101186,
      "STOP_ORD": 16,
      "LAT": 35.85423569
    },
    {
      "ROUTE_NAME": "535",
      "ROUTE_ORD": 17,
      "STOP_ID": 306101247,
      "LNG": 127.15565437,
      "BRT_SUBID": "A",
      "ROUTE_ID": 305001326,
      "STOP_NAME": "호성동신아파트",
      "SERVICE_ID": 31246,
      "NODE_ID": 306101247,
      "STOP_ORD": 17,
      "LAT": 35.85831731
    },
    {
      "ROUTE_NAME": "535",
      "ROUTE_ORD": 18,
      "STOP_ID": 306101279,
      "LNG": 127.153358,
      "BRT_SUBID": "A",
      "ROUTE_ID": 305001326,
      "STOP_NAME": "호성동아아파트",
      "SERVICE_ID": 31278,
      "NODE_ID": 306101279,
      "STOP_ORD": 18,
      "LAT": 35.860618
    },
    {
      "ROUTE_NAME": "535",
      "ROUTE_ORD": 19,
      "STOP_ID": 306101310,
      "LNG": 127.149974,
      "BRT_SUBID": "A",
      "ROUTE_ID": 305001326,
      "STOP_NAME": "호성동주민센터",
      "SERVICE_ID": 31309,
      "NODE_ID": 306101310,
      "STOP_ORD": 19,
      "LAT": 35.864133
    },
    {
      "ROUTE_NAME": "535",
      "ROUTE_ORD": 20,
      "STOP_ID": 305032362,
      "LNG": 127.147173,
      "BRT_SUBID": "A",
      "ROUTE_ID": 305001326,
      "STOP_NAME": "차량등록사업소앞",
      "SERVICE_ID": 36296,
      "NODE_ID": 305032362,
      "STOP_ORD": 20,
      "LAT": 35.867628
    },
    {
      "ROUTE_NAME": "535",
      "ROUTE_ORD": 21,
      "STOP_ID": 306101418,
      "LNG": 127.15109312,
      "BRT_SUBID": "A",
      "ROUTE_ID": 305001326,
      "STOP_NAME": "완주로고당마을",
      "SERVICE_ID": 31417,
      "NODE_ID": 306101418,
      "STOP_ORD": 21,
      "LAT": 35.87349615
    },
    {
      "ROUTE_NAME": "535",
      "ROUTE_ORD": 22,
      "STOP_ID": 312101508,
      "LNG": 127.15612134,
      "BRT_SUBID": "A",
      "ROUTE_ID": 305001326,
      "STOP_NAME": "용진",
      "SERVICE_ID": 31507,
      "NODE_ID": 312101508,
      "STOP_ORD": 22,
      "LAT": 35.88157573
    },
    {
      "ROUTE_NAME": "535",
      "ROUTE_ORD": 23,
      "STOP_ID": 312101537,
      "LNG": 127.15634238,
      "BRT_SUBID": "A",
      "ROUTE_ID": 305001326,
      "STOP_NAME": "운교마을",
      "SERVICE_ID": 31536,
      "NODE_ID": 312101537,
      "STOP_ORD": 23,
      "LAT": 35.88414581
    },
    {
      "ROUTE_NAME": "535",
      "ROUTE_ORD": 24,
      "STOP_ID": 312101555,
      "LNG": 127.15661063,
      "BRT_SUBID": "A",
      "ROUTE_ID": 305001326,
      "STOP_NAME": "상운리입구",
      "SERVICE_ID": 31554,
      "NODE_ID": 312101555,
      "STOP_ORD": 24,
      "LAT": 35.88820668
    },
    {
      "ROUTE_NAME": "535",
      "ROUTE_ORD": 25,
      "STOP_ID": 312101624,
      "LNG": 127.15655639,
      "BRT_SUBID": "A",
      "ROUTE_ID": 305001326,
      "STOP_NAME": "벽성대",
      "SERVICE_ID": 31623,
      "NODE_ID": 312101624,
      "STOP_ORD": 25,
      "LAT": 35.89933762
    },
    {
      "ROUTE_NAME": "535",
      "ROUTE_ORD": 26,
      "STOP_ID": 312101638,
      "LNG": 127.15698152,
      "BRT_SUBID": "A",
      "ROUTE_ID": 305001326,
      "STOP_NAME": "복합문화지구누에.용봉초교",
      "SERVICE_ID": 31637,
      "NODE_ID": 312101638,
      "STOP_ORD": 26,
      "LAT": 35.90458201
    },
    {
      "ROUTE_NAME": "535",
      "ROUTE_ORD": 27,
      "STOP_ID": 312101657,
      "LNG": 127.15813098,
      "BRT_SUBID": "A",
      "ROUTE_ID": 305001326,
      "STOP_NAME": "구만리",
      "SERVICE_ID": 31656,
      "NODE_ID": 312101657,
      "STOP_ORD": 27,
      "LAT": 35.90832815
    },
    {
      "ROUTE_NAME": "535",
      "ROUTE_ORD": 28,
      "STOP_ID": 312101692,
      "LNG": 127.16295586,
      "BRT_SUBID": "A",
      "ROUTE_ID": 305001326,
      "STOP_NAME": "서당리",
      "SERVICE_ID": 31691,
      "NODE_ID": 312101692,
      "STOP_ORD": 28,
      "LAT": 35.91337289
    },
    {
      "ROUTE_NAME": "535",
      "ROUTE_ORD": 29,
      "STOP_ID": 312101736,
      "LNG": 127.16819719,
      "BRT_SUBID": "A",
      "ROUTE_ID": 305001326,
      "STOP_NAME": "하이트맥주",
      "SERVICE_ID": 31735,
      "NODE_ID": 312101736,
      "STOP_ORD": 29,
      "LAT": 35.92086102
    },
    {
      "ROUTE_NAME": "535",
      "ROUTE_ORD": 30,
      "STOP_ID": 312101764,
      "LNG": 127.16395544,
      "BRT_SUBID": "A",
      "ROUTE_ID": 305001326,
      "STOP_NAME": "낙평리",
      "SERVICE_ID": 31763,
      "NODE_ID": 312101764,
      "STOP_ORD": 30,
      "LAT": 35.92685216
    },
    {
      "ROUTE_NAME": "535",
      "ROUTE_ORD": 31,
      "STOP_ID": 312101782,
      "LNG": 127.16123509,
      "BRT_SUBID": "A",
      "ROUTE_ID": 305001326,
      "STOP_NAME": "봉동주공아파트",
      "SERVICE_ID": 31781,
      "NODE_ID": 312101782,
      "STOP_ORD": 31,
      "LAT": 35.92952914
    },
    {
      "ROUTE_NAME": "535",
      "ROUTE_ORD": 32,
      "STOP_ID": 312101785,
      "LNG": 127.16304531,
      "BRT_SUBID": "A",
      "ROUTE_ID": 305001326,
      "STOP_NAME": "낙평네거리",
      "SERVICE_ID": 31784,
      "NODE_ID": 312101785,
      "STOP_ORD": 32,
      "LAT": 35.93063009
    },
    {
      "ROUTE_NAME": "535",
      "ROUTE_ORD": 33,
      "STOP_ID": 312101798,
      "LNG": 127.16778609,
      "BRT_SUBID": "A",
      "ROUTE_ID": 305001326,
      "STOP_NAME": "영광맨션",
      "SERVICE_ID": 31797,
      "NODE_ID": 312101798,
      "STOP_ORD": 33,
      "LAT": 35.93304094
    },
    {
      "ROUTE_NAME": "535",
      "ROUTE_ORD": 34,
      "STOP_ID": 312101819,
      "LNG": 127.16833496,
      "BRT_SUBID": "A",
      "ROUTE_ID": 305001326,
      "STOP_NAME": "봉동전통시장.동창햇살창조센터",
      "SERVICE_ID": 31818,
      "NODE_ID": 312101819,
      "STOP_ORD": 34,
      "LAT": 35.9384139
    },
    {
      "ROUTE_NAME": "535",
      "ROUTE_ORD": 35,
      "STOP_ID": 312101831,
      "LNG": 127.16746889,
      "BRT_SUBID": "A",
      "ROUTE_ID": 305001326,
      "STOP_NAME": "완주고봉동파출소",
      "SERVICE_ID": 31830,
      "NODE_ID": 312101831,
      "STOP_ORD": 35,
      "LAT": 35.93974878
    },
    {
      "ROUTE_NAME": "535",
      "ROUTE_ORD": 36,
      "STOP_ID": 312101839,
      "LNG": 127.16867406,
      "BRT_SUBID": "A",
      "ROUTE_ID": 305001326,
      "STOP_NAME": "봉동신진맨션아파트",
      "SERVICE_ID": 31838,
      "NODE_ID": 312101839,
      "STOP_ORD": 36,
      "LAT": 35.9419505
    },
    {
      "ROUTE_NAME": "535",
      "ROUTE_ORD": 37,
      "STOP_ID": 312101847,
      "LNG": 127.17224212,
      "BRT_SUBID": "A",
      "ROUTE_ID": 305001326,
      "STOP_NAME": "학다리마을",
      "SERVICE_ID": 31846,
      "NODE_ID": 312101847,
      "STOP_ORD": 37,
      "LAT": 35.94369721
    },
    {
      "ROUTE_NAME": "535",
      "ROUTE_ORD": 38,
      "STOP_ID": 312101873,
      "LNG": 127.18057356,
      "BRT_SUBID": "A",
      "ROUTE_ID": 305001326,
      "STOP_NAME": "율소리",
      "SERVICE_ID": 31872,
      "NODE_ID": 312101873,
      "STOP_ORD": 38,
      "LAT": 35.95252189
    },
    {
      "ROUTE_NAME": "535",
      "ROUTE_ORD": 39,
      "STOP_ID": 312101891,
      "LNG": 127.18160409,
      "BRT_SUBID": "A",
      "ROUTE_ID": 305001326,
      "STOP_NAME": "신덕마을",
      "SERVICE_ID": 31890,
      "NODE_ID": 312101891,
      "STOP_ORD": 39,
      "LAT": 35.95665088
    },
    {
      "ROUTE_NAME": "535",
      "ROUTE_ORD": 40,
      "STOP_ID": 312101902,
      "LNG": 127.18077551,
      "BRT_SUBID": "A",
      "ROUTE_ID": 305001326,
      "STOP_NAME": "고산신기마을",
      "SERVICE_ID": 31901,
      "NODE_ID": 312101902,
      "STOP_ORD": 40,
      "LAT": 35.96087152
    },
    {
      "ROUTE_NAME": "535",
      "ROUTE_ORD": 41,
      "STOP_ID": 312132240,
      "LNG": 127.18032891,
      "BRT_SUBID": "A",
      "ROUTE_ID": 305001326,
      "STOP_NAME": "봉곡",
      "SERVICE_ID": 32240,
      "NODE_ID": 312132240,
      "STOP_ORD": 41,
      "LAT": 35.96379459
    },
    {
      "ROUTE_NAME": "535",
      "ROUTE_ORD": 42,
      "STOP_ID": 312132238,
      "LNG": 127.18191209,
      "BRT_SUBID": "A",
      "ROUTE_ID": 305001326,
      "STOP_NAME": "어우가름재",
      "SERVICE_ID": 32238,
      "NODE_ID": 312132238,
      "STOP_ORD": 42,
      "LAT": 35.96723029
    },
    {
      "ROUTE_NAME": "535",
      "ROUTE_ORD": 43,
      "STOP_ID": 312101925,
      "LNG": 127.18253206,
      "BRT_SUBID": "A",
      "ROUTE_ID": 305001326,
      "STOP_NAME": "어우리",
      "SERVICE_ID": 31924,
      "NODE_ID": 312101925,
      "STOP_ORD": 43,
      "LAT": 35.96994821
    },
    {
      "ROUTE_NAME": "535",
      "ROUTE_ORD": 44,
      "STOP_ID": 312101930,
      "LNG": 127.18629225,
      "BRT_SUBID": "A",
      "ROUTE_ID": 305001326,
      "STOP_NAME": "율곡리",
      "SERVICE_ID": 31929,
      "NODE_ID": 312101930,
      "STOP_ORD": 44,
      "LAT": 35.9724843
    },
    {
      "ROUTE_NAME": "535",
      "ROUTE_ORD": 45,
      "STOP_ID": 312101939,
      "LNG": 127.19242796,
      "BRT_SUBID": "A",
      "ROUTE_ID": 305001326,
      "STOP_NAME": "원산마을",
      "SERVICE_ID": 31938,
      "NODE_ID": 312101939,
      "STOP_ORD": 45,
      "LAT": 35.97553862
    },
    {
      "ROUTE_NAME": "535",
      "ROUTE_ORD": 46,
      "STOP_ID": 312101945,
      "LNG": 127.19620305,
      "BRT_SUBID": "A",
      "ROUTE_ID": 305001326,
      "STOP_NAME": "서봉마을",
      "SERVICE_ID": 31944,
      "NODE_ID": 312101945,
      "STOP_ORD": 46,
      "LAT": 35.97681152
    },
    {
      "ROUTE_NAME": "535",
      "ROUTE_ORD": 47,
      "STOP_ID": 312101943,
      "LNG": 127.20105277,
      "BRT_SUBID": "A",
      "ROUTE_ID": 305001326,
      "STOP_NAME": "고산고입구",
      "SERVICE_ID": 31942,
      "NODE_ID": 312101943,
      "STOP_ORD": 47,
      "LAT": 35.97591272
    },
    {
      "ROUTE_NAME": "535",
      "ROUTE_ORD": 48,
      "STOP_ID": 305032386,
      "LNG": 127.2044494,
      "BRT_SUBID": "A",
      "ROUTE_ID": 305001326,
      "STOP_NAME": "고산농협",
      "SERVICE_ID": 36320,
      "NODE_ID": 305032386,
      "STOP_ORD": 48,
      "LAT": 35.9753476
    },
    {
      "ROUTE_NAME": "535",
      "ROUTE_ORD": 49,
      "STOP_ID": 312101937,
      "LNG": 127.20695051,
      "BRT_SUBID": "A",
      "ROUTE_ID": 305001326,
      "STOP_NAME": "고산터미널",
      "SERVICE_ID": 31936,
      "NODE_ID": 312101937,
      "STOP_ORD": 49,
      "LAT": 35.9748106
    }
  ]
}