{
  "resultList": [
    {
      "ROUTE_NAME": "103-1",
      "ROUTE_ORD": 1,
      "STOP_ID": 306032303,
      "LNG": 127.1093354,
      "BRT_SUBID": "0",
      "ROUTE_ID": 305001769,
      "STOP_NAME": "송천동종점",
      "SERVICE_ID": 36202,
      "NODE_ID": 306032303,
      "STOP_ORD": 1,
      "LAT": 35.8699041
    },
    {
      "ROUTE_NAME": "103-1",
      "ROUTE_ORD": 2,
      "STOP_ID": 306101998,
      "LNG": 127.1175725,
      "BRT_SUBID": "0",
      "ROUTE_ID": 305001769,
      "STOP_NAME": "동부대로 농수산시장",
      "SERVICE_ID": 32005,
      "NODE_ID": 306101998,
      "STOP_ORD": 2,
      "LAT": 35.8696339
    },
    {
      "ROUTE_NAME": "103-1",
      "ROUTE_ORD": 3,
      "STOP_ID": 306101364,
      "LNG": 127.116693,
      "BRT_SUBID": "0",
      "ROUTE_ID": 305001769,
      "STOP_NAME": "농수산시장 내",
      "SERVICE_ID": 31363,
      "NODE_ID": 306101364,
      "STOP_ORD": 3,
      "LAT": 35.867906
    },
    {
      "ROUTE_NAME": "103-1",
      "ROUTE_ORD": 4,
      "STOP_ID": 306101381,
      "LNG": 127.114649,
      "BRT_SUBID": "0",
      "ROUTE_ID": 305001769,
      "STOP_NAME": "농수산시장.메가월드",
      "SERVICE_ID": 31380,
      "NODE_ID": 306101381,
      "STOP_ORD": 4,
      "LAT": 35.868558
    },
    {
      "ROUTE_NAME": "103-1",
      "ROUTE_ORD": 5,
      "STOP_ID": 306032306,
      "LNG": 127.114241,
      "BRT_SUBID": "0",
      "ROUTE_ID": 305001769,
      "STOP_NAME": "메가월드",
      "SERVICE_ID": 36211,
      "NODE_ID": 306032306,
      "STOP_ORD": 5,
      "LAT": 35.869941
    },
    {
      "ROUTE_NAME": "103-1",
      "ROUTE_ORD": 6,
      "STOP_ID": 305032319,
      "LNG": 127.0841438,
      "BRT_SUBID": "0",
      "ROUTE_ID": 305001769,
      "STOP_NAME": "동부대로여의역",
      "SERVICE_ID": 36210,
      "NODE_ID": 305032319,
      "STOP_ORD": 6,
      "LAT": 35.8756177
    },
    {
      "ROUTE_NAME": "103-1",
      "ROUTE_ORD": 7,
      "STOP_ID": 306101462,
      "LNG": 127.075644,
      "BRT_SUBID": "0",
      "ROUTE_ID": 305001769,
      "STOP_NAME": "반월초교.세움펠리피아2차",
      "SERVICE_ID": 31461,
      "NODE_ID": 306101462,
      "STOP_ORD": 7,
      "LAT": 35.875922
    },
    {
      "ROUTE_NAME": "103-1",
      "ROUTE_ORD": 8,
      "STOP_ID": 306101411,
      "LNG": 127.07591729,
      "BRT_SUBID": "0",
      "ROUTE_ID": 305001769,
      "STOP_NAME": "여의동우체국",
      "SERVICE_ID": 31410,
      "NODE_ID": 306101411,
      "STOP_ORD": 8,
      "LAT": 35.8723613
    },
    {
      "ROUTE_NAME": "103-1",
      "ROUTE_ORD": 9,
      "STOP_ID": 306101368,
      "LNG": 127.0779079,
      "BRT_SUBID": "0",
      "ROUTE_ID": 305001769,
      "STOP_NAME": "조촌초교.제일아파트",
      "SERVICE_ID": 31367,
      "NODE_ID": 306101368,
      "STOP_ORD": 9,
      "LAT": 35.86812128
    },
    {
      "ROUTE_NAME": "103-1",
      "ROUTE_ORD": 10,
      "STOP_ID": 306101326,
      "LNG": 127.08057177,
      "BRT_SUBID": "0",
      "ROUTE_ID": 305001769,
      "STOP_NAME": "전주공고",
      "SERVICE_ID": 31325,
      "NODE_ID": 306101326,
      "STOP_ORD": 10,
      "LAT": 35.8650508
    },
    {
      "ROUTE_NAME": "103-1",
      "ROUTE_ORD": 11,
      "STOP_ID": 306101299,
      "LNG": 127.0852655,
      "BRT_SUBID": "0",
      "ROUTE_ID": 305001769,
      "STOP_NAME": "도시첨단산업단지",
      "SERVICE_ID": 31298,
      "NODE_ID": 306101299,
      "STOP_ORD": 11,
      "LAT": 35.86308036
    },
    {
      "ROUTE_NAME": "103-1",
      "ROUTE_ORD": 12,
      "STOP_ID": 306101265,
      "LNG": 127.092633,
      "BRT_SUBID": "0",
      "ROUTE_ID": 305001769,
      "STOP_NAME": "기린대로경제통상진흥원",
      "SERVICE_ID": 31264,
      "NODE_ID": 306101265,
      "STOP_ORD": 12,
      "LAT": 35.859842
    },
    {
      "ROUTE_NAME": "103-1",
      "ROUTE_ORD": 13,
      "STOP_ID": 306101243,
      "LNG": 127.09646779,
      "BRT_SUBID": "0",
      "ROUTE_ID": 305001769,
      "STOP_NAME": "휴비스전주공장",
      "SERVICE_ID": 31242,
      "NODE_ID": 306101243,
      "STOP_ORD": 13,
      "LAT": 35.85805152
    },
    {
      "ROUTE_NAME": "103-1",
      "ROUTE_ORD": 14,
      "STOP_ID": 306101215,
      "LNG": 127.10059332,
      "BRT_SUBID": "0",
      "ROUTE_ID": 305001769,
      "STOP_NAME": "팔복예술공장",
      "SERVICE_ID": 31214,
      "NODE_ID": 306101215,
      "STOP_ORD": 14,
      "LAT": 35.85588544
    },
    {
      "ROUTE_NAME": "103-1",
      "ROUTE_ORD": 15,
      "STOP_ID": 306101162,
      "LNG": 127.105325,
      "BRT_SUBID": "0",
      "ROUTE_ID": 305001769,
      "STOP_NAME": "팔복근린상가",
      "SERVICE_ID": 31161,
      "NODE_ID": 306101162,
      "STOP_ORD": 15,
      "LAT": 35.853244
    },
    {
      "ROUTE_NAME": "103-1",
      "ROUTE_ORD": 16,
      "STOP_ID": 306101140,
      "LNG": 127.109526,
      "BRT_SUBID": "0",
      "ROUTE_ID": 305001769,
      "STOP_NAME": "추천대교",
      "SERVICE_ID": 31139,
      "NODE_ID": 306101140,
      "STOP_ORD": 16,
      "LAT": 35.851233
    },
    {
      "ROUTE_NAME": "103-1",
      "ROUTE_ORD": 17,
      "STOP_ID": 306101107,
      "LNG": 127.11385266,
      "BRT_SUBID": "0",
      "ROUTE_ID": 305001769,
      "STOP_NAME": "덕일초중",
      "SERVICE_ID": 31106,
      "NODE_ID": 306101107,
      "STOP_ORD": 17,
      "LAT": 35.84909503
    },
    {
      "ROUTE_NAME": "103-1",
      "ROUTE_ORD": 18,
      "STOP_ID": 306101113,
      "LNG": 127.11968893,
      "BRT_SUBID": "0",
      "ROUTE_ID": 305001769,
      "STOP_NAME": "도립국악원",
      "SERVICE_ID": 31112,
      "NODE_ID": 306101113,
      "STOP_ORD": 18,
      "LAT": 35.84934543
    },
    {
      "ROUTE_NAME": "103-1",
      "ROUTE_ORD": 19,
      "STOP_ID": 306101170,
      "LNG": 127.11979367,
      "BRT_SUBID": "0",
      "ROUTE_ID": 305001769,
      "STOP_NAME": "도립여성중고 롯데마트",
      "SERVICE_ID": 31169,
      "NODE_ID": 306101170,
      "STOP_ORD": 19,
      "LAT": 35.85361352
    },
    {
      "ROUTE_NAME": "103-1",
      "ROUTE_ORD": 20,
      "STOP_ID": 306101229,
      "LNG": 127.11982,
      "BRT_SUBID": "0",
      "ROUTE_ID": 305001769,
      "STOP_NAME": "송천삼거리.송천초교",
      "SERVICE_ID": 31228,
      "NODE_ID": 306101229,
      "STOP_ORD": 20,
      "LAT": 35.856559
    },
    {
      "ROUTE_NAME": "103-1",
      "ROUTE_ORD": 21,
      "STOP_ID": 306102011,
      "LNG": 127.114794,
      "BRT_SUBID": "0",
      "ROUTE_ID": 305001769,
      "STOP_NAME": "용소마을제일아파트",
      "SERVICE_ID": 32011,
      "NODE_ID": 306102011,
      "STOP_ORD": 21,
      "LAT": 35.860159
    },
    {
      "ROUTE_NAME": "103-1",
      "ROUTE_ORD": 22,
      "STOP_ID": 306101297,
      "LNG": 127.11478688,
      "BRT_SUBID": "0",
      "ROUTE_ID": 305001769,
      "STOP_NAME": "송천대명아파트",
      "SERVICE_ID": 31296,
      "NODE_ID": 306101297,
      "STOP_ORD": 22,
      "LAT": 35.8630123
    },
    {
      "ROUTE_NAME": "103-1",
      "ROUTE_ORD": 23,
      "STOP_ID": 306101341,
      "LNG": 127.11470965,
      "BRT_SUBID": "0",
      "ROUTE_ID": 305001769,
      "STOP_NAME": "송천롯데아파트",
      "SERVICE_ID": 31340,
      "NODE_ID": 306101341,
      "STOP_ORD": 23,
      "LAT": 35.8661518
    },
    {
      "ROUTE_NAME": "103-1",
      "ROUTE_ORD": 24,
      "STOP_ID": 306101357,
      "LNG": 127.11673,
      "BRT_SUBID": "0",
      "ROUTE_ID": 305001769,
      "STOP_NAME": "농수산시장 내",
      "SERVICE_ID": 31356,
      "NODE_ID": 306101357,
      "STOP_ORD": 24,
      "LAT": 35.867741
    },
    {
      "ROUTE_NAME": "103-1",
      "ROUTE_ORD": 25,
      "STOP_ID": 306101324,
      "LNG": 127.121365,
      "BRT_SUBID": "0",
      "ROUTE_ID": 305001769,
      "STOP_NAME": "송천동성원무지개아파트",
      "SERVICE_ID": 31323,
      "NODE_ID": 306101324,
      "STOP_ORD": 25,
      "LAT": 35.865843
    },
    {
      "ROUTE_NAME": "103-1",
      "ROUTE_ORD": 26,
      "STOP_ID": 306101307,
      "LNG": 127.12369476,
      "BRT_SUBID": "0",
      "ROUTE_ID": 305001769,
      "STOP_NAME": "송북초교",
      "SERVICE_ID": 31306,
      "NODE_ID": 306101307,
      "STOP_ORD": 26,
      "LAT": 35.86363645
    },
    {
      "ROUTE_NAME": "103-1",
      "ROUTE_ORD": 27,
      "STOP_ID": 306101320,
      "LNG": 127.12708911,
      "BRT_SUBID": "0",
      "ROUTE_ID": 305001769,
      "STOP_NAME": "송천주공2단지",
      "SERVICE_ID": 31319,
      "NODE_ID": 306101320,
      "STOP_ORD": 27,
      "LAT": 35.86436962
    },
    {
      "ROUTE_NAME": "103-1",
      "ROUTE_ORD": 28,
      "STOP_ID": 306101344,
      "LNG": 127.12733436,
      "BRT_SUBID": "0",
      "ROUTE_ID": 305001769,
      "STOP_NAME": "송천현대아파트",
      "SERVICE_ID": 31343,
      "NODE_ID": 306101344,
      "STOP_ORD": 28,
      "LAT": 35.8662239
    },
    {
      "ROUTE_NAME": "103-1",
      "ROUTE_ORD": 29,
      "STOP_ID": 306101363,
      "LNG": 127.127379,
      "BRT_SUBID": "0",
      "ROUTE_ID": 305001769,
      "STOP_NAME": "송천주공아파트",
      "SERVICE_ID": 31362,
      "NODE_ID": 306101363,
      "STOP_ORD": 29,
      "LAT": 35.867602
    },
    {
      "ROUTE_NAME": "103-1",
      "ROUTE_ORD": 30,
      "STOP_ID": 305032706,
      "LNG": 127.130206,
      "BRT_SUBID": "0",
      "ROUTE_ID": 305001769,
      "STOP_NAME": "송천도서관.솔내청소년센터",
      "SERVICE_ID": 36640,
      "NODE_ID": 305032706,
      "STOP_ORD": 30,
      "LAT": 35.869567
    },
    {
      "ROUTE_NAME": "103-1",
      "ROUTE_ORD": 31,
      "STOP_ID": 306101380,
      "LNG": 127.136487,
      "BRT_SUBID": "0",
      "ROUTE_ID": 305001769,
      "STOP_NAME": "대송장례식장",
      "SERVICE_ID": 31379,
      "NODE_ID": 306101380,
      "STOP_ORD": 31,
      "LAT": 35.869341
    },
    {
      "ROUTE_NAME": "103-1",
      "ROUTE_ORD": 32,
      "STOP_ID": 306101374,
      "LNG": 127.142807,
      "BRT_SUBID": "0",
      "ROUTE_ID": 305001769,
      "STOP_NAME": "화정마을",
      "SERVICE_ID": 31373,
      "NODE_ID": 306101374,
      "STOP_ORD": 32,
      "LAT": 35.868706
    },
    {
      "ROUTE_NAME": "103-1",
      "ROUTE_ORD": 33,
      "STOP_ID": 306101347,
      "LNG": 127.14731266,
      "BRT_SUBID": "0",
      "ROUTE_ID": 305001769,
      "STOP_NAME": "호성진흥3단지",
      "SERVICE_ID": 31346,
      "NODE_ID": 306101347,
      "STOP_ORD": 33,
      "LAT": 35.86634247
    },
    {
      "ROUTE_NAME": "103-1",
      "ROUTE_ORD": 34,
      "STOP_ID": 306101322,
      "LNG": 127.14890823,
      "BRT_SUBID": "0",
      "ROUTE_ID": 305001769,
      "STOP_NAME": "호성진흥더블파크",
      "SERVICE_ID": 31321,
      "NODE_ID": 306101322,
      "STOP_ORD": 34,
      "LAT": 35.86463135
    },
    {
      "ROUTE_NAME": "103-1",
      "ROUTE_ORD": 35,
      "STOP_ID": 306101294,
      "LNG": 127.150719,
      "BRT_SUBID": "0",
      "ROUTE_ID": 305001769,
      "STOP_NAME": "전주출입국외국인사무소",
      "SERVICE_ID": 31293,
      "NODE_ID": 306101294,
      "STOP_ORD": 35,
      "LAT": 35.862876
    },
    {
      "ROUTE_NAME": "103-1",
      "ROUTE_ORD": 36,
      "STOP_ID": 306101264,
      "LNG": 127.153766,
      "BRT_SUBID": "0",
      "ROUTE_ID": 305001769,
      "STOP_NAME": "호성동아아파트",
      "SERVICE_ID": 31263,
      "NODE_ID": 306101264,
      "STOP_ORD": 36,
      "LAT": 35.859731
    },
    {
      "ROUTE_NAME": "103-1",
      "ROUTE_ORD": 37,
      "STOP_ID": 306101245,
      "LNG": 127.1552294,
      "BRT_SUBID": "0",
      "ROUTE_ID": 305001769,
      "STOP_NAME": "호성동신아파트",
      "SERVICE_ID": 31244,
      "NODE_ID": 306101245,
      "STOP_ORD": 37,
      "LAT": 35.85815573
    },
    {
      "ROUTE_NAME": "103-1",
      "ROUTE_ORD": 38,
      "STOP_ID": 306101193,
      "LNG": 127.15760015,
      "BRT_SUBID": "0",
      "ROUTE_ID": 305001769,
      "STOP_NAME": "기린중",
      "SERVICE_ID": 31192,
      "NODE_ID": 306101193,
      "STOP_ORD": 38,
      "LAT": 35.85455441
    },
    {
      "ROUTE_NAME": "103-1",
      "ROUTE_ORD": 39,
      "STOP_ID": 306101110,
      "LNG": 127.1588352,
      "BRT_SUBID": "0",
      "ROUTE_ID": 305001769,
      "STOP_NAME": "전주역첫마중길",
      "SERVICE_ID": 31109,
      "NODE_ID": 306101110,
      "STOP_ORD": 39,
      "LAT": 35.8488499
    },
    {
      "ROUTE_NAME": "103-1",
      "ROUTE_ORD": 40,
      "STOP_ID": 306101092,
      "LNG": 127.155193,
      "BRT_SUBID": "0",
      "ROUTE_ID": 305001769,
      "STOP_NAME": "덕진보건소.한국전기안전공사전북본부",
      "SERVICE_ID": 31091,
      "NODE_ID": 306101092,
      "STOP_ORD": 40,
      "LAT": 35.847489
    },
    {
      "ROUTE_NAME": "103-1",
      "ROUTE_ORD": 41,
      "STOP_ID": 306101080,
      "LNG": 127.15287844,
      "BRT_SUBID": "0",
      "ROUTE_ID": 305001769,
      "STOP_NAME": "명주골네거리.대자인병원",
      "SERVICE_ID": 31079,
      "NODE_ID": 306101080,
      "STOP_ORD": 41,
      "LAT": 35.84548171
    },
    {
      "ROUTE_NAME": "103-1",
      "ROUTE_ORD": 42,
      "STOP_ID": 306101019,
      "LNG": 127.15489706,
      "BRT_SUBID": "0",
      "ROUTE_ID": 305001769,
      "STOP_NAME": "북일초교",
      "SERVICE_ID": 31018,
      "NODE_ID": 306101019,
      "STOP_ORD": 42,
      "LAT": 35.84067342
    },
    {
      "ROUTE_NAME": "103-1",
      "ROUTE_ORD": 43,
      "STOP_ID": 306100944,
      "LNG": 127.1571197,
      "BRT_SUBID": "0",
      "ROUTE_ID": 305001769,
      "STOP_NAME": "전주시민기록관",
      "SERVICE_ID": 30944,
      "NODE_ID": 306100944,
      "STOP_ORD": 43,
      "LAT": 35.83507037
    },
    {
      "ROUTE_NAME": "103-1",
      "ROUTE_ORD": 44,
      "STOP_ID": 306100908,
      "LNG": 127.158825,
      "BRT_SUBID": "0",
      "ROUTE_ID": 305001769,
      "STOP_NAME": "기린초교",
      "SERVICE_ID": 30908,
      "NODE_ID": 306100908,
      "STOP_ORD": 44,
      "LAT": 35.833587
    },
    {
      "ROUTE_NAME": "103-1",
      "ROUTE_ORD": 45,
      "STOP_ID": 306100937,
      "LNG": 127.16497601,
      "BRT_SUBID": "0",
      "ROUTE_ID": 305001769,
      "STOP_NAME": "고용노동부전주지청",
      "SERVICE_ID": 30937,
      "NODE_ID": 306100937,
      "STOP_ORD": 45,
      "LAT": 35.83496455
    },
    {
      "ROUTE_NAME": "103-1",
      "ROUTE_ORD": 46,
      "STOP_ID": 306100913,
      "LNG": 127.1675838,
      "BRT_SUBID": "0",
      "ROUTE_ID": 305001769,
      "STOP_NAME": "아중대우아파트",
      "SERVICE_ID": 30913,
      "NODE_ID": 306100913,
      "STOP_ORD": 46,
      "LAT": 35.83358
    },
    {
      "ROUTE_NAME": "103-1",
      "ROUTE_ORD": 47,
      "STOP_ID": 306100869,
      "LNG": 127.16792027,
      "BRT_SUBID": "0",
      "ROUTE_ID": 305001769,
      "STOP_NAME": "아중현대아파트",
      "SERVICE_ID": 30869,
      "NODE_ID": 306100869,
      "STOP_ORD": 47,
      "LAT": 35.83178082
    },
    {
      "ROUTE_NAME": "103-1",
      "ROUTE_ORD": 48,
      "STOP_ID": 306100847,
      "LNG": 127.16879113,
      "BRT_SUBID": "0",
      "ROUTE_ID": 305001769,
      "STOP_NAME": "중앙여고",
      "SERVICE_ID": 30847,
      "NODE_ID": 306100847,
      "STOP_ORD": 48,
      "LAT": 35.83007524
    },
    {
      "ROUTE_NAME": "103-1",
      "ROUTE_ORD": 49,
      "STOP_ID": 306100811,
      "LNG": 127.17090123,
      "BRT_SUBID": "0",
      "ROUTE_ID": 305001769,
      "STOP_NAME": "하인교마을",
      "SERVICE_ID": 30811,
      "NODE_ID": 306100811,
      "STOP_ORD": 49,
      "LAT": 35.82765841
    },
    {
      "ROUTE_NAME": "103-1",
      "ROUTE_ORD": 50,
      "STOP_ID": 306100820,
      "LNG": 127.173378,
      "BRT_SUBID": "0",
      "ROUTE_ID": 305001769,
      "STOP_NAME": "아중호수.인교마을입구.아중요양병원",
      "SERVICE_ID": 30820,
      "NODE_ID": 306100820,
      "STOP_ORD": 50,
      "LAT": 35.828468
    },
    {
      "ROUTE_NAME": "103-1",
      "ROUTE_ORD": 51,
      "STOP_ID": 305032317,
      "LNG": 127.1794784,
      "BRT_SUBID": "0",
      "ROUTE_ID": 305001769,
      "STOP_NAME": "전주시양묘장",
      "SERVICE_ID": 36206,
      "NODE_ID": 305032317,
      "STOP_ORD": 51,
      "LAT": 35.8241393
    }
  ]
}