{
  "resultList": [
    {
      "ROUTE_NAME": "23",
      "ROUTE_ORD": 1,
      "STOP_ID": 306101240,
      "LNG": 127.0350032,
      "BRT_SUBID": "0",
      "ROUTE_ID": 305001537,
      "STOP_NAME": "원동마을",
      "SERVICE_ID": 31239,
      "NODE_ID": 306101240,
      "STOP_ORD": 1,
      "LAT": 35.8578175
    },
    {
      "ROUTE_NAME": "23",
      "ROUTE_ORD": 2,
      "STOP_ID": 306101224,
      "LNG": 127.03471506,
      "BRT_SUBID": "0",
      "ROUTE_ID": 305001537,
      "STOP_NAME": "회룡마을",
      "SERVICE_ID": 31223,
      "NODE_ID": 306101224,
      "STOP_ORD": 2,
      "LAT": 35.85639092
    },
    {
      "ROUTE_NAME": "23",
      "ROUTE_ORD": 3,
      "STOP_ID": 306101137,
      "LNG": 127.0345557,
      "BRT_SUBID": "0",
      "ROUTE_ID": 305001537,
      "STOP_NAME": "득정마을",
      "SERVICE_ID": 31136,
      "NODE_ID": 306101137,
      "STOP_ORD": 3,
      "LAT": 35.8510131
    },
    {
      "ROUTE_NAME": "23",
      "ROUTE_ORD": 4,
      "STOP_ID": 305032476,
      "LNG": 127.0336722,
      "BRT_SUBID": "0",
      "ROUTE_ID": 305001537,
      "STOP_NAME": "수청마을",
      "SERVICE_ID": 36410,
      "NODE_ID": 305032476,
      "STOP_ORD": 4,
      "LAT": 35.8477432
    },
    {
      "ROUTE_NAME": "23",
      "ROUTE_ORD": 5,
      "STOP_ID": 312101061,
      "LNG": 127.03112939,
      "BRT_SUBID": "0",
      "ROUTE_ID": 305001537,
      "STOP_NAME": "반교리",
      "SERVICE_ID": 31060,
      "NODE_ID": 312101061,
      "STOP_ORD": 5,
      "LAT": 35.84409633
    },
    {
      "ROUTE_NAME": "23",
      "ROUTE_ORD": 6,
      "STOP_ID": 312032128,
      "LNG": 127.0232096,
      "BRT_SUBID": "0",
      "ROUTE_ID": 305001537,
      "STOP_NAME": "원반교",
      "SERVICE_ID": 32128,
      "NODE_ID": 312032128,
      "STOP_ORD": 6,
      "LAT": 35.8371759
    },
    {
      "ROUTE_NAME": "23",
      "ROUTE_ORD": 7,
      "STOP_ID": 312100975,
      "LNG": 127.02101785,
      "BRT_SUBID": "0",
      "ROUTE_ID": 305001537,
      "STOP_NAME": "정농마을",
      "SERVICE_ID": 31994,
      "NODE_ID": 312100975,
      "STOP_ORD": 7,
      "LAT": 35.83717633
    },
    {
      "ROUTE_NAME": "23",
      "ROUTE_ORD": 8,
      "STOP_ID": 305032366,
      "LNG": 127.0183363,
      "BRT_SUBID": "0",
      "ROUTE_ID": 305001537,
      "STOP_NAME": "땟골마을",
      "SERVICE_ID": 36300,
      "NODE_ID": 305032366,
      "STOP_ORD": 8,
      "LAT": 35.8407133
    },
    {
      "ROUTE_NAME": "23",
      "ROUTE_ORD": 9,
      "STOP_ID": 312101138,
      "LNG": 127.01331347,
      "BRT_SUBID": "0",
      "ROUTE_ID": 305001537,
      "STOP_NAME": "대농",
      "SERVICE_ID": 31137,
      "NODE_ID": 312101138,
      "STOP_ORD": 9,
      "LAT": 35.85111575
    },
    {
      "ROUTE_NAME": "23",
      "ROUTE_ORD": 10,
      "STOP_ID": 305032367,
      "LNG": 127.0183037,
      "BRT_SUBID": "0",
      "ROUTE_ID": 305001537,
      "STOP_NAME": "땟골마을",
      "SERVICE_ID": 36301,
      "NODE_ID": 305032367,
      "STOP_ORD": 10,
      "LAT": 35.8406049
    },
    {
      "ROUTE_NAME": "23",
      "ROUTE_ORD": 11,
      "STOP_ID": 312100974,
      "LNG": 127.02094484,
      "BRT_SUBID": "0",
      "ROUTE_ID": 305001537,
      "STOP_NAME": "정농마을",
      "SERVICE_ID": 30974,
      "NODE_ID": 312100974,
      "STOP_ORD": 11,
      "LAT": 35.83703038
    },
    {
      "ROUTE_NAME": "23",
      "ROUTE_ORD": 12,
      "STOP_ID": 312032123,
      "LNG": 127.023878,
      "BRT_SUBID": "0",
      "ROUTE_ID": 305001537,
      "STOP_NAME": "농원삼거리",
      "SERVICE_ID": 32123,
      "NODE_ID": 312032123,
      "STOP_ORD": 12,
      "LAT": 35.834796
    },
    {
      "ROUTE_NAME": "23",
      "ROUTE_ORD": 13,
      "STOP_ID": 312032117,
      "LNG": 127.024671,
      "BRT_SUBID": "0",
      "ROUTE_ID": 305001537,
      "STOP_NAME": "지방자치인재개발원",
      "SERVICE_ID": 32117,
      "NODE_ID": 312032117,
      "STOP_ORD": 13,
      "LAT": 35.83273
    },
    {
      "ROUTE_NAME": "23",
      "ROUTE_ORD": 14,
      "STOP_ID": 312032823,
      "LNG": 127.0177977,
      "BRT_SUBID": "0",
      "ROUTE_ID": 305001537,
      "STOP_NAME": "해교리입구",
      "SERVICE_ID": 36293,
      "NODE_ID": 312032823,
      "STOP_ORD": 14,
      "LAT": 35.8318104
    },
    {
      "ROUTE_NAME": "23",
      "ROUTE_ORD": 15,
      "STOP_ID": 305032159,
      "LNG": 127.0181453,
      "BRT_SUBID": "0",
      "ROUTE_ID": 305001537,
      "STOP_NAME": "지사울공원",
      "SERVICE_ID": 32159,
      "NODE_ID": 305032159,
      "STOP_ORD": 15,
      "LAT": 35.82961498
    },
    {
      "ROUTE_NAME": "23",
      "ROUTE_ORD": 16,
      "STOP_ID": 312032126,
      "LNG": 127.021748,
      "BRT_SUBID": "0",
      "ROUTE_ID": 305001537,
      "STOP_NAME": "혁신에코르2단지정문",
      "SERVICE_ID": 32126,
      "NODE_ID": 312032126,
      "STOP_ORD": 16,
      "LAT": 35.827946
    },
    {
      "ROUTE_NAME": "23",
      "ROUTE_ORD": 17,
      "STOP_ID": 312032124,
      "LNG": 127.024376,
      "BRT_SUBID": "0",
      "ROUTE_ID": 305001537,
      "STOP_NAME": "혁신에코르3단지",
      "SERVICE_ID": 32124,
      "NODE_ID": 312032124,
      "STOP_ORD": 17,
      "LAT": 35.826402
    },
    {
      "ROUTE_NAME": "23",
      "ROUTE_ORD": 18,
      "STOP_ID": 312032819,
      "LNG": 127.0269439,
      "BRT_SUBID": "0",
      "ROUTE_ID": 305001537,
      "STOP_NAME": "신마산",
      "SERVICE_ID": 36289,
      "NODE_ID": 312032819,
      "STOP_ORD": 18,
      "LAT": 35.8210274
    },
    {
      "ROUTE_NAME": "23",
      "ROUTE_ORD": 19,
      "STOP_ID": 312100689,
      "LNG": 127.02352732,
      "BRT_SUBID": "0",
      "ROUTE_ID": 305001537,
      "STOP_NAME": "이서",
      "SERVICE_ID": 30689,
      "NODE_ID": 312100689,
      "STOP_ORD": 19,
      "LAT": 35.82040564
    },
    {
      "ROUTE_NAME": "23",
      "ROUTE_ORD": 20,
      "STOP_ID": 312132265,
      "LNG": 127.0206476,
      "BRT_SUBID": "0",
      "ROUTE_ID": 305001537,
      "STOP_NAME": "이서종점",
      "SERVICE_ID": 32265,
      "NODE_ID": 312132265,
      "STOP_ORD": 20,
      "LAT": 35.8198475
    },
    {
      "ROUTE_NAME": "23",
      "ROUTE_ORD": 21,
      "STOP_ID": 305032675,
      "LNG": 127.0199833,
      "BRT_SUBID": "0",
      "ROUTE_ID": 305001537,
      "STOP_NAME": "이서회차지",
      "SERVICE_ID": 36609,
      "NODE_ID": 305032675,
      "STOP_ORD": 21,
      "LAT": 35.817095
    }
  ]
}