{
  "resultList": [
    {
      "ROUTE_NAME": "354",
      "ROUTE_ORD": 1,
      "STOP_ID": 312101702,
      "LNG": 127.0671015,
      "BRT_SUBID": "A",
      "ROUTE_ID": 305001304,
      "STOP_NAME": "우석대학교",
      "SERVICE_ID": 31701,
      "NODE_ID": 312101702,
      "STOP_ORD": 1,
      "LAT": 35.9151198
    },
    {
      "ROUTE_NAME": "354",
      "ROUTE_ORD": 2,
      "STOP_ID": 312032786,
      "LNG": 127.0720617,
      "BRT_SUBID": "A",
      "ROUTE_ID": 305001304,
      "STOP_NAME": "삼례사거리",
      "SERVICE_ID": 36225,
      "NODE_ID": 312032786,
      "STOP_ORD": 2,
      "LAT": 35.9109316
    },
    {
      "ROUTE_NAME": "354",
      "ROUTE_ORD": 3,
      "STOP_ID": 312102009,
      "LNG": 127.0733218,
      "BRT_SUBID": "A",
      "ROUTE_ID": 305001304,
      "STOP_NAME": "삼봉로.삼례시장",
      "SERVICE_ID": 32009,
      "NODE_ID": 312102009,
      "STOP_ORD": 3,
      "LAT": 35.91095521
    },
    {
      "ROUTE_NAME": "354",
      "ROUTE_ORD": 4,
      "STOP_ID": 312101673,
      "LNG": 127.075066,
      "BRT_SUBID": "A",
      "ROUTE_ID": 305001304,
      "STOP_NAME": "삼례터미널",
      "SERVICE_ID": 31672,
      "NODE_ID": 312101673,
      "STOP_ORD": 4,
      "LAT": 35.910144
    },
    {
      "ROUTE_NAME": "354",
      "ROUTE_ORD": 5,
      "STOP_ID": 312132075,
      "LNG": 127.089059,
      "BRT_SUBID": "A",
      "ROUTE_ID": 305001304,
      "STOP_NAME": "신복마을입구",
      "SERVICE_ID": 32075,
      "NODE_ID": 312132075,
      "STOP_ORD": 5,
      "LAT": 35.902966
    },
    {
      "ROUTE_NAME": "354",
      "ROUTE_ORD": 6,
      "STOP_ID": 312101627,
      "LNG": 127.0945991,
      "BRT_SUBID": "A",
      "ROUTE_ID": 305001304,
      "STOP_NAME": "조사마을",
      "SERVICE_ID": 31626,
      "NODE_ID": 312101627,
      "STOP_ORD": 6,
      "LAT": 35.90005063
    },
    {
      "ROUTE_NAME": "354",
      "ROUTE_ORD": 7,
      "STOP_ID": 312101623,
      "LNG": 127.09776574,
      "BRT_SUBID": "A",
      "ROUTE_ID": 305001304,
      "STOP_NAME": "하리",
      "SERVICE_ID": 31622,
      "NODE_ID": 312101623,
      "STOP_ORD": 7,
      "LAT": 35.89924546
    },
    {
      "ROUTE_NAME": "354",
      "ROUTE_ORD": 8,
      "STOP_ID": 306101601,
      "LNG": 127.1023599,
      "BRT_SUBID": "A",
      "ROUTE_ID": 305001304,
      "STOP_NAME": "신미산",
      "SERVICE_ID": 31600,
      "NODE_ID": 306101601,
      "STOP_ORD": 8,
      "LAT": 35.8925611
    },
    {
      "ROUTE_NAME": "354",
      "ROUTE_ORD": 9,
      "STOP_ID": 306101563,
      "LNG": 127.1046635,
      "BRT_SUBID": "A",
      "ROUTE_ID": 305001304,
      "STOP_NAME": "주정마을",
      "SERVICE_ID": 31562,
      "NODE_ID": 306101563,
      "STOP_ORD": 9,
      "LAT": 35.8894311
    },
    {
      "ROUTE_NAME": "354",
      "ROUTE_ORD": 10,
      "STOP_ID": 306101516,
      "LNG": 127.10936072,
      "BRT_SUBID": "A",
      "ROUTE_ID": 305001304,
      "STOP_NAME": "미산초교",
      "SERVICE_ID": 31515,
      "NODE_ID": 306101516,
      "STOP_ORD": 10,
      "LAT": 35.88305057
    },
    {
      "ROUTE_NAME": "354",
      "ROUTE_ORD": 11,
      "STOP_ID": 306101476,
      "LNG": 127.112058,
      "BRT_SUBID": "A",
      "ROUTE_ID": 305001304,
      "STOP_NAME": "월곡마을앞",
      "SERVICE_ID": 31475,
      "NODE_ID": 306101476,
      "STOP_ORD": 11,
      "LAT": 35.878708
    },
    {
      "ROUTE_NAME": "354",
      "ROUTE_ORD": 12,
      "STOP_ID": 306101437,
      "LNG": 127.113104,
      "BRT_SUBID": "A",
      "ROUTE_ID": 305001304,
      "STOP_NAME": "구.비행장",
      "SERVICE_ID": 31436,
      "NODE_ID": 306101437,
      "STOP_ORD": 12,
      "LAT": 35.874763
    },
    {
      "ROUTE_NAME": "354",
      "ROUTE_ORD": 13,
      "STOP_ID": 306101414,
      "LNG": 127.113538,
      "BRT_SUBID": "A",
      "ROUTE_ID": 305001304,
      "STOP_NAME": "용흥마을",
      "SERVICE_ID": 31413,
      "NODE_ID": 306101414,
      "STOP_ORD": 13,
      "LAT": 35.873131
    },
    {
      "ROUTE_NAME": "354",
      "ROUTE_ORD": 14,
      "STOP_ID": 306101403,
      "LNG": 127.114697,
      "BRT_SUBID": "A",
      "ROUTE_ID": 305001304,
      "STOP_NAME": "발단마을",
      "SERVICE_ID": 31402,
      "NODE_ID": 306101403,
      "STOP_ORD": 14,
      "LAT": 35.871366
    },
    {
      "ROUTE_NAME": "354",
      "ROUTE_ORD": 15,
      "STOP_ID": 306101998,
      "LNG": 127.1175725,
      "BRT_SUBID": "A",
      "ROUTE_ID": 305001304,
      "STOP_NAME": "동부대로 농수산시장",
      "SERVICE_ID": 32005,
      "NODE_ID": 306101998,
      "STOP_ORD": 15,
      "LAT": 35.8696339
    },
    {
      "ROUTE_NAME": "354",
      "ROUTE_ORD": 16,
      "STOP_ID": 306101369,
      "LNG": 127.12722076,
      "BRT_SUBID": "A",
      "ROUTE_ID": 305001304,
      "STOP_NAME": "송천주공아파트",
      "SERVICE_ID": 31368,
      "NODE_ID": 306101369,
      "STOP_ORD": 16,
      "LAT": 35.86810687
    },
    {
      "ROUTE_NAME": "354",
      "ROUTE_ORD": 17,
      "STOP_ID": 306101342,
      "LNG": 127.12706103,
      "BRT_SUBID": "A",
      "ROUTE_ID": 305001304,
      "STOP_NAME": "송천현대아파트",
      "SERVICE_ID": 31341,
      "NODE_ID": 306101342,
      "STOP_ORD": 17,
      "LAT": 35.86617907
    },
    {
      "ROUTE_NAME": "354",
      "ROUTE_ORD": 18,
      "STOP_ID": 306101318,
      "LNG": 127.1264262,
      "BRT_SUBID": "A",
      "ROUTE_ID": 305001304,
      "STOP_NAME": "송천주공2단지",
      "SERVICE_ID": 31317,
      "NODE_ID": 306101318,
      "STOP_ORD": 18,
      "LAT": 35.86405704
    },
    {
      "ROUTE_NAME": "354",
      "ROUTE_ORD": 19,
      "STOP_ID": 306101313,
      "LNG": 127.12372569,
      "BRT_SUBID": "A",
      "ROUTE_ID": 305001304,
      "STOP_NAME": "송북초교",
      "SERVICE_ID": 31312,
      "NODE_ID": 306101313,
      "STOP_ORD": 19,
      "LAT": 35.8639091
    },
    {
      "ROUTE_NAME": "354",
      "ROUTE_ORD": 20,
      "STOP_ID": 306101274,
      "LNG": 127.121075,
      "BRT_SUBID": "A",
      "ROUTE_ID": 305001304,
      "STOP_NAME": "전라고",
      "SERVICE_ID": 31273,
      "NODE_ID": 306101274,
      "STOP_ORD": 20,
      "LAT": 35.860368
    },
    {
      "ROUTE_NAME": "354",
      "ROUTE_ORD": 21,
      "STOP_ID": 306101211,
      "LNG": 127.11982418,
      "BRT_SUBID": "A",
      "ROUTE_ID": 305001304,
      "STOP_NAME": "송천삼거리 롯데마트",
      "SERVICE_ID": 31210,
      "NODE_ID": 306101211,
      "STOP_ORD": 21,
      "LAT": 35.85538448
    },
    {
      "ROUTE_NAME": "354",
      "ROUTE_ORD": 22,
      "STOP_ID": 306101163,
      "LNG": 127.119477,
      "BRT_SUBID": "A",
      "ROUTE_ID": 305001304,
      "STOP_NAME": "송천 센트럴파크",
      "SERVICE_ID": 31162,
      "NODE_ID": 306101163,
      "STOP_ORD": 22,
      "LAT": 35.853192
    },
    {
      "ROUTE_NAME": "354",
      "ROUTE_ORD": 23,
      "STOP_ID": 306101106,
      "LNG": 127.119015,
      "BRT_SUBID": "A",
      "ROUTE_ID": 305001304,
      "STOP_NAME": "도립국악원",
      "SERVICE_ID": 31105,
      "NODE_ID": 306101106,
      "STOP_ORD": 23,
      "LAT": 35.849157
    },
    {
      "ROUTE_NAME": "354",
      "ROUTE_ORD": 24,
      "STOP_ID": 306101086,
      "LNG": 127.11969439,
      "BRT_SUBID": "A",
      "ROUTE_ID": 305001304,
      "STOP_NAME": "기린대로덕진공원",
      "SERVICE_ID": 31085,
      "NODE_ID": 306101086,
      "STOP_ORD": 24,
      "LAT": 35.84624591
    },
    {
      "ROUTE_NAME": "354",
      "ROUTE_ORD": 25,
      "STOP_ID": 306101044,
      "LNG": 127.12515768,
      "BRT_SUBID": "A",
      "ROUTE_ID": 305001304,
      "STOP_NAME": "전북대학교.농협앞",
      "SERVICE_ID": 31043,
      "NODE_ID": 306101044,
      "STOP_ORD": 25,
      "LAT": 35.84250102
    },
    {
      "ROUTE_NAME": "354",
      "ROUTE_ORD": 26,
      "STOP_ID": 306100993,
      "LNG": 127.13141174,
      "BRT_SUBID": "A",
      "ROUTE_ID": 305001304,
      "STOP_NAME": "고속터미널입구.금암동주민센터",
      "SERVICE_ID": 30992,
      "NODE_ID": 306100993,
      "STOP_ORD": 26,
      "LAT": 35.8379584
    },
    {
      "ROUTE_NAME": "354",
      "ROUTE_ORD": 27,
      "STOP_ID": 306100915,
      "LNG": 127.136648,
      "BRT_SUBID": "A",
      "ROUTE_ID": 305001304,
      "STOP_NAME": "금암광장.청담한방병원",
      "SERVICE_ID": 30915,
      "NODE_ID": 306100915,
      "STOP_ORD": 27,
      "LAT": 35.833708
    },
    {
      "ROUTE_NAME": "354",
      "ROUTE_ORD": 28,
      "STOP_ID": 306100851,
      "LNG": 127.139175,
      "BRT_SUBID": "A",
      "ROUTE_ID": 305001304,
      "STOP_NAME": "한국은행.전북청소년상담센터",
      "SERVICE_ID": 30851,
      "NODE_ID": 306100851,
      "STOP_ORD": 28,
      "LAT": 35.830433
    },
    {
      "ROUTE_NAME": "354",
      "ROUTE_ORD": 29,
      "STOP_ID": 306100743,
      "LNG": 127.14462905,
      "BRT_SUBID": "A",
      "ROUTE_ID": 305001304,
      "STOP_NAME": "중앙시장.중앙성당.방송대",
      "SERVICE_ID": 30743,
      "NODE_ID": 306100743,
      "STOP_ORD": 29,
      "LAT": 35.82397975
    },
    {
      "ROUTE_NAME": "354",
      "ROUTE_ORD": 30,
      "STOP_ID": 305100675,
      "LNG": 127.14647881,
      "BRT_SUBID": "A",
      "ROUTE_ID": 305001304,
      "STOP_NAME": "외환은행",
      "SERVICE_ID": 30675,
      "NODE_ID": 305100675,
      "STOP_ORD": 30,
      "LAT": 35.81950149
    },
    {
      "ROUTE_NAME": "354",
      "ROUTE_ORD": 31,
      "STOP_ID": 305100649,
      "LNG": 127.145011,
      "BRT_SUBID": "A",
      "ROUTE_ID": 305001304,
      "STOP_NAME": "충경로 객사",
      "SERVICE_ID": 30649,
      "NODE_ID": 305100649,
      "STOP_ORD": 31,
      "LAT": 35.818102
    },
    {
      "ROUTE_NAME": "354",
      "ROUTE_ORD": 32,
      "STOP_ID": 305100644,
      "LNG": 127.141616,
      "BRT_SUBID": "A",
      "ROUTE_ID": 305001304,
      "STOP_NAME": "서문",
      "SERVICE_ID": 30644,
      "NODE_ID": 305100644,
      "STOP_ORD": 32,
      "LAT": 35.817115
    },
    {
      "ROUTE_NAME": "354",
      "ROUTE_ORD": 33,
      "STOP_ID": 305100625,
      "LNG": 127.13766517,
      "BRT_SUBID": "A",
      "ROUTE_ID": 305001304,
      "STOP_NAME": "신흥중고등학교",
      "SERVICE_ID": 30625,
      "NODE_ID": 305100625,
      "STOP_ORD": 33,
      "LAT": 35.81577568
    },
    {
      "ROUTE_NAME": "354",
      "ROUTE_ORD": 34,
      "STOP_ID": 305100587,
      "LNG": 127.133027,
      "BRT_SUBID": "A",
      "ROUTE_ID": 305001304,
      "STOP_NAME": "예수병원",
      "SERVICE_ID": 30587,
      "NODE_ID": 305100587,
      "STOP_ORD": 34,
      "LAT": 35.813639
    },
    {
      "ROUTE_NAME": "354",
      "ROUTE_ORD": 35,
      "STOP_ID": 305100564,
      "LNG": 127.13005,
      "BRT_SUBID": "A",
      "ROUTE_ID": 305001304,
      "STOP_NAME": "튼튼한방병원.나눔요양병원",
      "SERVICE_ID": 30564,
      "NODE_ID": 305100564,
      "STOP_ORD": 35,
      "LAT": 35.812378
    },
    {
      "ROUTE_NAME": "354",
      "ROUTE_ORD": 36,
      "STOP_ID": 305100565,
      "LNG": 127.1257966,
      "BRT_SUBID": "A",
      "ROUTE_ID": 305001304,
      "STOP_NAME": "풍림아이원",
      "SERVICE_ID": 30565,
      "NODE_ID": 305100565,
      "STOP_ORD": 36,
      "LAT": 35.8120153
    },
    {
      "ROUTE_NAME": "354",
      "ROUTE_ORD": 37,
      "STOP_ID": 305100572,
      "LNG": 127.118892,
      "BRT_SUBID": "A",
      "ROUTE_ID": 305001304,
      "STOP_NAME": "완산구청",
      "SERVICE_ID": 30572,
      "NODE_ID": 305100572,
      "STOP_ORD": 37,
      "LAT": 35.812674
    },
    {
      "ROUTE_NAME": "354",
      "ROUTE_ORD": 38,
      "STOP_ID": 305100579,
      "LNG": 127.11474,
      "BRT_SUBID": "A",
      "ROUTE_ID": 305001304,
      "STOP_NAME": "서원로이동교",
      "SERVICE_ID": 30579,
      "NODE_ID": 305100579,
      "STOP_ORD": 38,
      "LAT": 35.81323
    },
    {
      "ROUTE_NAME": "354",
      "ROUTE_ORD": 39,
      "STOP_ID": 305100592,
      "LNG": 127.1080203,
      "BRT_SUBID": "A",
      "ROUTE_ID": 305001304,
      "STOP_NAME": "효자SK리더스뷰",
      "SERVICE_ID": 30592,
      "NODE_ID": 305100592,
      "STOP_ORD": 39,
      "LAT": 35.81381547
    },
    {
      "ROUTE_NAME": "354",
      "ROUTE_ORD": 40,
      "STOP_ID": 305102001,
      "LNG": 127.103754,
      "BRT_SUBID": "A",
      "ROUTE_ID": 305001304,
      "STOP_NAME": "전북선거관리위원회",
      "SERVICE_ID": 32001,
      "NODE_ID": 305102001,
      "STOP_ORD": 40,
      "LAT": 35.813757
    },
    {
      "ROUTE_NAME": "354",
      "ROUTE_ORD": 41,
      "STOP_ID": 305100591,
      "LNG": 127.09796491,
      "BRT_SUBID": "A",
      "ROUTE_ID": 305001304,
      "STOP_NAME": "호남제일고",
      "SERVICE_ID": 30591,
      "NODE_ID": 305100591,
      "STOP_ORD": 41,
      "LAT": 35.81379234
    },
    {
      "ROUTE_NAME": "354",
      "ROUTE_ORD": 42,
      "STOP_ID": 305032181,
      "LNG": 127.093931,
      "BRT_SUBID": "A",
      "ROUTE_ID": 305001304,
      "STOP_NAME": "전주대학교정문",
      "SERVICE_ID": 32181,
      "NODE_ID": 305032181,
      "STOP_ORD": 42,
      "LAT": 35.812998
    },
    {
      "ROUTE_NAME": "354",
      "ROUTE_ORD": 43,
      "STOP_ID": 305032179,
      "LNG": 127.093771,
      "BRT_SUBID": "A",
      "ROUTE_ID": 305001304,
      "STOP_NAME": "동암차돌학교",
      "SERVICE_ID": 32179,
      "NODE_ID": 305032179,
      "STOP_ORD": 43,
      "LAT": 35.810823
    },
    {
      "ROUTE_NAME": "354",
      "ROUTE_ORD": 44,
      "STOP_ID": 305100527,
      "LNG": 127.09383808,
      "BRT_SUBID": "A",
      "ROUTE_ID": 305001304,
      "STOP_NAME": "비전대학교",
      "SERVICE_ID": 30527,
      "NODE_ID": 305100527,
      "STOP_ORD": 44,
      "LAT": 35.80780062
    }
  ]
}