{
  "resultList": [
    {
      "ROUTE_NAME": "49",
      "ROUTE_ORD": 1,
      "STOP_ID": 305032550,
      "LNG": 127.064192,
      "BRT_SUBID": "C",
      "ROUTE_ID": 305001461,
      "STOP_NAME": "월드컵경기장",
      "SERVICE_ID": 36484,
      "NODE_ID": 305032550,
      "STOP_ORD": 1,
      "LAT": 35.866274
    },
    {
      "ROUTE_NAME": "49",
      "ROUTE_ORD": 2,
      "STOP_ID": 306101346,
      "LNG": 127.063925,
      "BRT_SUBID": "C",
      "ROUTE_ID": 305001461,
      "STOP_NAME": "월드컵경기장남문",
      "SERVICE_ID": 31345,
      "NODE_ID": 306101346,
      "STOP_ORD": 2,
      "LAT": 35.866239
    },
    {
      "ROUTE_NAME": "49",
      "ROUTE_ORD": 3,
      "STOP_ID": 312032231,
      "LNG": 127.061884,
      "BRT_SUBID": "C",
      "ROUTE_ID": 305001461,
      "STOP_NAME": "원반월마을",
      "SERVICE_ID": 32231,
      "NODE_ID": 312032231,
      "STOP_ORD": 3,
      "LAT": 35.870514
    },
    {
      "ROUTE_NAME": "49",
      "ROUTE_ORD": 4,
      "STOP_ID": 305032183,
      "LNG": 127.068676,
      "BRT_SUBID": "C",
      "ROUTE_ID": 305001461,
      "STOP_NAME": "시외고속간이터미널",
      "SERVICE_ID": 32183,
      "NODE_ID": 305032183,
      "STOP_ORD": 4,
      "LAT": 35.87033
    },
    {
      "ROUTE_NAME": "49",
      "ROUTE_ORD": 5,
      "STOP_ID": 306101352,
      "LNG": 127.07484278,
      "BRT_SUBID": "C",
      "ROUTE_ID": 305001461,
      "STOP_NAME": "대한산업보건협회.푸른솔아파트",
      "SERVICE_ID": 31351,
      "NODE_ID": 306101352,
      "STOP_ORD": 5,
      "LAT": 35.86722828
    },
    {
      "ROUTE_NAME": "49",
      "ROUTE_ORD": 6,
      "STOP_ID": 306101353,
      "LNG": 127.077388,
      "BRT_SUBID": "C",
      "ROUTE_ID": 305001461,
      "STOP_NAME": "조촌초교",
      "SERVICE_ID": 31352,
      "NODE_ID": 306101353,
      "STOP_ORD": 6,
      "LAT": 35.8692523
    },
    {
      "ROUTE_NAME": "49",
      "ROUTE_ORD": 7,
      "STOP_ID": 306101407,
      "LNG": 127.07658384,
      "BRT_SUBID": "C",
      "ROUTE_ID": 305001461,
      "STOP_NAME": "여의동우체국전북은행",
      "SERVICE_ID": 31406,
      "NODE_ID": 306101407,
      "STOP_ORD": 7,
      "LAT": 35.8714162
    },
    {
      "ROUTE_NAME": "49",
      "ROUTE_ORD": 8,
      "STOP_ID": 306101425,
      "LNG": 127.07245896,
      "BRT_SUBID": "C",
      "ROUTE_ID": 305001461,
      "STOP_NAME": "반월주공아파트.오네뜨아파트",
      "SERVICE_ID": 31424,
      "NODE_ID": 306101425,
      "STOP_ORD": 8,
      "LAT": 35.87412321
    },
    {
      "ROUTE_NAME": "49",
      "ROUTE_ORD": 9,
      "STOP_ID": 306101426,
      "LNG": 127.07016309,
      "BRT_SUBID": "C",
      "ROUTE_ID": 305001461,
      "STOP_NAME": "반월동 삼오아파트",
      "SERVICE_ID": 31425,
      "NODE_ID": 306101426,
      "STOP_ORD": 9,
      "LAT": 35.8741509
    },
    {
      "ROUTE_NAME": "49",
      "ROUTE_ORD": 10,
      "STOP_ID": 305032291,
      "LNG": 127.06404241,
      "BRT_SUBID": "C",
      "ROUTE_ID": 305001461,
      "STOP_NAME": "반월동농협",
      "SERVICE_ID": 32291,
      "NODE_ID": 305032291,
      "STOP_ORD": 10,
      "LAT": 35.87422617
    },
    {
      "ROUTE_NAME": "49",
      "ROUTE_ORD": 11,
      "STOP_ID": 306101427,
      "LNG": 127.060559,
      "BRT_SUBID": "C",
      "ROUTE_ID": 305001461,
      "STOP_NAME": "전주IC",
      "SERVICE_ID": 31426,
      "NODE_ID": 306101427,
      "STOP_ORD": 11,
      "LAT": 35.874188
    },
    {
      "ROUTE_NAME": "49",
      "ROUTE_ORD": 12,
      "STOP_ID": 306101433,
      "LNG": 127.05519734,
      "BRT_SUBID": "C",
      "ROUTE_ID": 305001461,
      "STOP_NAME": "cbs기독교방송",
      "SERVICE_ID": 31432,
      "NODE_ID": 306101433,
      "STOP_ORD": 12,
      "LAT": 35.87469125
    },
    {
      "ROUTE_NAME": "49",
      "ROUTE_ORD": 13,
      "STOP_ID": 306101451,
      "LNG": 127.04841266,
      "BRT_SUBID": "C",
      "ROUTE_ID": 305001461,
      "STOP_NAME": "번영로용덕마을",
      "SERVICE_ID": 31450,
      "NODE_ID": 306101451,
      "STOP_ORD": 13,
      "LAT": 35.87570467
    },
    {
      "ROUTE_NAME": "49",
      "ROUTE_ORD": 14,
      "STOP_ID": 306101469,
      "LNG": 127.03941419,
      "BRT_SUBID": "C",
      "ROUTE_ID": 305001461,
      "STOP_NAME": "대흥리",
      "SERVICE_ID": 31468,
      "NODE_ID": 306101469,
      "STOP_ORD": 14,
      "LAT": 35.87727818
    },
    {
      "ROUTE_NAME": "49",
      "ROUTE_ORD": 15,
      "STOP_ID": 305032566,
      "LNG": 127.0337402,
      "BRT_SUBID": "C",
      "ROUTE_ID": 305001461,
      "STOP_NAME": "원오신마을회관",
      "SERVICE_ID": 36500,
      "NODE_ID": 305032566,
      "STOP_ORD": 15,
      "LAT": 35.8834128
    },
    {
      "ROUTE_NAME": "49",
      "ROUTE_ORD": 16,
      "STOP_ID": 305032565,
      "LNG": 127.0337686,
      "BRT_SUBID": "C",
      "ROUTE_ID": 305001461,
      "STOP_NAME": "원오신마을회관",
      "SERVICE_ID": 36499,
      "NODE_ID": 305032565,
      "STOP_ORD": 16,
      "LAT": 35.8833002
    },
    {
      "ROUTE_NAME": "49",
      "ROUTE_ORD": 17,
      "STOP_ID": 306032301,
      "LNG": 127.036897,
      "BRT_SUBID": "C",
      "ROUTE_ID": 305001461,
      "STOP_NAME": "원오신",
      "SERVICE_ID": 32301,
      "NODE_ID": 306032301,
      "STOP_ORD": 17,
      "LAT": 35.8835422
    },
    {
      "ROUTE_NAME": "49",
      "ROUTE_ORD": 18,
      "STOP_ID": 306101550,
      "LNG": 127.0369104,
      "BRT_SUBID": "C",
      "ROUTE_ID": 305001461,
      "STOP_NAME": "오신마을",
      "SERVICE_ID": 31549,
      "NODE_ID": 306101550,
      "STOP_ORD": 18,
      "LAT": 35.8869503
    },
    {
      "ROUTE_NAME": "49",
      "ROUTE_ORD": 19,
      "STOP_ID": 305032810,
      "LNG": 127.03442,
      "BRT_SUBID": "C",
      "ROUTE_ID": 305001461,
      "STOP_NAME": "곡천마을 입구",
      "SERVICE_ID": 36744,
      "NODE_ID": 305032810,
      "STOP_ORD": 19,
      "LAT": 35.887504
    },
    {
      "ROUTE_NAME": "49",
      "ROUTE_ORD": 20,
      "STOP_ID": 305032568,
      "LNG": 127.032339,
      "BRT_SUBID": "C",
      "ROUTE_ID": 305001461,
      "STOP_NAME": "곡천마을",
      "SERVICE_ID": 36502,
      "NODE_ID": 305032568,
      "STOP_ORD": 20,
      "LAT": 35.88642
    },
    {
      "ROUTE_NAME": "49",
      "ROUTE_ORD": 21,
      "STOP_ID": 305032567,
      "LNG": 127.032339,
      "BRT_SUBID": "C",
      "ROUTE_ID": 305001461,
      "STOP_NAME": "곡천마을",
      "SERVICE_ID": 36501,
      "NODE_ID": 305032567,
      "STOP_ORD": 21,
      "LAT": 35.886353
    },
    {
      "ROUTE_NAME": "49",
      "ROUTE_ORD": 22,
      "STOP_ID": 305032811,
      "LNG": 127.034406,
      "BRT_SUBID": "C",
      "ROUTE_ID": 305001461,
      "STOP_NAME": "곡천마을 입구",
      "SERVICE_ID": 36745,
      "NODE_ID": 305032811,
      "STOP_ORD": 22,
      "LAT": 35.887459
    },
    {
      "ROUTE_NAME": "49",
      "ROUTE_ORD": 23,
      "STOP_ID": 312032784,
      "LNG": 127.0369416,
      "BRT_SUBID": "C",
      "ROUTE_ID": 305001461,
      "STOP_NAME": "화신마을",
      "SERVICE_ID": 36200,
      "NODE_ID": 312032784,
      "STOP_ORD": 23,
      "LAT": 35.8912943
    },
    {
      "ROUTE_NAME": "49",
      "ROUTE_ORD": 24,
      "STOP_ID": 306101593,
      "LNG": 127.03910551,
      "BRT_SUBID": "C",
      "ROUTE_ID": 305001461,
      "STOP_NAME": "신성리",
      "SERVICE_ID": 31592,
      "NODE_ID": 306101593,
      "STOP_ORD": 24,
      "LAT": 35.89219012
    },
    {
      "ROUTE_NAME": "49",
      "ROUTE_ORD": 25,
      "STOP_ID": 306101589,
      "LNG": 127.04540731,
      "BRT_SUBID": "C",
      "ROUTE_ID": 305001461,
      "STOP_NAME": "굴신마을",
      "SERVICE_ID": 31588,
      "NODE_ID": 306101589,
      "STOP_ORD": 25,
      "LAT": 35.89195941
    },
    {
      "ROUTE_NAME": "49",
      "ROUTE_ORD": 26,
      "STOP_ID": 305032373,
      "LNG": 127.0592656,
      "BRT_SUBID": "C",
      "ROUTE_ID": 305001461,
      "STOP_NAME": "신평마을",
      "SERVICE_ID": 36307,
      "NODE_ID": 305032373,
      "STOP_ORD": 26,
      "LAT": 35.8939217
    },
    {
      "ROUTE_NAME": "49",
      "ROUTE_ORD": 27,
      "STOP_ID": 305032683,
      "LNG": 127.0650325,
      "BRT_SUBID": "C",
      "ROUTE_ID": 305001461,
      "STOP_NAME": "원화전",
      "SERVICE_ID": 36617,
      "NODE_ID": 305032683,
      "STOP_ORD": 27,
      "LAT": 35.8944143
    },
    {
      "ROUTE_NAME": "49",
      "ROUTE_ORD": 28,
      "STOP_ID": 305032686,
      "LNG": 127.0655703,
      "BRT_SUBID": "C",
      "ROUTE_ID": 305001461,
      "STOP_NAME": "화전경로당",
      "SERVICE_ID": 36620,
      "NODE_ID": 305032686,
      "STOP_ORD": 28,
      "LAT": 35.8923065
    },
    {
      "ROUTE_NAME": "49",
      "ROUTE_ORD": 29,
      "STOP_ID": 305032790,
      "LNG": 127.065596,
      "BRT_SUBID": "C",
      "ROUTE_ID": 305001461,
      "STOP_NAME": "화전마을",
      "SERVICE_ID": 36724,
      "NODE_ID": 305032790,
      "STOP_ORD": 29,
      "LAT": 35.891669
    },
    {
      "ROUTE_NAME": "49",
      "ROUTE_ORD": 30,
      "STOP_ID": 305032792,
      "LNG": 127.065564,
      "BRT_SUBID": "C",
      "ROUTE_ID": 305001461,
      "STOP_NAME": "암실 삼각지",
      "SERVICE_ID": 36726,
      "NODE_ID": 305032792,
      "STOP_ORD": 30,
      "LAT": 35.887253
    },
    {
      "ROUTE_NAME": "49",
      "ROUTE_ORD": 31,
      "STOP_ID": 306101544,
      "LNG": 127.066393,
      "BRT_SUBID": "C",
      "ROUTE_ID": 305001461,
      "STOP_NAME": "암실",
      "SERVICE_ID": 31543,
      "NODE_ID": 306101544,
      "STOP_ORD": 31,
      "LAT": 35.8848803
    },
    {
      "ROUTE_NAME": "49",
      "ROUTE_ORD": 32,
      "STOP_ID": 306101484,
      "LNG": 127.06592533,
      "BRT_SUBID": "C",
      "ROUTE_ID": 305001461,
      "STOP_NAME": "실용리",
      "SERVICE_ID": 31483,
      "NODE_ID": 306101484,
      "STOP_ORD": 32,
      "LAT": 35.87818071
    },
    {
      "ROUTE_NAME": "49",
      "ROUTE_ORD": 33,
      "STOP_ID": 306101423,
      "LNG": 127.07029,
      "BRT_SUBID": "C",
      "ROUTE_ID": 305001461,
      "STOP_NAME": "반월동 삼오아파트",
      "SERVICE_ID": 31422,
      "NODE_ID": 306101423,
      "STOP_ORD": 33,
      "LAT": 35.873888
    },
    {
      "ROUTE_NAME": "49",
      "ROUTE_ORD": 34,
      "STOP_ID": 306101421,
      "LNG": 127.07261016,
      "BRT_SUBID": "C",
      "ROUTE_ID": 305001461,
      "STOP_NAME": "반월주공아파트.오네뜨아파트",
      "SERVICE_ID": 31420,
      "NODE_ID": 306101421,
      "STOP_ORD": 34,
      "LAT": 35.87383249
    },
    {
      "ROUTE_NAME": "49",
      "ROUTE_ORD": 35,
      "STOP_ID": 306101411,
      "LNG": 127.07591729,
      "BRT_SUBID": "C",
      "ROUTE_ID": 305001461,
      "STOP_NAME": "여의동우체국",
      "SERVICE_ID": 31410,
      "NODE_ID": 306101411,
      "STOP_ORD": 35,
      "LAT": 35.8723613
    },
    {
      "ROUTE_NAME": "49",
      "ROUTE_ORD": 36,
      "STOP_ID": 306101368,
      "LNG": 127.0779079,
      "BRT_SUBID": "C",
      "ROUTE_ID": 305001461,
      "STOP_NAME": "조촌초교.제일아파트",
      "SERVICE_ID": 31367,
      "NODE_ID": 306101368,
      "STOP_ORD": 36,
      "LAT": 35.86812128
    },
    {
      "ROUTE_NAME": "49",
      "ROUTE_ORD": 37,
      "STOP_ID": 306101362,
      "LNG": 127.07449234,
      "BRT_SUBID": "C",
      "ROUTE_ID": 305001461,
      "STOP_NAME": "대한산업보건협회.푸른솔아파트",
      "SERVICE_ID": 31361,
      "NODE_ID": 306101362,
      "STOP_ORD": 37,
      "LAT": 35.867854
    },
    {
      "ROUTE_NAME": "49",
      "ROUTE_ORD": 38,
      "STOP_ID": 305032184,
      "LNG": 127.069416,
      "BRT_SUBID": "C",
      "ROUTE_ID": 305001461,
      "STOP_NAME": "시외고속간이터미널",
      "SERVICE_ID": 32184,
      "NODE_ID": 305032184,
      "STOP_ORD": 38,
      "LAT": 35.870356
    },
    {
      "ROUTE_NAME": "49",
      "ROUTE_ORD": 39,
      "STOP_ID": 305032760,
      "LNG": 127.06575485,
      "BRT_SUBID": "C",
      "ROUTE_ID": 305001461,
      "STOP_NAME": "북전주농협 하나로마트",
      "SERVICE_ID": 36694,
      "NODE_ID": 305032760,
      "STOP_ORD": 39,
      "LAT": 35.872217
    },
    {
      "ROUTE_NAME": "49",
      "ROUTE_ORD": 40,
      "STOP_ID": 312032232,
      "LNG": 127.061579,
      "BRT_SUBID": "C",
      "ROUTE_ID": 305001461,
      "STOP_NAME": "원반월마을",
      "SERVICE_ID": 32232,
      "NODE_ID": 312032232,
      "STOP_ORD": 40,
      "LAT": 35.870345
    },
    {
      "ROUTE_NAME": "49",
      "ROUTE_ORD": 41,
      "STOP_ID": 306101339,
      "LNG": 127.063784,
      "BRT_SUBID": "C",
      "ROUTE_ID": 305001461,
      "STOP_NAME": "월드컵경기장남문",
      "SERVICE_ID": 31338,
      "NODE_ID": 306101339,
      "STOP_ORD": 41,
      "LAT": 35.866143
    },
    {
      "ROUTE_NAME": "49",
      "ROUTE_ORD": 42,
      "STOP_ID": 305032550,
      "LNG": 127.064192,
      "BRT_SUBID": "C",
      "ROUTE_ID": 305001461,
      "STOP_NAME": "월드컵경기장",
      "SERVICE_ID": 36484,
      "NODE_ID": 305032550,
      "STOP_ORD": 42,
      "LAT": 35.866274
    }
  ]
}