{
  "resultList": [
    {
      "ROUTE_NAME": "554",
      "ROUTE_ORD": 1,
      "STOP_ID": 305032325,
      "LNG": 127.0795712,
      "BRT_SUBID": "0",
      "ROUTE_ID": 305001647,
      "STOP_NAME": "삼천동종점",
      "SERVICE_ID": 36217,
      "NODE_ID": 305032325,
      "STOP_ORD": 1,
      "LAT": 35.8016922
    },
    {
      "ROUTE_NAME": "554",
      "ROUTE_ORD": 2,
      "STOP_ID": 312032092,
      "LNG": 127.079737,
      "BRT_SUBID": "0",
      "ROUTE_ID": 305001647,
      "STOP_NAME": "정여립로안산마을",
      "SERVICE_ID": 32092,
      "NODE_ID": 312032092,
      "STOP_ORD": 2,
      "LAT": 35.801532
    },
    {
      "ROUTE_NAME": "554",
      "ROUTE_ORD": 3,
      "STOP_ID": 312032090,
      "LNG": 127.0829305,
      "BRT_SUBID": "0",
      "ROUTE_ID": 305001647,
      "STOP_NAME": "정여립로 신흥리",
      "SERVICE_ID": 32090,
      "NODE_ID": 312032090,
      "STOP_ORD": 3,
      "LAT": 35.7982481
    },
    {
      "ROUTE_NAME": "554",
      "ROUTE_ORD": 4,
      "STOP_ID": 305100389,
      "LNG": 127.08765285,
      "BRT_SUBID": "0",
      "ROUTE_ID": 305001647,
      "STOP_NAME": "삼산리입구",
      "SERVICE_ID": 30389,
      "NODE_ID": 305100389,
      "STOP_ORD": 4,
      "LAT": 35.79681009
    },
    {
      "ROUTE_NAME": "554",
      "ROUTE_ORD": 5,
      "STOP_ID": 305100424,
      "LNG": 127.09120463,
      "BRT_SUBID": "0",
      "ROUTE_ID": 305001647,
      "STOP_NAME": "완산고입구",
      "SERVICE_ID": 30424,
      "NODE_ID": 305100424,
      "STOP_ORD": 5,
      "LAT": 35.79891077
    },
    {
      "ROUTE_NAME": "554",
      "ROUTE_ORD": 6,
      "STOP_ID": 305100441,
      "LNG": 127.093325,
      "BRT_SUBID": "0",
      "ROUTE_ID": 305001647,
      "STOP_NAME": "전주박물관전주역사박물관",
      "SERVICE_ID": 30441,
      "NODE_ID": 305100441,
      "STOP_ORD": 6,
      "LAT": 35.799974
    },
    {
      "ROUTE_NAME": "554",
      "ROUTE_ORD": 7,
      "STOP_ID": 305100448,
      "LNG": 127.096201,
      "BRT_SUBID": "0",
      "ROUTE_ID": 305001647,
      "STOP_NAME": "쑥고개로.용산마을입구",
      "SERVICE_ID": 30448,
      "NODE_ID": 305100448,
      "STOP_ORD": 7,
      "LAT": 35.801036
    },
    {
      "ROUTE_NAME": "554",
      "ROUTE_ORD": 8,
      "STOP_ID": 305032534,
      "LNG": 127.1033615,
      "BRT_SUBID": "0",
      "ROUTE_ID": 305001647,
      "STOP_NAME": "효천우미린1차아파트",
      "SERVICE_ID": 36468,
      "NODE_ID": 305032534,
      "STOP_ORD": 8,
      "LAT": 35.7982658
    },
    {
      "ROUTE_NAME": "554",
      "ROUTE_ORD": 9,
      "STOP_ID": 305032500,
      "LNG": 127.105202,
      "BRT_SUBID": "0",
      "ROUTE_ID": 305001647,
      "STOP_NAME": "효천초등학교",
      "SERVICE_ID": 36434,
      "NODE_ID": 305032500,
      "STOP_ORD": 9,
      "LAT": 35.798608
    },
    {
      "ROUTE_NAME": "554",
      "ROUTE_ORD": 10,
      "STOP_ID": 305032502,
      "LNG": 127.106141,
      "BRT_SUBID": "0",
      "ROUTE_ID": 305001647,
      "STOP_NAME": "효천우미린2차아파트",
      "SERVICE_ID": 36436,
      "NODE_ID": 305032502,
      "STOP_ORD": 10,
      "LAT": 35.800061
    },
    {
      "ROUTE_NAME": "554",
      "ROUTE_ORD": 11,
      "STOP_ID": 305032546,
      "LNG": 127.104762,
      "BRT_SUBID": "0",
      "ROUTE_ID": 305001647,
      "STOP_NAME": "전주완산수영장",
      "SERVICE_ID": 36480,
      "NODE_ID": 305032546,
      "STOP_ORD": 11,
      "LAT": 35.8026252
    },
    {
      "ROUTE_NAME": "554",
      "ROUTE_ORD": 12,
      "STOP_ID": 305100485,
      "LNG": 127.107707,
      "BRT_SUBID": "0",
      "ROUTE_ID": 305001647,
      "STOP_NAME": "우전초교",
      "SERVICE_ID": 30485,
      "NODE_ID": 305100485,
      "STOP_ORD": 12,
      "LAT": 35.80419
    },
    {
      "ROUTE_NAME": "554",
      "ROUTE_ORD": 13,
      "STOP_ID": 305100500,
      "LNG": 127.113066,
      "BRT_SUBID": "0",
      "ROUTE_ID": 305001647,
      "STOP_NAME": "효자현대아파트",
      "SERVICE_ID": 30500,
      "NODE_ID": 305100500,
      "STOP_ORD": 13,
      "LAT": 35.805635
    },
    {
      "ROUTE_NAME": "554",
      "ROUTE_ORD": 14,
      "STOP_ID": 305100515,
      "LNG": 127.11813,
      "BRT_SUBID": "0",
      "ROUTE_ID": 305001647,
      "STOP_NAME": "안행교",
      "SERVICE_ID": 30515,
      "NODE_ID": 305100515,
      "STOP_ORD": 14,
      "LAT": 35.806361
    },
    {
      "ROUTE_NAME": "554",
      "ROUTE_ORD": 15,
      "STOP_ID": 305100505,
      "LNG": 127.122202,
      "BRT_SUBID": "0",
      "ROUTE_ID": 305001647,
      "STOP_NAME": "효자광장.전주시청소년상담센터",
      "SERVICE_ID": 30505,
      "NODE_ID": 305100505,
      "STOP_ORD": 15,
      "LAT": 35.805883
    },
    {
      "ROUTE_NAME": "554",
      "ROUTE_ORD": 16,
      "STOP_ID": 305100508,
      "LNG": 127.127207,
      "BRT_SUBID": "0",
      "ROUTE_ID": 305001647,
      "STOP_NAME": "서부시장",
      "SERVICE_ID": 30508,
      "NODE_ID": 305100508,
      "STOP_ORD": 16,
      "LAT": 35.805909
    },
    {
      "ROUTE_NAME": "554",
      "ROUTE_ORD": 17,
      "STOP_ID": 305100521,
      "LNG": 127.13090392,
      "BRT_SUBID": "0",
      "ROUTE_ID": 305001647,
      "STOP_NAME": "효자주공3단지",
      "SERVICE_ID": 30521,
      "NODE_ID": 305100521,
      "STOP_ORD": 17,
      "LAT": 35.80703339
    },
    {
      "ROUTE_NAME": "554",
      "ROUTE_ORD": 18,
      "STOP_ID": 305032326,
      "LNG": 127.132051,
      "BRT_SUBID": "0",
      "ROUTE_ID": 305001647,
      "STOP_NAME": "중화산동오페라하우스",
      "SERVICE_ID": 36218,
      "NODE_ID": 305032326,
      "STOP_ORD": 18,
      "LAT": 35.811081
    },
    {
      "ROUTE_NAME": "554",
      "ROUTE_ORD": 19,
      "STOP_ID": 305100578,
      "LNG": 127.132759,
      "BRT_SUBID": "0",
      "ROUTE_ID": 305001647,
      "STOP_NAME": "예수병원",
      "SERVICE_ID": 30578,
      "NODE_ID": 305100578,
      "STOP_ORD": 19,
      "LAT": 35.813291
    },
    {
      "ROUTE_NAME": "554",
      "ROUTE_ORD": 20,
      "STOP_ID": 305100621,
      "LNG": 127.13765637,
      "BRT_SUBID": "0",
      "ROUTE_ID": 305001647,
      "STOP_NAME": "신흥중고등학교",
      "SERVICE_ID": 30621,
      "NODE_ID": 305100621,
      "STOP_ORD": 20,
      "LAT": 35.81550005
    },
    {
      "ROUTE_NAME": "554",
      "ROUTE_ORD": 21,
      "STOP_ID": 305100640,
      "LNG": 127.14111827,
      "BRT_SUBID": "0",
      "ROUTE_ID": 305001647,
      "STOP_NAME": "서문",
      "SERVICE_ID": 30640,
      "NODE_ID": 305100640,
      "STOP_ORD": 21,
      "LAT": 35.8167323
    },
    {
      "ROUTE_NAME": "554",
      "ROUTE_ORD": 22,
      "STOP_ID": 305100648,
      "LNG": 127.14542022,
      "BRT_SUBID": "0",
      "ROUTE_ID": 305001647,
      "STOP_NAME": "충경로 객사",
      "SERVICE_ID": 30648,
      "NODE_ID": 305100648,
      "STOP_ORD": 22,
      "LAT": 35.81798392
    },
    {
      "ROUTE_NAME": "554",
      "ROUTE_ORD": 23,
      "STOP_ID": 305100683,
      "LNG": 127.146497,
      "BRT_SUBID": "0",
      "ROUTE_ID": 305001647,
      "STOP_NAME": "CTS전북방송",
      "SERVICE_ID": 30683,
      "NODE_ID": 305100683,
      "STOP_ORD": 23,
      "LAT": 35.820099
    },
    {
      "ROUTE_NAME": "554",
      "ROUTE_ORD": 24,
      "STOP_ID": 306100752,
      "LNG": 127.144695,
      "BRT_SUBID": "0",
      "ROUTE_ID": 305001647,
      "STOP_NAME": "중앙시장.세이브존",
      "SERVICE_ID": 30752,
      "NODE_ID": 306100752,
      "STOP_ORD": 24,
      "LAT": 35.824475
    },
    {
      "ROUTE_NAME": "554",
      "ROUTE_ORD": 25,
      "STOP_ID": 306100861,
      "LNG": 127.13871665,
      "BRT_SUBID": "0",
      "ROUTE_ID": 305001647,
      "STOP_NAME": "전북청소년상담센터",
      "SERVICE_ID": 30861,
      "NODE_ID": 306100861,
      "STOP_ORD": 25,
      "LAT": 35.83141844
    },
    {
      "ROUTE_NAME": "554",
      "ROUTE_ORD": 26,
      "STOP_ID": 306100911,
      "LNG": 127.137297,
      "BRT_SUBID": "0",
      "ROUTE_ID": 305001647,
      "STOP_NAME": "금암광장",
      "SERVICE_ID": 30911,
      "NODE_ID": 306100911,
      "STOP_ORD": 26,
      "LAT": 35.833069
    },
    {
      "ROUTE_NAME": "554",
      "ROUTE_ORD": 27,
      "STOP_ID": 306100969,
      "LNG": 127.13363898,
      "BRT_SUBID": "0",
      "ROUTE_ID": 305001647,
      "STOP_NAME": "금암동주민센터",
      "SERVICE_ID": 30969,
      "NODE_ID": 306100969,
      "STOP_ORD": 27,
      "LAT": 35.83678745
    },
    {
      "ROUTE_NAME": "554",
      "ROUTE_ORD": 28,
      "STOP_ID": 306101004,
      "LNG": 127.131042,
      "BRT_SUBID": "0",
      "ROUTE_ID": 305001647,
      "STOP_NAME": "고속버스터미널입구.전북일보사",
      "SERVICE_ID": 31003,
      "NODE_ID": 306101004,
      "STOP_ORD": 28,
      "LAT": 35.838631
    },
    {
      "ROUTE_NAME": "554",
      "ROUTE_ORD": 29,
      "STOP_ID": 306101035,
      "LNG": 127.127164,
      "BRT_SUBID": "0",
      "ROUTE_ID": 305001647,
      "STOP_NAME": "전북대학교.소나무한의원앞",
      "SERVICE_ID": 31034,
      "NODE_ID": 306101035,
      "STOP_ORD": 29,
      "LAT": 35.841467
    },
    {
      "ROUTE_NAME": "554",
      "ROUTE_ORD": 30,
      "STOP_ID": 306101084,
      "LNG": 127.12136775,
      "BRT_SUBID": "0",
      "ROUTE_ID": 305001647,
      "STOP_NAME": "기린대로덕진공원",
      "SERVICE_ID": 31083,
      "NODE_ID": 306101084,
      "STOP_ORD": 30,
      "LAT": 35.84574561
    },
    {
      "ROUTE_NAME": "554",
      "ROUTE_ORD": 31,
      "STOP_ID": 306101113,
      "LNG": 127.11968893,
      "BRT_SUBID": "0",
      "ROUTE_ID": 305001647,
      "STOP_NAME": "도립국악원",
      "SERVICE_ID": 31112,
      "NODE_ID": 306101113,
      "STOP_ORD": 31,
      "LAT": 35.84934543
    },
    {
      "ROUTE_NAME": "554",
      "ROUTE_ORD": 32,
      "STOP_ID": 306101170,
      "LNG": 127.11979367,
      "BRT_SUBID": "0",
      "ROUTE_ID": 305001647,
      "STOP_NAME": "도립여성중고 롯데마트",
      "SERVICE_ID": 31169,
      "NODE_ID": 306101170,
      "STOP_ORD": 32,
      "LAT": 35.85361352
    },
    {
      "ROUTE_NAME": "554",
      "ROUTE_ORD": 33,
      "STOP_ID": 306101233,
      "LNG": 127.12077329,
      "BRT_SUBID": "0",
      "ROUTE_ID": 305001647,
      "STOP_NAME": "송천1동주민센터",
      "SERVICE_ID": 31232,
      "NODE_ID": 306101233,
      "STOP_ORD": 33,
      "LAT": 35.85701397
    },
    {
      "ROUTE_NAME": "554",
      "ROUTE_ORD": 34,
      "STOP_ID": 306101280,
      "LNG": 127.12156208,
      "BRT_SUBID": "0",
      "ROUTE_ID": 305001647,
      "STOP_NAME": "전라고",
      "SERVICE_ID": 31279,
      "NODE_ID": 306101280,
      "STOP_ORD": 34,
      "LAT": 35.86055764
    },
    {
      "ROUTE_NAME": "554",
      "ROUTE_ORD": 35,
      "STOP_ID": 306101307,
      "LNG": 127.12369476,
      "BRT_SUBID": "0",
      "ROUTE_ID": 305001647,
      "STOP_NAME": "송북초교",
      "SERVICE_ID": 31306,
      "NODE_ID": 306101307,
      "STOP_ORD": 35,
      "LAT": 35.86363645
    },
    {
      "ROUTE_NAME": "554",
      "ROUTE_ORD": 36,
      "STOP_ID": 306101320,
      "LNG": 127.12708911,
      "BRT_SUBID": "0",
      "ROUTE_ID": 305001647,
      "STOP_NAME": "송천주공2단지",
      "SERVICE_ID": 31319,
      "NODE_ID": 306101320,
      "STOP_ORD": 36,
      "LAT": 35.86436962
    },
    {
      "ROUTE_NAME": "554",
      "ROUTE_ORD": 37,
      "STOP_ID": 306101344,
      "LNG": 127.12733436,
      "BRT_SUBID": "0",
      "ROUTE_ID": 305001647,
      "STOP_NAME": "송천현대아파트",
      "SERVICE_ID": 31343,
      "NODE_ID": 306101344,
      "STOP_ORD": 37,
      "LAT": 35.8662239
    },
    {
      "ROUTE_NAME": "554",
      "ROUTE_ORD": 38,
      "STOP_ID": 306101363,
      "LNG": 127.127379,
      "BRT_SUBID": "0",
      "ROUTE_ID": 305001647,
      "STOP_NAME": "송천주공아파트",
      "SERVICE_ID": 31362,
      "NODE_ID": 306101363,
      "STOP_ORD": 38,
      "LAT": 35.867602
    },
    {
      "ROUTE_NAME": "554",
      "ROUTE_ORD": 39,
      "STOP_ID": 305032430,
      "LNG": 127.1277186,
      "BRT_SUBID": "0",
      "ROUTE_ID": 305001647,
      "STOP_NAME": "에코시티상가",
      "SERVICE_ID": 36364,
      "NODE_ID": 305032430,
      "STOP_ORD": 39,
      "LAT": 35.8721074
    },
    {
      "ROUTE_NAME": "554",
      "ROUTE_ORD": 40,
      "STOP_ID": 305032397,
      "LNG": 127.130066,
      "BRT_SUBID": "0",
      "ROUTE_ID": 305001647,
      "STOP_NAME": "에코더샵1차",
      "SERVICE_ID": 36331,
      "NODE_ID": 305032397,
      "STOP_ORD": 40,
      "LAT": 35.872757
    },
    {
      "ROUTE_NAME": "554",
      "ROUTE_ORD": 41,
      "STOP_ID": 305032398,
      "LNG": 127.1339642,
      "BRT_SUBID": "0",
      "ROUTE_ID": 305001647,
      "STOP_NAME": "에코휴먼빌",
      "SERVICE_ID": 36332,
      "NODE_ID": 305032398,
      "STOP_ORD": 41,
      "LAT": 35.8725593
    },
    {
      "ROUTE_NAME": "554",
      "ROUTE_ORD": 42,
      "STOP_ID": 305032400,
      "LNG": 127.135157,
      "BRT_SUBID": "0",
      "ROUTE_ID": 305001647,
      "STOP_NAME": "자연초등학교",
      "SERVICE_ID": 36334,
      "NODE_ID": 305032400,
      "STOP_ORD": 42,
      "LAT": 35.876991
    },
    {
      "ROUTE_NAME": "554",
      "ROUTE_ORD": 43,
      "STOP_ID": 305032528,
      "LNG": 127.133709,
      "BRT_SUBID": "0",
      "ROUTE_ID": 305001647,
      "STOP_NAME": "에코더샵2차",
      "SERVICE_ID": 36462,
      "NODE_ID": 305032528,
      "STOP_ORD": 43,
      "LAT": 35.878247
    },
    {
      "ROUTE_NAME": "554",
      "ROUTE_ORD": 44,
      "STOP_ID": 305032401,
      "LNG": 127.130474,
      "BRT_SUBID": "0",
      "ROUTE_ID": 305001647,
      "STOP_NAME": "에코스위첸",
      "SERVICE_ID": 36335,
      "NODE_ID": 305032401,
      "STOP_ORD": 44,
      "LAT": 35.879291
    },
    {
      "ROUTE_NAME": "554",
      "ROUTE_ORD": 45,
      "STOP_ID": 305032756,
      "LNG": 127.12809734,
      "BRT_SUBID": "0",
      "ROUTE_ID": 305001647,
      "STOP_NAME": "에코데시앙14블럭",
      "SERVICE_ID": 36690,
      "NODE_ID": 305032756,
      "STOP_ORD": 45,
      "LAT": 35.87968426
    },
    {
      "ROUTE_NAME": "554",
      "ROUTE_ORD": 46,
      "STOP_ID": 306101523,
      "LNG": 127.128752,
      "BRT_SUBID": "0",
      "ROUTE_ID": 305001647,
      "STOP_NAME": "백석제",
      "SERVICE_ID": 31522,
      "NODE_ID": 306101523,
      "STOP_ORD": 46,
      "LAT": 35.884006
    },
    {
      "ROUTE_NAME": "554",
      "ROUTE_ORD": 47,
      "STOP_ID": 306101546,
      "LNG": 127.12921669,
      "BRT_SUBID": "0",
      "ROUTE_ID": 305001647,
      "STOP_NAME": "과학로.전당네거리",
      "SERVICE_ID": 31545,
      "NODE_ID": 306101546,
      "STOP_ORD": 47,
      "LAT": 35.88661318
    },
    {
      "ROUTE_NAME": "554",
      "ROUTE_ORD": 48,
      "STOP_ID": 306101618,
      "LNG": 127.12539149,
      "BRT_SUBID": "0",
      "ROUTE_ID": 305001647,
      "STOP_NAME": "은평마을",
      "SERVICE_ID": 31617,
      "NODE_ID": 306101618,
      "STOP_ORD": 48,
      "LAT": 35.89632568
    },
    {
      "ROUTE_NAME": "554",
      "ROUTE_ORD": 49,
      "STOP_ID": 312101654,
      "LNG": 127.12524053,
      "BRT_SUBID": "0",
      "ROUTE_ID": 305001647,
      "STOP_NAME": "회포대교",
      "SERVICE_ID": 31653,
      "NODE_ID": 312101654,
      "STOP_ORD": 49,
      "LAT": 35.90789425
    },
    {
      "ROUTE_NAME": "554",
      "ROUTE_ORD": 50,
      "STOP_ID": 312101694,
      "LNG": 127.12524397,
      "BRT_SUBID": "0",
      "ROUTE_ID": 305001647,
      "STOP_NAME": "송정마을",
      "SERVICE_ID": 31693,
      "NODE_ID": 312101694,
      "STOP_ORD": 50,
      "LAT": 35.91345208
    },
    {
      "ROUTE_NAME": "554",
      "ROUTE_ORD": 51,
      "STOP_ID": 312101709,
      "LNG": 127.1252477,
      "BRT_SUBID": "0",
      "ROUTE_ID": 305001647,
      "STOP_NAME": "장포리",
      "SERVICE_ID": 31708,
      "NODE_ID": 312101709,
      "STOP_ORD": 51,
      "LAT": 35.91678768
    },
    {
      "ROUTE_NAME": "554",
      "ROUTE_ORD": 52,
      "STOP_ID": 312101753,
      "LNG": 127.125206,
      "BRT_SUBID": "0",
      "ROUTE_ID": 305001647,
      "STOP_NAME": "완주군보건소.명탄마을",
      "SERVICE_ID": 31752,
      "NODE_ID": 312101753,
      "STOP_ORD": 52,
      "LAT": 35.9224803
    },
    {
      "ROUTE_NAME": "554",
      "ROUTE_ORD": 53,
      "STOP_ID": 305032540,
      "LNG": 127.1252694,
      "BRT_SUBID": "0",
      "ROUTE_ID": 305001647,
      "STOP_NAME": "과학로완주소방서",
      "SERVICE_ID": 36474,
      "NODE_ID": 305032540,
      "STOP_ORD": 53,
      "LAT": 35.92571
    },
    {
      "ROUTE_NAME": "554",
      "ROUTE_ORD": 54,
      "STOP_ID": 312101772,
      "LNG": 127.1253209,
      "BRT_SUBID": "0",
      "ROUTE_ID": 305001647,
      "STOP_NAME": "과학로.구.청완초교",
      "SERVICE_ID": 31771,
      "NODE_ID": 312101772,
      "STOP_ORD": 54,
      "LAT": 35.9289018
    },
    {
      "ROUTE_NAME": "554",
      "ROUTE_ORD": 55,
      "STOP_ID": 312101795,
      "LNG": 127.12539617,
      "BRT_SUBID": "0",
      "ROUTE_ID": 305001647,
      "STOP_NAME": "원수계리",
      "SERVICE_ID": 31794,
      "NODE_ID": 312101795,
      "STOP_ORD": 55,
      "LAT": 35.93270207
    },
    {
      "ROUTE_NAME": "554",
      "ROUTE_ORD": 56,
      "STOP_ID": 312101826,
      "LNG": 127.12563217,
      "BRT_SUBID": "0",
      "ROUTE_ID": 305001647,
      "STOP_NAME": "금강고려화학",
      "SERVICE_ID": 31825,
      "NODE_ID": 312101826,
      "STOP_ORD": 56,
      "LAT": 35.93881728
    },
    {
      "ROUTE_NAME": "554",
      "ROUTE_ORD": 57,
      "STOP_ID": 312101843,
      "LNG": 127.12741092,
      "BRT_SUBID": "0",
      "ROUTE_ID": 305001647,
      "STOP_NAME": "중앙공원",
      "SERVICE_ID": 31842,
      "NODE_ID": 312101843,
      "STOP_ORD": 57,
      "LAT": 35.94370728
    },
    {
      "ROUTE_NAME": "554",
      "ROUTE_ORD": 58,
      "STOP_ID": 312101845,
      "LNG": 127.13694771,
      "BRT_SUBID": "0",
      "ROUTE_ID": 305001647,
      "STOP_NAME": "현대자동차",
      "SERVICE_ID": 31844,
      "NODE_ID": 312101845,
      "STOP_ORD": 58,
      "LAT": 35.94360916
    },
    {
      "ROUTE_NAME": "554",
      "ROUTE_ORD": 59,
      "STOP_ID": 312101856,
      "LNG": 127.13966572,
      "BRT_SUBID": "0",
      "ROUTE_ID": 305001647,
      "STOP_NAME": "동아정밀공업",
      "SERVICE_ID": 31855,
      "NODE_ID": 312101856,
      "STOP_ORD": 59,
      "LAT": 35.94628235
    },
    {
      "ROUTE_NAME": "554",
      "ROUTE_ORD": 60,
      "STOP_ID": 312101884,
      "LNG": 127.13904859,
      "BRT_SUBID": "0",
      "ROUTE_ID": 305001647,
      "STOP_NAME": "현대자동차출고장",
      "SERVICE_ID": 31883,
      "NODE_ID": 312101884,
      "STOP_ORD": 60,
      "LAT": 35.95541702
    },
    {
      "ROUTE_NAME": "554",
      "ROUTE_ORD": 61,
      "STOP_ID": 312101886,
      "LNG": 127.13232253,
      "BRT_SUBID": "0",
      "ROUTE_ID": 305001647,
      "STOP_NAME": "대륜산업",
      "SERVICE_ID": 31885,
      "NODE_ID": 312101886,
      "STOP_ORD": 61,
      "LAT": 35.95550766
    },
    {
      "ROUTE_NAME": "554",
      "ROUTE_ORD": 62,
      "STOP_ID": 312101999,
      "LNG": 127.12979359,
      "BRT_SUBID": "0",
      "ROUTE_ID": 305001647,
      "STOP_NAME": "뷰텍",
      "SERVICE_ID": 31999,
      "NODE_ID": 312101999,
      "STOP_ORD": 62,
      "LAT": 35.95878836
    },
    {
      "ROUTE_NAME": "554",
      "ROUTE_ORD": 63,
      "STOP_ID": 305032488,
      "LNG": 127.126515,
      "BRT_SUBID": "0",
      "ROUTE_ID": 305001647,
      "STOP_NAME": "둔산코아루1차아파트",
      "SERVICE_ID": 36422,
      "NODE_ID": 305032488,
      "STOP_ORD": 63,
      "LAT": 35.9618481
    },
    {
      "ROUTE_NAME": "554",
      "ROUTE_ORD": 64,
      "STOP_ID": 312101914,
      "LNG": 127.122735,
      "BRT_SUBID": "0",
      "ROUTE_ID": 305001647,
      "STOP_NAME": "둔산코아루2차아파트",
      "SERVICE_ID": 31913,
      "NODE_ID": 312101914,
      "STOP_ORD": 64,
      "LAT": 35.96226927
    }
  ]
}