{
  "resultList": [
    {
      "ROUTE_NAME": "85",
      "ROUTE_ORD": 1,
      "STOP_ID": 312101218,
      "LNG": 127.23316474,
      "BRT_SUBID": "D",
      "ROUTE_ID": 305001687,
      "STOP_NAME": "소양",
      "SERVICE_ID": 31217,
      "NODE_ID": 312101218,
      "STOP_ORD": 1,
      "LAT": 35.85581764
    },
    {
      "ROUTE_NAME": "85",
      "ROUTE_ORD": 2,
      "STOP_ID": 312101196,
      "LNG": 127.2291111,
      "BRT_SUBID": "D",
      "ROUTE_ID": 305001687,
      "STOP_NAME": "소양119지역대",
      "SERVICE_ID": 31195,
      "NODE_ID": 312101196,
      "STOP_ORD": 2,
      "LAT": 35.85458355
    },
    {
      "ROUTE_NAME": "85",
      "ROUTE_ORD": 3,
      "STOP_ID": 312101171,
      "LNG": 127.22516257,
      "BRT_SUBID": "D",
      "ROUTE_ID": 305001687,
      "STOP_NAME": "소양행정복지센터",
      "SERVICE_ID": 31170,
      "NODE_ID": 312101171,
      "STOP_ORD": 3,
      "LAT": 35.85349548
    },
    {
      "ROUTE_NAME": "85",
      "ROUTE_ORD": 4,
      "STOP_ID": 312101206,
      "LNG": 127.22187541,
      "BRT_SUBID": "D",
      "ROUTE_ID": 305001687,
      "STOP_NAME": "죽절리",
      "SERVICE_ID": 31205,
      "NODE_ID": 312101206,
      "STOP_ORD": 4,
      "LAT": 35.85492377
    },
    {
      "ROUTE_NAME": "85",
      "ROUTE_ORD": 5,
      "STOP_ID": 305032704,
      "LNG": 127.210398,
      "BRT_SUBID": "D",
      "ROUTE_ID": 305001687,
      "STOP_NAME": "단암사",
      "SERVICE_ID": 36638,
      "NODE_ID": 305032704,
      "STOP_ORD": 5,
      "LAT": 35.856068
    },
    {
      "ROUTE_NAME": "85",
      "ROUTE_ORD": 6,
      "STOP_ID": 312101189,
      "LNG": 127.20804751,
      "BRT_SUBID": "D",
      "ROUTE_ID": 305001687,
      "STOP_NAME": "명덕교",
      "SERVICE_ID": 31188,
      "NODE_ID": 312101189,
      "STOP_ORD": 6,
      "LAT": 35.85431732
    },
    {
      "ROUTE_NAME": "85",
      "ROUTE_ORD": 7,
      "STOP_ID": 312101129,
      "LNG": 127.20919033,
      "BRT_SUBID": "D",
      "ROUTE_ID": 305001687,
      "STOP_NAME": "신교리",
      "SERVICE_ID": 31128,
      "NODE_ID": 312101129,
      "STOP_ORD": 7,
      "LAT": 35.85034401
    },
    {
      "ROUTE_NAME": "85",
      "ROUTE_ORD": 8,
      "STOP_ID": 312032165,
      "LNG": 127.21319703,
      "BRT_SUBID": "D",
      "ROUTE_ID": 305001687,
      "STOP_NAME": "율곡",
      "SERVICE_ID": 32165,
      "NODE_ID": 312032165,
      "STOP_ORD": 8,
      "LAT": 35.84759487
    },
    {
      "ROUTE_NAME": "85",
      "ROUTE_ORD": 9,
      "STOP_ID": 312032167,
      "LNG": 127.21725653,
      "BRT_SUBID": "D",
      "ROUTE_ID": 305001687,
      "STOP_NAME": "갈전",
      "SERVICE_ID": 32167,
      "NODE_ID": 312032167,
      "STOP_ORD": 9,
      "LAT": 35.84266557
    },
    {
      "ROUTE_NAME": "85",
      "ROUTE_ORD": 10,
      "STOP_ID": 312032792,
      "LNG": 127.2204443,
      "BRT_SUBID": "D",
      "ROUTE_ID": 305001687,
      "STOP_NAME": "신봉마을",
      "SERVICE_ID": 36261,
      "NODE_ID": 312032792,
      "STOP_ORD": 10,
      "LAT": 35.8384862
    },
    {
      "ROUTE_NAME": "85",
      "ROUTE_ORD": 11,
      "STOP_ID": 312100856,
      "LNG": 127.22205352,
      "BRT_SUBID": "D",
      "ROUTE_ID": 305001687,
      "STOP_NAME": "응암마을",
      "SERVICE_ID": 30856,
      "NODE_ID": 312100856,
      "STOP_ORD": 11,
      "LAT": 35.83061184
    }
  ]
}