{
  "resultList": [
    {
      "ROUTE_NAME": "21",
      "ROUTE_ORD": 1,
      "STOP_ID": 305032675,
      "LNG": 127.0199833,
      "BRT_SUBID": "A",
      "ROUTE_ID": 305001349,
      "STOP_NAME": "이서회차지",
      "SERVICE_ID": 36609,
      "NODE_ID": 305032675,
      "STOP_ORD": 1,
      "LAT": 35.817095
    },
    {
      "ROUTE_NAME": "21",
      "ROUTE_ORD": 2,
      "STOP_ID": 312032266,
      "LNG": 127.02078,
      "BRT_SUBID": "A",
      "ROUTE_ID": 305001349,
      "STOP_NAME": "이서종점",
      "SERVICE_ID": 32266,
      "NODE_ID": 312032266,
      "STOP_ORD": 2,
      "LAT": 35.8199157
    },
    {
      "ROUTE_NAME": "21",
      "ROUTE_ORD": 3,
      "STOP_ID": 312100686,
      "LNG": 127.0229173,
      "BRT_SUBID": "A",
      "ROUTE_ID": 305001349,
      "STOP_NAME": "이서",
      "SERVICE_ID": 30686,
      "NODE_ID": 312100686,
      "STOP_ORD": 3,
      "LAT": 35.82016777
    },
    {
      "ROUTE_NAME": "21",
      "ROUTE_ORD": 4,
      "STOP_ID": 312100695,
      "LNG": 127.013068,
      "BRT_SUBID": "A",
      "ROUTE_ID": 305001349,
      "STOP_NAME": "모고지마을",
      "SERVICE_ID": 30695,
      "NODE_ID": 312100695,
      "STOP_ORD": 4,
      "LAT": 35.82086
    },
    {
      "ROUTE_NAME": "21",
      "ROUTE_ORD": 5,
      "STOP_ID": 312100693,
      "LNG": 127.00796999,
      "BRT_SUBID": "A",
      "ROUTE_ID": 305001349,
      "STOP_NAME": "BYC",
      "SERVICE_ID": 30693,
      "NODE_ID": 312100693,
      "STOP_ORD": 5,
      "LAT": 35.82071324
    },
    {
      "ROUTE_NAME": "21",
      "ROUTE_ORD": 6,
      "STOP_ID": 305032799,
      "LNG": 127.011272,
      "BRT_SUBID": "A",
      "ROUTE_ID": 305001349,
      "STOP_NAME": "신일해피트리",
      "SERVICE_ID": 36732,
      "NODE_ID": 305032799,
      "STOP_ORD": 6,
      "LAT": 35.817147
    },
    {
      "ROUTE_NAME": "21",
      "ROUTE_ORD": 7,
      "STOP_ID": 305032797,
      "LNG": 127.01231,
      "BRT_SUBID": "A",
      "ROUTE_ID": 305001349,
      "STOP_NAME": "양우내안애",
      "SERVICE_ID": 36731,
      "NODE_ID": 305032797,
      "STOP_ORD": 7,
      "LAT": 35.816225
    },
    {
      "ROUTE_NAME": "21",
      "ROUTE_ORD": 8,
      "STOP_ID": 305032796,
      "LNG": 127.012397,
      "BRT_SUBID": "A",
      "ROUTE_ID": 305001349,
      "STOP_NAME": "양우내안애",
      "SERVICE_ID": 36730,
      "NODE_ID": 305032796,
      "STOP_ORD": 8,
      "LAT": 35.816289
    },
    {
      "ROUTE_NAME": "21",
      "ROUTE_ORD": 9,
      "STOP_ID": 305032798,
      "LNG": 127.011362,
      "BRT_SUBID": "A",
      "ROUTE_ID": 305001349,
      "STOP_NAME": "신일해피트리",
      "SERVICE_ID": 36733,
      "NODE_ID": 305032798,
      "STOP_ORD": 9,
      "LAT": 35.817218
    }
  ]
}