{
  "resultList": [
    {
      "ROUTE_NAME": "18",
      "ROUTE_ORD": 1,
      "STOP_ID": 311101573,
      "LNG": 126.96995518,
      "BRT_SUBID": "B",
      "ROUTE_ID": 305001798,
      "STOP_NAME": "백구",
      "SERVICE_ID": 31572,
      "NODE_ID": 311101573,
      "STOP_ORD": 1,
      "LAT": 35.89038737
    },
    {
      "ROUTE_NAME": "18",
      "ROUTE_ORD": 2,
      "STOP_ID": 312032207,
      "LNG": 126.97229027,
      "BRT_SUBID": "B",
      "ROUTE_ID": 305001798,
      "STOP_NAME": "석담",
      "SERVICE_ID": 32207,
      "NODE_ID": 312032207,
      "STOP_ORD": 2,
      "LAT": 35.88793844
    },
    {
      "ROUTE_NAME": "18",
      "ROUTE_ORD": 4,
      "STOP_ID": 312032205,
      "LNG": 126.97921314,
      "BRT_SUBID": "B",
      "ROUTE_ID": 305001798,
      "STOP_NAME": "공술마을",
      "SERVICE_ID": 32205,
      "NODE_ID": 312032205,
      "STOP_ORD": 3,
      "LAT": 35.88103051
    },
    {
      "ROUTE_NAME": "18",
      "ROUTE_ORD": 5,
      "STOP_ID": 311101479,
      "LNG": 126.98660066,
      "BRT_SUBID": "B",
      "ROUTE_ID": 305001798,
      "STOP_NAME": "농식품인력개발원",
      "SERVICE_ID": 31478,
      "NODE_ID": 311101479,
      "STOP_ORD": 4,
      "LAT": 35.87777917
    },
    {
      "ROUTE_NAME": "18",
      "ROUTE_ORD": 6,
      "STOP_ID": 312032201,
      "LNG": 126.99593271,
      "BRT_SUBID": "B",
      "ROUTE_ID": 305001798,
      "STOP_NAME": "난산삼거리",
      "SERVICE_ID": 32201,
      "NODE_ID": 312032201,
      "STOP_ORD": 5,
      "LAT": 35.87778259
    },
    {
      "ROUTE_NAME": "18",
      "ROUTE_ORD": 7,
      "STOP_ID": 311101464,
      "LNG": 126.99889135,
      "BRT_SUBID": "B",
      "ROUTE_ID": 305001798,
      "STOP_NAME": "득자마을",
      "SERVICE_ID": 31463,
      "NODE_ID": 311101464,
      "STOP_ORD": 6,
      "LAT": 35.87678825
    },
    {
      "ROUTE_NAME": "18",
      "ROUTE_ORD": 8,
      "STOP_ID": 311101442,
      "LNG": 127.0050109,
      "BRT_SUBID": "B",
      "ROUTE_ID": 305001798,
      "STOP_NAME": "득룡교",
      "SERVICE_ID": 31441,
      "NODE_ID": 311101442,
      "STOP_ORD": 7,
      "LAT": 35.87523353
    },
    {
      "ROUTE_NAME": "18",
      "ROUTE_ORD": 9,
      "STOP_ID": 306101452,
      "LNG": 127.01766116,
      "BRT_SUBID": "B",
      "ROUTE_ID": 305001798,
      "STOP_NAME": "남정리입구",
      "SERVICE_ID": 31451,
      "NODE_ID": 306101452,
      "STOP_ORD": 8,
      "LAT": 35.87579598
    },
    {
      "ROUTE_NAME": "18",
      "ROUTE_ORD": 10,
      "STOP_ID": 305032451,
      "LNG": 127.0277171,
      "BRT_SUBID": "B",
      "ROUTE_ID": 305001798,
      "STOP_NAME": "매암마을",
      "SERVICE_ID": 36385,
      "NODE_ID": 305032451,
      "STOP_ORD": 9,
      "LAT": 35.8760376
    },
    {
      "ROUTE_NAME": "18",
      "ROUTE_ORD": 11,
      "STOP_ID": 306101460,
      "LNG": 127.03095478,
      "BRT_SUBID": "B",
      "ROUTE_ID": 305001798,
      "STOP_NAME": "성덕",
      "SERVICE_ID": 31459,
      "NODE_ID": 306101460,
      "STOP_ORD": 10,
      "LAT": 35.87621671
    },
    {
      "ROUTE_NAME": "18",
      "ROUTE_ORD": 12,
      "STOP_ID": 306101467,
      "LNG": 127.03972137,
      "BRT_SUBID": "B",
      "ROUTE_ID": 305001798,
      "STOP_NAME": "대흥리",
      "SERVICE_ID": 31466,
      "NODE_ID": 306101467,
      "STOP_ORD": 11,
      "LAT": 35.87700746
    },
    {
      "ROUTE_NAME": "18",
      "ROUTE_ORD": 13,
      "STOP_ID": 306101436,
      "LNG": 127.05010024,
      "BRT_SUBID": "B",
      "ROUTE_ID": 305001798,
      "STOP_NAME": "번영로용덕마을",
      "SERVICE_ID": 31435,
      "NODE_ID": 306101436,
      "STOP_ORD": 12,
      "LAT": 35.87489681
    },
    {
      "ROUTE_NAME": "18",
      "ROUTE_ORD": 15,
      "STOP_ID": 306101420,
      "LNG": 127.06027,
      "BRT_SUBID": "B",
      "ROUTE_ID": 305001798,
      "STOP_NAME": "전주IC",
      "SERVICE_ID": 31419,
      "NODE_ID": 306101420,
      "STOP_ORD": 13,
      "LAT": 35.87384
    },
    {
      "ROUTE_NAME": "18",
      "ROUTE_ORD": 16,
      "STOP_ID": 305032290,
      "LNG": 127.063826,
      "BRT_SUBID": "B",
      "ROUTE_ID": 305001798,
      "STOP_NAME": "반월동농협",
      "SERVICE_ID": 32290,
      "NODE_ID": 305032290,
      "STOP_ORD": 14,
      "LAT": 35.873944
    },
    {
      "ROUTE_NAME": "18",
      "ROUTE_ORD": 17,
      "STOP_ID": 306101423,
      "LNG": 127.07029,
      "BRT_SUBID": "B",
      "ROUTE_ID": 305001798,
      "STOP_NAME": "반월동 삼오아파트",
      "SERVICE_ID": 31422,
      "NODE_ID": 306101423,
      "STOP_ORD": 15,
      "LAT": 35.873888
    },
    {
      "ROUTE_NAME": "18",
      "ROUTE_ORD": 18,
      "STOP_ID": 306101421,
      "LNG": 127.07261016,
      "BRT_SUBID": "B",
      "ROUTE_ID": 305001798,
      "STOP_NAME": "반월주공아파트.오네뜨아파트",
      "SERVICE_ID": 31420,
      "NODE_ID": 306101421,
      "STOP_ORD": 16,
      "LAT": 35.87383249
    },
    {
      "ROUTE_NAME": "18",
      "ROUTE_ORD": 19,
      "STOP_ID": 306101411,
      "LNG": 127.07591729,
      "BRT_SUBID": "B",
      "ROUTE_ID": 305001798,
      "STOP_NAME": "여의동우체국",
      "SERVICE_ID": 31410,
      "NODE_ID": 306101411,
      "STOP_ORD": 17,
      "LAT": 35.8723613
    },
    {
      "ROUTE_NAME": "18",
      "ROUTE_ORD": 20,
      "STOP_ID": 306101368,
      "LNG": 127.0779079,
      "BRT_SUBID": "B",
      "ROUTE_ID": 305001798,
      "STOP_NAME": "조촌초교.제일아파트",
      "SERVICE_ID": 31367,
      "NODE_ID": 306101368,
      "STOP_ORD": 18,
      "LAT": 35.86812128
    },
    {
      "ROUTE_NAME": "18",
      "ROUTE_ORD": 21,
      "STOP_ID": 305032557,
      "LNG": 127.077525,
      "BRT_SUBID": "B",
      "ROUTE_ID": 305001798,
      "STOP_NAME": "전주공고정문",
      "SERVICE_ID": 36491,
      "NODE_ID": 305032557,
      "STOP_ORD": 19,
      "LAT": 35.862701
    },
    {
      "ROUTE_NAME": "18",
      "ROUTE_ORD": 22,
      "STOP_ID": 305032761,
      "LNG": 127.07617999,
      "BRT_SUBID": "B",
      "ROUTE_ID": 305001798,
      "STOP_NAME": "태평마을 입구",
      "SERVICE_ID": 36695,
      "NODE_ID": 305032761,
      "STOP_ORD": 20,
      "LAT": 35.86045624
    }
  ]
}