{
  "resultList": [
    {
      "ROUTE_NAME": "684",
      "ROUTE_ORD": 1,
      "STOP_ID": 311100228,
      "LNG": 127.00785721,
      "BRT_SUBID": "0",
      "ROUTE_ID": 305001654,
      "STOP_NAME": "금구",
      "SERVICE_ID": 30228,
      "NODE_ID": 311100228,
      "STOP_ORD": 1,
      "LAT": 35.77167081
    },
    {
      "ROUTE_NAME": "684",
      "ROUTE_ORD": 2,
      "STOP_ID": 311100243,
      "LNG": 127.01113284,
      "BRT_SUBID": "0",
      "ROUTE_ID": 305001654,
      "STOP_NAME": "금구중학교",
      "SERVICE_ID": 30243,
      "NODE_ID": 311100243,
      "STOP_ORD": 2,
      "LAT": 35.77418989
    },
    {
      "ROUTE_NAME": "684",
      "ROUTE_ORD": 3,
      "STOP_ID": 311100260,
      "LNG": 127.0109081,
      "BRT_SUBID": "0",
      "ROUTE_ID": 305001654,
      "STOP_NAME": "금구파출소",
      "SERVICE_ID": 30260,
      "NODE_ID": 311100260,
      "STOP_ORD": 3,
      "LAT": 35.7756021
    },
    {
      "ROUTE_NAME": "684",
      "ROUTE_ORD": 4,
      "STOP_ID": 311100275,
      "LNG": 127.01664423,
      "BRT_SUBID": "0",
      "ROUTE_ID": 305001654,
      "STOP_NAME": "봉산마을삼성생명연수원",
      "SERVICE_ID": 30275,
      "NODE_ID": 311100275,
      "STOP_ORD": 4,
      "LAT": 35.77928343
    },
    {
      "ROUTE_NAME": "684",
      "ROUTE_ORD": 5,
      "STOP_ID": 311100282,
      "LNG": 127.01823219,
      "BRT_SUBID": "0",
      "ROUTE_ID": 305001654,
      "STOP_NAME": "어전마을",
      "SERVICE_ID": 30282,
      "NODE_ID": 311100282,
      "STOP_ORD": 5,
      "LAT": 35.78213418
    },
    {
      "ROUTE_NAME": "684",
      "ROUTE_ORD": 6,
      "STOP_ID": 305032293,
      "LNG": 127.0237696,
      "BRT_SUBID": "0",
      "ROUTE_ID": 305001654,
      "STOP_NAME": "청연",
      "SERVICE_ID": 32293,
      "NODE_ID": 305032293,
      "STOP_ORD": 6,
      "LAT": 35.784944
    },
    {
      "ROUTE_NAME": "684",
      "ROUTE_ORD": 7,
      "STOP_ID": 311100303,
      "LNG": 127.02953496,
      "BRT_SUBID": "0",
      "ROUTE_ID": 305001654,
      "STOP_NAME": "대율리입구",
      "SERVICE_ID": 30303,
      "NODE_ID": 311100303,
      "STOP_ORD": 7,
      "LAT": 35.7861173
    },
    {
      "ROUTE_NAME": "684",
      "ROUTE_ORD": 8,
      "STOP_ID": 311100309,
      "LNG": 127.0325203,
      "BRT_SUBID": "0",
      "ROUTE_ID": 305001654,
      "STOP_NAME": "대화리.대율2길입구",
      "SERVICE_ID": 30309,
      "NODE_ID": 311100309,
      "STOP_ORD": 8,
      "LAT": 35.7867721
    },
    {
      "ROUTE_NAME": "684",
      "ROUTE_ORD": 9,
      "STOP_ID": 311100313,
      "LNG": 127.03852371,
      "BRT_SUBID": "0",
      "ROUTE_ID": 305001654,
      "STOP_NAME": "삼바실",
      "SERVICE_ID": 30313,
      "NODE_ID": 311100313,
      "STOP_ORD": 9,
      "LAT": 35.78840716
    },
    {
      "ROUTE_NAME": "684",
      "ROUTE_ORD": 10,
      "STOP_ID": 311100326,
      "LNG": 127.04200605,
      "BRT_SUBID": "0",
      "ROUTE_ID": 305001654,
      "STOP_NAME": "금천",
      "SERVICE_ID": 30326,
      "NODE_ID": 311100326,
      "STOP_ORD": 10,
      "LAT": 35.79066021
    },
    {
      "ROUTE_NAME": "684",
      "ROUTE_ORD": 11,
      "STOP_ID": 305032292,
      "LNG": 127.04274653,
      "BRT_SUBID": "0",
      "ROUTE_ID": 305001654,
      "STOP_NAME": "대야",
      "SERVICE_ID": 32292,
      "NODE_ID": 305032292,
      "STOP_ORD": 11,
      "LAT": 35.79258606
    },
    {
      "ROUTE_NAME": "684",
      "ROUTE_ORD": 12,
      "STOP_ID": 311100353,
      "LNG": 127.04750798,
      "BRT_SUBID": "0",
      "ROUTE_ID": 305001654,
      "STOP_NAME": "대문안",
      "SERVICE_ID": 30353,
      "NODE_ID": 311100353,
      "STOP_ORD": 12,
      "LAT": 35.79408791
    },
    {
      "ROUTE_NAME": "684",
      "ROUTE_ORD": 13,
      "STOP_ID": 311100332,
      "LNG": 127.05867106,
      "BRT_SUBID": "0",
      "ROUTE_ID": 305001654,
      "STOP_NAME": "마산",
      "SERVICE_ID": 30332,
      "NODE_ID": 311100332,
      "STOP_ORD": 13,
      "LAT": 35.79121792
    },
    {
      "ROUTE_NAME": "684",
      "ROUTE_ORD": 14,
      "STOP_ID": 311100329,
      "LNG": 127.065389,
      "BRT_SUBID": "0",
      "ROUTE_ID": 305001654,
      "STOP_NAME": "마동",
      "SERVICE_ID": 30329,
      "NODE_ID": 311100329,
      "STOP_ORD": 14,
      "LAT": 35.79073776
    },
    {
      "ROUTE_NAME": "684",
      "ROUTE_ORD": 15,
      "STOP_ID": 305100358,
      "LNG": 127.070071,
      "BRT_SUBID": "0",
      "ROUTE_ID": 305001654,
      "STOP_NAME": "국립전주보훈요양원",
      "SERVICE_ID": 30358,
      "NODE_ID": 305100358,
      "STOP_ORD": 15,
      "LAT": 35.794087
    },
    {
      "ROUTE_NAME": "684",
      "ROUTE_ORD": 16,
      "STOP_ID": 305100360,
      "LNG": 127.07439614,
      "BRT_SUBID": "0",
      "ROUTE_ID": 305001654,
      "STOP_NAME": "은혜마을",
      "SERVICE_ID": 30360,
      "NODE_ID": 305100360,
      "STOP_ORD": 16,
      "LAT": 35.79448985
    },
    {
      "ROUTE_NAME": "684",
      "ROUTE_ORD": 17,
      "STOP_ID": 305100355,
      "LNG": 127.07809245,
      "BRT_SUBID": "0",
      "ROUTE_ID": 305001654,
      "STOP_NAME": "장동마을",
      "SERVICE_ID": 30355,
      "NODE_ID": 305100355,
      "STOP_ORD": 17,
      "LAT": 35.79410851
    },
    {
      "ROUTE_NAME": "684",
      "ROUTE_ORD": 18,
      "STOP_ID": 305100368,
      "LNG": 127.082339,
      "BRT_SUBID": "0",
      "ROUTE_ID": 305001654,
      "STOP_NAME": "월선마을",
      "SERVICE_ID": 30368,
      "NODE_ID": 305100368,
      "STOP_ORD": 18,
      "LAT": 35.794788
    },
    {
      "ROUTE_NAME": "684",
      "ROUTE_ORD": 19,
      "STOP_ID": 305100369,
      "LNG": 127.0859259,
      "BRT_SUBID": "0",
      "ROUTE_ID": 305001654,
      "STOP_NAME": "석산마을입구",
      "SERVICE_ID": 30369,
      "NODE_ID": 305100369,
      "STOP_ORD": 19,
      "LAT": 35.7949206
    },
    {
      "ROUTE_NAME": "684",
      "ROUTE_ORD": 20,
      "STOP_ID": 305100389,
      "LNG": 127.08765285,
      "BRT_SUBID": "0",
      "ROUTE_ID": 305001654,
      "STOP_NAME": "삼산리입구",
      "SERVICE_ID": 30389,
      "NODE_ID": 305100389,
      "STOP_ORD": 20,
      "LAT": 35.79681009
    },
    {
      "ROUTE_NAME": "684",
      "ROUTE_ORD": 21,
      "STOP_ID": 305100424,
      "LNG": 127.09120463,
      "BRT_SUBID": "0",
      "ROUTE_ID": 305001654,
      "STOP_NAME": "완산고입구",
      "SERVICE_ID": 30424,
      "NODE_ID": 305100424,
      "STOP_ORD": 21,
      "LAT": 35.79891077
    },
    {
      "ROUTE_NAME": "684",
      "ROUTE_ORD": 22,
      "STOP_ID": 305100441,
      "LNG": 127.093325,
      "BRT_SUBID": "0",
      "ROUTE_ID": 305001654,
      "STOP_NAME": "전주박물관전주역사박물관",
      "SERVICE_ID": 30441,
      "NODE_ID": 305100441,
      "STOP_ORD": 22,
      "LAT": 35.799974
    },
    {
      "ROUTE_NAME": "684",
      "ROUTE_ORD": 23,
      "STOP_ID": 305100448,
      "LNG": 127.096201,
      "BRT_SUBID": "0",
      "ROUTE_ID": 305001654,
      "STOP_NAME": "쑥고개로.용산마을입구",
      "SERVICE_ID": 30448,
      "NODE_ID": 305100448,
      "STOP_ORD": 23,
      "LAT": 35.801036
    },
    {
      "ROUTE_NAME": "684",
      "ROUTE_ORD": 24,
      "STOP_ID": 305100468,
      "LNG": 127.10297,
      "BRT_SUBID": "0",
      "ROUTE_ID": 305001654,
      "STOP_NAME": "전북교육청 동암고",
      "SERVICE_ID": 30468,
      "NODE_ID": 305100468,
      "STOP_ORD": 24,
      "LAT": 35.802937
    },
    {
      "ROUTE_NAME": "684",
      "ROUTE_ORD": 25,
      "STOP_ID": 305100485,
      "LNG": 127.107707,
      "BRT_SUBID": "0",
      "ROUTE_ID": 305001654,
      "STOP_NAME": "우전초교",
      "SERVICE_ID": 30485,
      "NODE_ID": 305100485,
      "STOP_ORD": 25,
      "LAT": 35.80419
    },
    {
      "ROUTE_NAME": "684",
      "ROUTE_ORD": 26,
      "STOP_ID": 305100500,
      "LNG": 127.113066,
      "BRT_SUBID": "0",
      "ROUTE_ID": 305001654,
      "STOP_NAME": "효자현대아파트",
      "SERVICE_ID": 30500,
      "NODE_ID": 305100500,
      "STOP_ORD": 26,
      "LAT": 35.805635
    },
    {
      "ROUTE_NAME": "684",
      "ROUTE_ORD": 27,
      "STOP_ID": 305100515,
      "LNG": 127.11813,
      "BRT_SUBID": "0",
      "ROUTE_ID": 305001654,
      "STOP_NAME": "안행교",
      "SERVICE_ID": 30515,
      "NODE_ID": 305100515,
      "STOP_ORD": 27,
      "LAT": 35.806361
    },
    {
      "ROUTE_NAME": "684",
      "ROUTE_ORD": 29,
      "STOP_ID": 305100505,
      "LNG": 127.122202,
      "BRT_SUBID": "0",
      "ROUTE_ID": 305001654,
      "STOP_NAME": "효자광장.전주시청소년상담센터",
      "SERVICE_ID": 30505,
      "NODE_ID": 305100505,
      "STOP_ORD": 28,
      "LAT": 35.805883
    },
    {
      "ROUTE_NAME": "684",
      "ROUTE_ORD": 30,
      "STOP_ID": 305100508,
      "LNG": 127.127207,
      "BRT_SUBID": "0",
      "ROUTE_ID": 305001654,
      "STOP_NAME": "서부시장",
      "SERVICE_ID": 30508,
      "NODE_ID": 305100508,
      "STOP_ORD": 29,
      "LAT": 35.805909
    },
    {
      "ROUTE_NAME": "684",
      "ROUTE_ORD": 32,
      "STOP_ID": 305100521,
      "LNG": 127.13090392,
      "BRT_SUBID": "0",
      "ROUTE_ID": 305001654,
      "STOP_NAME": "효자주공3단지",
      "SERVICE_ID": 30521,
      "NODE_ID": 305100521,
      "STOP_ORD": 30,
      "LAT": 35.80703339
    },
    {
      "ROUTE_NAME": "684",
      "ROUTE_ORD": 34,
      "STOP_ID": 305100537,
      "LNG": 127.13690696,
      "BRT_SUBID": "0",
      "ROUTE_ID": 305001654,
      "STOP_NAME": "용머리고개.완산동주민센터",
      "SERVICE_ID": 30537,
      "NODE_ID": 305100537,
      "STOP_ORD": 31,
      "LAT": 35.80905101
    },
    {
      "ROUTE_NAME": "684",
      "ROUTE_ORD": 35,
      "STOP_ID": 305100567,
      "LNG": 127.13925744,
      "BRT_SUBID": "0",
      "ROUTE_ID": 305001654,
      "STOP_NAME": "완산동시외버스정류소",
      "SERVICE_ID": 30567,
      "NODE_ID": 305100567,
      "STOP_ORD": 32,
      "LAT": 35.81220216
    },
    {
      "ROUTE_NAME": "684",
      "ROUTE_ORD": 36,
      "STOP_ID": 305100559,
      "LNG": 127.145655,
      "BRT_SUBID": "0",
      "ROUTE_ID": 305001654,
      "STOP_NAME": "매곡교.전주완산도서관",
      "SERVICE_ID": 30559,
      "NODE_ID": 305100559,
      "STOP_ORD": 33,
      "LAT": 35.811425
    },
    {
      "ROUTE_NAME": "684",
      "ROUTE_ORD": 37,
      "STOP_ID": 305100558,
      "LNG": 127.14973099,
      "BRT_SUBID": "0",
      "ROUTE_ID": 305001654,
      "STOP_NAME": "남부시장",
      "SERVICE_ID": 30558,
      "NODE_ID": 305100558,
      "STOP_ORD": 34,
      "LAT": 35.81132263
    },
    {
      "ROUTE_NAME": "684",
      "ROUTE_ORD": 38,
      "STOP_ID": 305100602,
      "LNG": 127.14835688,
      "BRT_SUBID": "0",
      "ROUTE_ID": 305001654,
      "STOP_NAME": "전동성당.한옥마을",
      "SERVICE_ID": 30602,
      "NODE_ID": 305100602,
      "STOP_ORD": 35,
      "LAT": 35.81462071
    },
    {
      "ROUTE_NAME": "684",
      "ROUTE_ORD": 39,
      "STOP_ID": 305100701,
      "LNG": 127.146138,
      "BRT_SUBID": "0",
      "ROUTE_ID": 305001654,
      "STOP_NAME": "전북은행경원지점",
      "SERVICE_ID": 30701,
      "NODE_ID": 305100701,
      "STOP_ORD": 36,
      "LAT": 35.821052
    },
    {
      "ROUTE_NAME": "684",
      "ROUTE_ORD": 40,
      "STOP_ID": 306100752,
      "LNG": 127.144695,
      "BRT_SUBID": "0",
      "ROUTE_ID": 305001654,
      "STOP_NAME": "중앙시장.세이브존",
      "SERVICE_ID": 30752,
      "NODE_ID": 306100752,
      "STOP_ORD": 37,
      "LAT": 35.824475
    },
    {
      "ROUTE_NAME": "684",
      "ROUTE_ORD": 41,
      "STOP_ID": 306100861,
      "LNG": 127.13871665,
      "BRT_SUBID": "0",
      "ROUTE_ID": 305001654,
      "STOP_NAME": "전북청소년상담센터",
      "SERVICE_ID": 30861,
      "NODE_ID": 306100861,
      "STOP_ORD": 38,
      "LAT": 35.83141844
    },
    {
      "ROUTE_NAME": "684",
      "ROUTE_ORD": 42,
      "STOP_ID": 306100911,
      "LNG": 127.137297,
      "BRT_SUBID": "0",
      "ROUTE_ID": 305001654,
      "STOP_NAME": "금암광장",
      "SERVICE_ID": 30911,
      "NODE_ID": 306100911,
      "STOP_ORD": 39,
      "LAT": 35.833069
    },
    {
      "ROUTE_NAME": "684",
      "ROUTE_ORD": 43,
      "STOP_ID": 306100969,
      "LNG": 127.13363898,
      "BRT_SUBID": "0",
      "ROUTE_ID": 305001654,
      "STOP_NAME": "금암동주민센터",
      "SERVICE_ID": 30969,
      "NODE_ID": 306100969,
      "STOP_ORD": 40,
      "LAT": 35.83678745
    },
    {
      "ROUTE_NAME": "684",
      "ROUTE_ORD": 44,
      "STOP_ID": 306101004,
      "LNG": 127.131042,
      "BRT_SUBID": "0",
      "ROUTE_ID": 305001654,
      "STOP_NAME": "고속버스터미널입구.전북일보사",
      "SERVICE_ID": 31003,
      "NODE_ID": 306101004,
      "STOP_ORD": 41,
      "LAT": 35.838631
    },
    {
      "ROUTE_NAME": "684",
      "ROUTE_ORD": 45,
      "STOP_ID": 306101051,
      "LNG": 127.125222,
      "BRT_SUBID": "0",
      "ROUTE_ID": 305001654,
      "STOP_NAME": "전북대학교.덕진성당앞",
      "SERVICE_ID": 31050,
      "NODE_ID": 306101051,
      "STOP_ORD": 42,
      "LAT": 35.842863
    },
    {
      "ROUTE_NAME": "684",
      "ROUTE_ORD": 46,
      "STOP_ID": 306101084,
      "LNG": 127.12136775,
      "BRT_SUBID": "0",
      "ROUTE_ID": 305001654,
      "STOP_NAME": "기린대로덕진공원",
      "SERVICE_ID": 31083,
      "NODE_ID": 306101084,
      "STOP_ORD": 43,
      "LAT": 35.84574561
    },
    {
      "ROUTE_NAME": "684",
      "ROUTE_ORD": 47,
      "STOP_ID": 306101095,
      "LNG": 127.11676511,
      "BRT_SUBID": "0",
      "ROUTE_ID": 305001654,
      "STOP_NAME": "기린대로.원대한방병원",
      "SERVICE_ID": 31094,
      "NODE_ID": 306101095,
      "STOP_ORD": 44,
      "LAT": 35.84824786
    },
    {
      "ROUTE_NAME": "684",
      "ROUTE_ORD": 48,
      "STOP_ID": 306101115,
      "LNG": 127.11426908,
      "BRT_SUBID": "0",
      "ROUTE_ID": 305001654,
      "STOP_NAME": "전일여객",
      "SERVICE_ID": 31114,
      "NODE_ID": 306101115,
      "STOP_ORD": 45,
      "LAT": 35.84944843
    },
    {
      "ROUTE_NAME": "684",
      "ROUTE_ORD": 49,
      "STOP_ID": 306101143,
      "LNG": 127.109783,
      "BRT_SUBID": "0",
      "ROUTE_ID": 305001654,
      "STOP_NAME": "추천대교",
      "SERVICE_ID": 31142,
      "NODE_ID": 306101143,
      "STOP_ORD": 46,
      "LAT": 35.851533
    },
    {
      "ROUTE_NAME": "684",
      "ROUTE_ORD": 50,
      "STOP_ID": 306101192,
      "LNG": 127.105331,
      "BRT_SUBID": "0",
      "ROUTE_ID": 305001654,
      "STOP_NAME": "팔복동주민센터",
      "SERVICE_ID": 31191,
      "NODE_ID": 306101192,
      "STOP_ORD": 47,
      "LAT": 35.853711
    },
    {
      "ROUTE_NAME": "684",
      "ROUTE_ORD": 51,
      "STOP_ID": 306101232,
      "LNG": 127.104301,
      "BRT_SUBID": "0",
      "ROUTE_ID": 305001654,
      "STOP_NAME": "호남고속",
      "SERVICE_ID": 31231,
      "NODE_ID": 306101232,
      "STOP_ORD": 48,
      "LAT": 35.85682
    },
    {
      "ROUTE_NAME": "684",
      "ROUTE_ORD": 52,
      "STOP_ID": 306101254,
      "LNG": 127.10456989,
      "BRT_SUBID": "0",
      "ROUTE_ID": 305001654,
      "STOP_NAME": "야전리.유니온시티",
      "SERVICE_ID": 31253,
      "NODE_ID": 306101254,
      "STOP_ORD": 49,
      "LAT": 35.85885709
    },
    {
      "ROUTE_NAME": "684",
      "ROUTE_ORD": 53,
      "STOP_ID": 306101305,
      "LNG": 127.10145969,
      "BRT_SUBID": "0",
      "ROUTE_ID": 305001654,
      "STOP_NAME": "연탄공장",
      "SERVICE_ID": 31304,
      "NODE_ID": 306101305,
      "STOP_ORD": 50,
      "LAT": 35.86348636
    },
    {
      "ROUTE_NAME": "684",
      "ROUTE_ORD": 54,
      "STOP_ID": 305032452,
      "LNG": 127.1006158,
      "BRT_SUBID": "0",
      "ROUTE_ID": 305001654,
      "STOP_NAME": "감수리주유소",
      "SERVICE_ID": 36386,
      "NODE_ID": 305032452,
      "STOP_ORD": 51,
      "LAT": 35.8654224
    },
    {
      "ROUTE_NAME": "684",
      "ROUTE_ORD": 55,
      "STOP_ID": 306101355,
      "LNG": 127.09995713,
      "BRT_SUBID": "0",
      "ROUTE_ID": 305001654,
      "STOP_NAME": "감수리",
      "SERVICE_ID": 31354,
      "NODE_ID": 306101355,
      "STOP_ORD": 52,
      "LAT": 35.86702965
    }
  ]
}