{
  "resultList": [
    {
      "ROUTE_NAME": "87-1",
      "ROUTE_ORD": 1,
      "STOP_ID": 312101166,
      "LNG": 127.22481892,
      "BRT_SUBID": "B",
      "ROUTE_ID": 305001743,
      "STOP_NAME": "소양행정복지센터",
      "SERVICE_ID": 31165,
      "NODE_ID": 312101166,
      "STOP_ORD": 1,
      "LAT": 35.85333055
    },
    {
      "ROUTE_NAME": "87-1",
      "ROUTE_ORD": 2,
      "STOP_ID": 312101195,
      "LNG": 127.22892691,
      "BRT_SUBID": "B",
      "ROUTE_ID": 305001743,
      "STOP_NAME": "소양119지역대",
      "SERVICE_ID": 31194,
      "NODE_ID": 312101195,
      "STOP_ORD": 2,
      "LAT": 35.85441152
    },
    {
      "ROUTE_NAME": "87-1",
      "ROUTE_ORD": 3,
      "STOP_ID": 312101216,
      "LNG": 127.23294515,
      "BRT_SUBID": "B",
      "ROUTE_ID": 305001743,
      "STOP_NAME": "소양",
      "SERVICE_ID": 31215,
      "NODE_ID": 312101216,
      "STOP_ORD": 3,
      "LAT": 35.85562696
    },
    {
      "ROUTE_NAME": "87-1",
      "ROUTE_ORD": 4,
      "STOP_ID": 312101277,
      "LNG": 127.23972769,
      "BRT_SUBID": "B",
      "ROUTE_ID": 305001743,
      "STOP_NAME": "인덕마을입구",
      "SERVICE_ID": 31276,
      "NODE_ID": 312101277,
      "STOP_ORD": 4,
      "LAT": 35.86026988
    },
    {
      "ROUTE_NAME": "87-1",
      "ROUTE_ORD": 5,
      "STOP_ID": 312101285,
      "LNG": 127.24230608,
      "BRT_SUBID": "B",
      "ROUTE_ID": 305001743,
      "STOP_NAME": "용연마을",
      "SERVICE_ID": 31284,
      "NODE_ID": 312101285,
      "STOP_ORD": 5,
      "LAT": 35.8610509
    },
    {
      "ROUTE_NAME": "87-1",
      "ROUTE_ORD": 6,
      "STOP_ID": 312101328,
      "LNG": 127.24726245,
      "BRT_SUBID": "B",
      "ROUTE_ID": 305001743,
      "STOP_NAME": "전북체육고 마수리",
      "SERVICE_ID": 31327,
      "NODE_ID": 312101328,
      "STOP_ORD": 6,
      "LAT": 35.86489788
    },
    {
      "ROUTE_NAME": "87-1",
      "ROUTE_ORD": 7,
      "STOP_ID": 312101270,
      "LNG": 127.25205715,
      "BRT_SUBID": "B",
      "ROUTE_ID": 305001743,
      "STOP_NAME": "왕정리",
      "SERVICE_ID": 31269,
      "NODE_ID": 312101270,
      "STOP_ORD": 7,
      "LAT": 35.85989217
    },
    {
      "ROUTE_NAME": "87-1",
      "ROUTE_ORD": 8,
      "STOP_ID": 312101217,
      "LNG": 127.25574044,
      "BRT_SUBID": "B",
      "ROUTE_ID": 305001743,
      "STOP_NAME": "신왕리",
      "SERVICE_ID": 31216,
      "NODE_ID": 312101217,
      "STOP_ORD": 8,
      "LAT": 35.85567568
    },
    {
      "ROUTE_NAME": "87-1",
      "ROUTE_ORD": 9,
      "STOP_ID": 312101114,
      "LNG": 127.26194626,
      "BRT_SUBID": "B",
      "ROUTE_ID": 305001743,
      "STOP_NAME": "해월리",
      "SERVICE_ID": 31113,
      "NODE_ID": 312101114,
      "STOP_ORD": 9,
      "LAT": 35.84916018
    },
    {
      "ROUTE_NAME": "87-1",
      "ROUTE_ORD": 10,
      "STOP_ID": 312101063,
      "LNG": 127.2687245,
      "BRT_SUBID": "B",
      "ROUTE_ID": 305001743,
      "STOP_NAME": "화심",
      "SERVICE_ID": 31062,
      "NODE_ID": 312101063,
      "STOP_ORD": 10,
      "LAT": 35.84420658
    },
    {
      "ROUTE_NAME": "87-1",
      "ROUTE_ORD": 11,
      "STOP_ID": 312100984,
      "LNG": 127.27029272,
      "BRT_SUBID": "B",
      "ROUTE_ID": 305001743,
      "STOP_NAME": "원화심마을",
      "SERVICE_ID": 30983,
      "NODE_ID": 312100984,
      "STOP_ORD": 11,
      "LAT": 35.83720196
    },
    {
      "ROUTE_NAME": "87-1",
      "ROUTE_ORD": 12,
      "STOP_ID": 312100942,
      "LNG": 127.26928956,
      "BRT_SUBID": "B",
      "ROUTE_ID": 305001743,
      "STOP_NAME": "유상마을",
      "SERVICE_ID": 30942,
      "NODE_ID": 312100942,
      "STOP_ORD": 12,
      "LAT": 35.83485216
    },
    {
      "ROUTE_NAME": "87-1",
      "ROUTE_ORD": 13,
      "STOP_ID": 312100799,
      "LNG": 127.26468532,
      "BRT_SUBID": "B",
      "ROUTE_ID": 305001743,
      "STOP_NAME": "성지동",
      "SERVICE_ID": 30799,
      "NODE_ID": 312100799,
      "STOP_ORD": 13,
      "LAT": 35.82655819
    },
    {
      "ROUTE_NAME": "87-1",
      "ROUTE_ORD": 14,
      "STOP_ID": 312100763,
      "LNG": 127.26201992,
      "BRT_SUBID": "B",
      "ROUTE_ID": 305001743,
      "STOP_NAME": "약암마을",
      "SERVICE_ID": 30763,
      "NODE_ID": 312100763,
      "STOP_ORD": 14,
      "LAT": 35.82473155
    }
  ]
}