{
  "resultList": [
    {
      "ROUTE_NAME": "82",
      "ROUTE_ORD": 1,
      "STOP_ID": 305032590,
      "LNG": 127.127797,
      "BRT_SUBID": "0",
      "ROUTE_ID": 305001823,
      "STOP_NAME": "어린이창의체험관",
      "SERVICE_ID": 36524,
      "NODE_ID": 305032590,
      "STOP_ORD": 1,
      "LAT": 35.854275
    },
    {
      "ROUTE_NAME": "82",
      "ROUTE_ORD": 3,
      "STOP_ID": 306101147,
      "LNG": 127.129927,
      "BRT_SUBID": "0",
      "ROUTE_ID": 305001823,
      "STOP_NAME": "연화마을",
      "SERVICE_ID": 31146,
      "NODE_ID": 306101147,
      "STOP_ORD": 2,
      "LAT": 35.852081
    },
    {
      "ROUTE_NAME": "82",
      "ROUTE_ORD": 7,
      "STOP_ID": 306101079,
      "LNG": 127.1423653,
      "BRT_SUBID": "0",
      "ROUTE_ID": 305001823,
      "STOP_NAME": "전북대학병원내",
      "SERVICE_ID": 31078,
      "NODE_ID": 306101079,
      "STOP_ORD": 3,
      "LAT": 35.8457004
    },
    {
      "ROUTE_NAME": "82",
      "ROUTE_ORD": 10,
      "STOP_ID": 306101069,
      "LNG": 127.14664986,
      "BRT_SUBID": "0",
      "ROUTE_ID": 305001823,
      "STOP_NAME": "동전주우체국",
      "SERVICE_ID": 31068,
      "NODE_ID": 306101069,
      "STOP_ORD": 4,
      "LAT": 35.84463013
    },
    {
      "ROUTE_NAME": "82",
      "ROUTE_ORD": 11,
      "STOP_ID": 306101081,
      "LNG": 127.149528,
      "BRT_SUBID": "0",
      "ROUTE_ID": 305001823,
      "STOP_NAME": "새마을금고.한국국토정보공사",
      "SERVICE_ID": 31080,
      "NODE_ID": 306101081,
      "STOP_ORD": 5,
      "LAT": 35.845554
    },
    {
      "ROUTE_NAME": "82",
      "ROUTE_ORD": 12,
      "STOP_ID": 305032605,
      "LNG": 127.1504883,
      "BRT_SUBID": "0",
      "ROUTE_ID": 305001823,
      "STOP_NAME": "성락타운",
      "SERVICE_ID": 36539,
      "NODE_ID": 305032605,
      "STOP_ORD": 6,
      "LAT": 35.844857
    },
    {
      "ROUTE_NAME": "82",
      "ROUTE_ORD": 13,
      "STOP_ID": 305032603,
      "LNG": 127.1509498,
      "BRT_SUBID": "0",
      "ROUTE_ID": 305001823,
      "STOP_NAME": "금성교회",
      "SERVICE_ID": 36537,
      "NODE_ID": 305032603,
      "STOP_ORD": 7,
      "LAT": 35.8431498
    },
    {
      "ROUTE_NAME": "82",
      "ROUTE_ORD": 14,
      "STOP_ID": 305032602,
      "LNG": 127.146915,
      "BRT_SUBID": "0",
      "ROUTE_ID": 305001823,
      "STOP_NAME": "구숙사공원",
      "SERVICE_ID": 36536,
      "NODE_ID": 305032602,
      "STOP_ORD": 8,
      "LAT": 35.841933
    },
    {
      "ROUTE_NAME": "82",
      "ROUTE_ORD": 15,
      "STOP_ID": 305032600,
      "LNG": 127.145734,
      "BRT_SUBID": "0",
      "ROUTE_ID": 305001823,
      "STOP_NAME": "인후2동주민센터",
      "SERVICE_ID": 36534,
      "NODE_ID": 305032600,
      "STOP_ORD": 9,
      "LAT": 35.840119
    },
    {
      "ROUTE_NAME": "82",
      "ROUTE_ORD": 16,
      "STOP_ID": 305032598,
      "LNG": 127.145334,
      "BRT_SUBID": "0",
      "ROUTE_ID": 305001823,
      "STOP_NAME": "전일중학교",
      "SERVICE_ID": 36532,
      "NODE_ID": 305032598,
      "STOP_ORD": 10,
      "LAT": 35.836834
    },
    {
      "ROUTE_NAME": "82",
      "ROUTE_ORD": 17,
      "STOP_ID": 305032596,
      "LNG": 127.1453592,
      "BRT_SUBID": "0",
      "ROUTE_ID": 305001823,
      "STOP_NAME": "전주여자고등학교",
      "SERVICE_ID": 36530,
      "NODE_ID": 305032596,
      "STOP_ORD": 11,
      "LAT": 35.835357
    },
    {
      "ROUTE_NAME": "82",
      "ROUTE_ORD": 18,
      "STOP_ID": 306100898,
      "LNG": 127.14490334,
      "BRT_SUBID": "0",
      "ROUTE_ID": 305001823,
      "STOP_NAME": "모래내시장",
      "SERVICE_ID": 30898,
      "NODE_ID": 306100898,
      "STOP_ORD": 12,
      "LAT": 35.83301705
    },
    {
      "ROUTE_NAME": "82",
      "ROUTE_ORD": 21,
      "STOP_ID": 305032593,
      "LNG": 127.141714,
      "BRT_SUBID": "0",
      "ROUTE_ID": 305001823,
      "STOP_NAME": "모래내입구",
      "SERVICE_ID": 36527,
      "NODE_ID": 305032593,
      "STOP_ORD": 13,
      "LAT": 35.833354
    },
    {
      "ROUTE_NAME": "82",
      "ROUTE_ORD": 24,
      "STOP_ID": 305032767,
      "LNG": 127.148732,
      "BRT_SUBID": "0",
      "ROUTE_ID": 305001823,
      "STOP_NAME": "순복음중앙교회",
      "SERVICE_ID": 36701,
      "NODE_ID": 305032767,
      "STOP_ORD": 14,
      "LAT": 35.832766
    },
    {
      "ROUTE_NAME": "82",
      "ROUTE_ORD": 25,
      "STOP_ID": 306100896,
      "LNG": 127.15184677,
      "BRT_SUBID": "0",
      "ROUTE_ID": 305001823,
      "STOP_NAME": "인후6거리",
      "SERVICE_ID": 30896,
      "NODE_ID": 306100896,
      "STOP_ORD": 15,
      "LAT": 35.83310547
    },
    {
      "ROUTE_NAME": "82",
      "ROUTE_ORD": 26,
      "STOP_ID": 306100902,
      "LNG": 127.15461162,
      "BRT_SUBID": "0",
      "ROUTE_ID": 305001823,
      "STOP_NAME": "기린네거리",
      "SERVICE_ID": 30902,
      "NODE_ID": 306100902,
      "STOP_ORD": 16,
      "LAT": 35.83331422
    },
    {
      "ROUTE_NAME": "82",
      "ROUTE_ORD": 27,
      "STOP_ID": 306100908,
      "LNG": 127.158825,
      "BRT_SUBID": "0",
      "ROUTE_ID": 305001823,
      "STOP_NAME": "기린초교",
      "SERVICE_ID": 30908,
      "NODE_ID": 306100908,
      "STOP_ORD": 17,
      "LAT": 35.833587
    },
    {
      "ROUTE_NAME": "82",
      "ROUTE_ORD": 29,
      "STOP_ID": 306100937,
      "LNG": 127.16497601,
      "BRT_SUBID": "0",
      "ROUTE_ID": 305001823,
      "STOP_NAME": "고용노동부전주지청",
      "SERVICE_ID": 30937,
      "NODE_ID": 306100937,
      "STOP_ORD": 18,
      "LAT": 35.83496455
    },
    {
      "ROUTE_NAME": "82",
      "ROUTE_ORD": 30,
      "STOP_ID": 306100913,
      "LNG": 127.1675838,
      "BRT_SUBID": "0",
      "ROUTE_ID": 305001823,
      "STOP_NAME": "아중대우아파트",
      "SERVICE_ID": 30913,
      "NODE_ID": 306100913,
      "STOP_ORD": 19,
      "LAT": 35.83358
    },
    {
      "ROUTE_NAME": "82",
      "ROUTE_ORD": 31,
      "STOP_ID": 306100869,
      "LNG": 127.16792027,
      "BRT_SUBID": "0",
      "ROUTE_ID": 305001823,
      "STOP_NAME": "아중현대아파트",
      "SERVICE_ID": 30869,
      "NODE_ID": 306100869,
      "STOP_ORD": 20,
      "LAT": 35.83178082
    },
    {
      "ROUTE_NAME": "82",
      "ROUTE_ORD": 32,
      "STOP_ID": 306100847,
      "LNG": 127.16879113,
      "BRT_SUBID": "0",
      "ROUTE_ID": 305001823,
      "STOP_NAME": "중앙여고",
      "SERVICE_ID": 30847,
      "NODE_ID": 306100847,
      "STOP_ORD": 21,
      "LAT": 35.83007524
    },
    {
      "ROUTE_NAME": "82",
      "ROUTE_ORD": 33,
      "STOP_ID": 306100811,
      "LNG": 127.17090123,
      "BRT_SUBID": "0",
      "ROUTE_ID": 305001823,
      "STOP_NAME": "하인교마을",
      "SERVICE_ID": 30811,
      "NODE_ID": 306100811,
      "STOP_ORD": 22,
      "LAT": 35.82765841
    },
    {
      "ROUTE_NAME": "82",
      "ROUTE_ORD": 34,
      "STOP_ID": 306100820,
      "LNG": 127.173378,
      "BRT_SUBID": "0",
      "ROUTE_ID": 305001823,
      "STOP_NAME": "아중호수.인교마을입구.아중요양병원",
      "SERVICE_ID": 30820,
      "NODE_ID": 306100820,
      "STOP_ORD": 23,
      "LAT": 35.828468
    },
    {
      "ROUTE_NAME": "82",
      "ROUTE_ORD": 38,
      "STOP_ID": 306100635,
      "LNG": 127.182283,
      "BRT_SUBID": "0",
      "ROUTE_ID": 305001823,
      "STOP_NAME": "관암마을",
      "SERVICE_ID": 30635,
      "NODE_ID": 306100635,
      "STOP_ORD": 24,
      "LAT": 35.816392
    },
    {
      "ROUTE_NAME": "82",
      "ROUTE_ORD": 39,
      "STOP_ID": 305032439,
      "LNG": 127.1931343,
      "BRT_SUBID": "0",
      "ROUTE_ID": 305001823,
      "STOP_NAME": "왜망실입구",
      "SERVICE_ID": 36373,
      "NODE_ID": 305032439,
      "STOP_ORD": 25,
      "LAT": 35.8169242
    },
    {
      "ROUTE_NAME": "82",
      "ROUTE_ORD": 40,
      "STOP_ID": 306100660,
      "LNG": 127.19670061,
      "BRT_SUBID": "0",
      "ROUTE_ID": 305001823,
      "STOP_NAME": "아하마을",
      "SERVICE_ID": 30660,
      "NODE_ID": 306100660,
      "STOP_ORD": 26,
      "LAT": 35.81881936
    },
    {
      "ROUTE_NAME": "82",
      "ROUTE_ORD": 41,
      "STOP_ID": 305032548,
      "LNG": 127.198418,
      "BRT_SUBID": "0",
      "ROUTE_ID": 305001823,
      "STOP_NAME": "왜망실",
      "SERVICE_ID": 36482,
      "NODE_ID": 305032548,
      "STOP_ORD": 27,
      "LAT": 35.8198335
    },
    {
      "ROUTE_NAME": "82",
      "ROUTE_ORD": 42,
      "STOP_ID": 306100653,
      "LNG": 127.20551602,
      "BRT_SUBID": "0",
      "ROUTE_ID": 305001823,
      "STOP_NAME": "재전",
      "SERVICE_ID": 30653,
      "NODE_ID": 306100653,
      "STOP_ORD": 28,
      "LAT": 35.81850626
    }
  ]
}