{
  "resultList": [
    {
      "ROUTE_NAME": "554",
      "ROUTE_ORD": 1,
      "STOP_ID": 305100648,
      "LNG": 127.14542022,
      "BRT_SUBID": "A",
      "ROUTE_ID": 305000409,
      "STOP_NAME": "충경로 객사",
      "SERVICE_ID": 30648,
      "NODE_ID": 305100648,
      "STOP_ORD": 1,
      "LAT": 35.81798392
    },
    {
      "ROUTE_NAME": "554",
      "ROUTE_ORD": 2,
      "STOP_ID": 305100683,
      "LNG": 127.146497,
      "BRT_SUBID": "A",
      "ROUTE_ID": 305000409,
      "STOP_NAME": "CTS전북방송",
      "SERVICE_ID": 30683,
      "NODE_ID": 305100683,
      "STOP_ORD": 2,
      "LAT": 35.820099
    },
    {
      "ROUTE_NAME": "554",
      "ROUTE_ORD": 3,
      "STOP_ID": 306100752,
      "LNG": 127.144695,
      "BRT_SUBID": "A",
      "ROUTE_ID": 305000409,
      "STOP_NAME": "중앙시장.세이브존",
      "SERVICE_ID": 30752,
      "NODE_ID": 306100752,
      "STOP_ORD": 3,
      "LAT": 35.824475
    },
    {
      "ROUTE_NAME": "554",
      "ROUTE_ORD": 4,
      "STOP_ID": 306100861,
      "LNG": 127.13871665,
      "BRT_SUBID": "A",
      "ROUTE_ID": 305000409,
      "STOP_NAME": "전북청소년상담센터",
      "SERVICE_ID": 30861,
      "NODE_ID": 306100861,
      "STOP_ORD": 4,
      "LAT": 35.83141844
    },
    {
      "ROUTE_NAME": "554",
      "ROUTE_ORD": 5,
      "STOP_ID": 306100911,
      "LNG": 127.137297,
      "BRT_SUBID": "A",
      "ROUTE_ID": 305000409,
      "STOP_NAME": "금암광장",
      "SERVICE_ID": 30911,
      "NODE_ID": 306100911,
      "STOP_ORD": 5,
      "LAT": 35.833069
    },
    {
      "ROUTE_NAME": "554",
      "ROUTE_ORD": 6,
      "STOP_ID": 306100969,
      "LNG": 127.13363898,
      "BRT_SUBID": "A",
      "ROUTE_ID": 305000409,
      "STOP_NAME": "금암동주민센터",
      "SERVICE_ID": 30969,
      "NODE_ID": 306100969,
      "STOP_ORD": 6,
      "LAT": 35.83678745
    },
    {
      "ROUTE_NAME": "554",
      "ROUTE_ORD": 7,
      "STOP_ID": 306101004,
      "LNG": 127.131042,
      "BRT_SUBID": "A",
      "ROUTE_ID": 305000409,
      "STOP_NAME": "고속버스터미널입구.전북일보사",
      "SERVICE_ID": 31003,
      "NODE_ID": 306101004,
      "STOP_ORD": 7,
      "LAT": 35.838631
    },
    {
      "ROUTE_NAME": "554",
      "ROUTE_ORD": 8,
      "STOP_ID": 306101035,
      "LNG": 127.127164,
      "BRT_SUBID": "A",
      "ROUTE_ID": 305000409,
      "STOP_NAME": "전북대학교.소나무한의원앞",
      "SERVICE_ID": 31034,
      "NODE_ID": 306101035,
      "STOP_ORD": 8,
      "LAT": 35.841467
    },
    {
      "ROUTE_NAME": "554",
      "ROUTE_ORD": 9,
      "STOP_ID": 306101084,
      "LNG": 127.12136775,
      "BRT_SUBID": "A",
      "ROUTE_ID": 305000409,
      "STOP_NAME": "기린대로덕진공원",
      "SERVICE_ID": 31083,
      "NODE_ID": 306101084,
      "STOP_ORD": 9,
      "LAT": 35.84574561
    },
    {
      "ROUTE_NAME": "554",
      "ROUTE_ORD": 10,
      "STOP_ID": 306101113,
      "LNG": 127.11968893,
      "BRT_SUBID": "A",
      "ROUTE_ID": 305000409,
      "STOP_NAME": "도립국악원",
      "SERVICE_ID": 31112,
      "NODE_ID": 306101113,
      "STOP_ORD": 10,
      "LAT": 35.84934543
    },
    {
      "ROUTE_NAME": "554",
      "ROUTE_ORD": 11,
      "STOP_ID": 306101170,
      "LNG": 127.11979367,
      "BRT_SUBID": "A",
      "ROUTE_ID": 305000409,
      "STOP_NAME": "도립여성중고 롯데마트",
      "SERVICE_ID": 31169,
      "NODE_ID": 306101170,
      "STOP_ORD": 11,
      "LAT": 35.85361352
    },
    {
      "ROUTE_NAME": "554",
      "ROUTE_ORD": 12,
      "STOP_ID": 306101233,
      "LNG": 127.12077329,
      "BRT_SUBID": "A",
      "ROUTE_ID": 305000409,
      "STOP_NAME": "송천1동주민센터",
      "SERVICE_ID": 31232,
      "NODE_ID": 306101233,
      "STOP_ORD": 12,
      "LAT": 35.85701397
    },
    {
      "ROUTE_NAME": "554",
      "ROUTE_ORD": 13,
      "STOP_ID": 306101280,
      "LNG": 127.12156208,
      "BRT_SUBID": "A",
      "ROUTE_ID": 305000409,
      "STOP_NAME": "전라고",
      "SERVICE_ID": 31279,
      "NODE_ID": 306101280,
      "STOP_ORD": 13,
      "LAT": 35.86055764
    },
    {
      "ROUTE_NAME": "554",
      "ROUTE_ORD": 14,
      "STOP_ID": 306101307,
      "LNG": 127.12369476,
      "BRT_SUBID": "A",
      "ROUTE_ID": 305000409,
      "STOP_NAME": "송북초교",
      "SERVICE_ID": 31306,
      "NODE_ID": 306101307,
      "STOP_ORD": 14,
      "LAT": 35.86363645
    },
    {
      "ROUTE_NAME": "554",
      "ROUTE_ORD": 15,
      "STOP_ID": 306101320,
      "LNG": 127.12708911,
      "BRT_SUBID": "A",
      "ROUTE_ID": 305000409,
      "STOP_NAME": "송천주공2단지",
      "SERVICE_ID": 31319,
      "NODE_ID": 306101320,
      "STOP_ORD": 15,
      "LAT": 35.86436962
    },
    {
      "ROUTE_NAME": "554",
      "ROUTE_ORD": 16,
      "STOP_ID": 306101344,
      "LNG": 127.12733436,
      "BRT_SUBID": "A",
      "ROUTE_ID": 305000409,
      "STOP_NAME": "송천현대아파트",
      "SERVICE_ID": 31343,
      "NODE_ID": 306101344,
      "STOP_ORD": 16,
      "LAT": 35.8662239
    },
    {
      "ROUTE_NAME": "554",
      "ROUTE_ORD": 17,
      "STOP_ID": 306101363,
      "LNG": 127.127379,
      "BRT_SUBID": "A",
      "ROUTE_ID": 305000409,
      "STOP_NAME": "송천주공아파트",
      "SERVICE_ID": 31362,
      "NODE_ID": 306101363,
      "STOP_ORD": 17,
      "LAT": 35.867602
    },
    {
      "ROUTE_NAME": "554",
      "ROUTE_ORD": 18,
      "STOP_ID": 305032430,
      "LNG": 127.1277186,
      "BRT_SUBID": "A",
      "ROUTE_ID": 305000409,
      "STOP_NAME": "에코시티상가",
      "SERVICE_ID": 36364,
      "NODE_ID": 305032430,
      "STOP_ORD": 18,
      "LAT": 35.8721074
    },
    {
      "ROUTE_NAME": "554",
      "ROUTE_ORD": 19,
      "STOP_ID": 305032397,
      "LNG": 127.130066,
      "BRT_SUBID": "A",
      "ROUTE_ID": 305000409,
      "STOP_NAME": "에코더샵1차",
      "SERVICE_ID": 36331,
      "NODE_ID": 305032397,
      "STOP_ORD": 19,
      "LAT": 35.872757
    },
    {
      "ROUTE_NAME": "554",
      "ROUTE_ORD": 20,
      "STOP_ID": 305032398,
      "LNG": 127.1339642,
      "BRT_SUBID": "A",
      "ROUTE_ID": 305000409,
      "STOP_NAME": "에코휴먼빌",
      "SERVICE_ID": 36332,
      "NODE_ID": 305032398,
      "STOP_ORD": 20,
      "LAT": 35.8725593
    },
    {
      "ROUTE_NAME": "554",
      "ROUTE_ORD": 21,
      "STOP_ID": 305032400,
      "LNG": 127.135157,
      "BRT_SUBID": "A",
      "ROUTE_ID": 305000409,
      "STOP_NAME": "자연초등학교",
      "SERVICE_ID": 36334,
      "NODE_ID": 305032400,
      "STOP_ORD": 21,
      "LAT": 35.876991
    },
    {
      "ROUTE_NAME": "554",
      "ROUTE_ORD": 22,
      "STOP_ID": 305032528,
      "LNG": 127.133709,
      "BRT_SUBID": "A",
      "ROUTE_ID": 305000409,
      "STOP_NAME": "에코더샵2차",
      "SERVICE_ID": 36462,
      "NODE_ID": 305032528,
      "STOP_ORD": 22,
      "LAT": 35.878247
    },
    {
      "ROUTE_NAME": "554",
      "ROUTE_ORD": 23,
      "STOP_ID": 305032401,
      "LNG": 127.130474,
      "BRT_SUBID": "A",
      "ROUTE_ID": 305000409,
      "STOP_NAME": "에코스위첸",
      "SERVICE_ID": 36335,
      "NODE_ID": 305032401,
      "STOP_ORD": 23,
      "LAT": 35.879291
    },
    {
      "ROUTE_NAME": "554",
      "ROUTE_ORD": 24,
      "STOP_ID": 305032756,
      "LNG": 127.12809734,
      "BRT_SUBID": "A",
      "ROUTE_ID": 305000409,
      "STOP_NAME": "에코데시앙14블럭",
      "SERVICE_ID": 36690,
      "NODE_ID": 305032756,
      "STOP_ORD": 24,
      "LAT": 35.87968426
    },
    {
      "ROUTE_NAME": "554",
      "ROUTE_ORD": 25,
      "STOP_ID": 306101523,
      "LNG": 127.128752,
      "BRT_SUBID": "A",
      "ROUTE_ID": 305000409,
      "STOP_NAME": "백석제",
      "SERVICE_ID": 31522,
      "NODE_ID": 306101523,
      "STOP_ORD": 25,
      "LAT": 35.884006
    },
    {
      "ROUTE_NAME": "554",
      "ROUTE_ORD": 26,
      "STOP_ID": 306101546,
      "LNG": 127.12921669,
      "BRT_SUBID": "A",
      "ROUTE_ID": 305000409,
      "STOP_NAME": "과학로.전당네거리",
      "SERVICE_ID": 31545,
      "NODE_ID": 306101546,
      "STOP_ORD": 26,
      "LAT": 35.88661318
    },
    {
      "ROUTE_NAME": "554",
      "ROUTE_ORD": 27,
      "STOP_ID": 306101618,
      "LNG": 127.12539149,
      "BRT_SUBID": "A",
      "ROUTE_ID": 305000409,
      "STOP_NAME": "은평마을",
      "SERVICE_ID": 31617,
      "NODE_ID": 306101618,
      "STOP_ORD": 27,
      "LAT": 35.89632568
    },
    {
      "ROUTE_NAME": "554",
      "ROUTE_ORD": 28,
      "STOP_ID": 312101654,
      "LNG": 127.12524053,
      "BRT_SUBID": "A",
      "ROUTE_ID": 305000409,
      "STOP_NAME": "회포대교",
      "SERVICE_ID": 31653,
      "NODE_ID": 312101654,
      "STOP_ORD": 28,
      "LAT": 35.90789425
    },
    {
      "ROUTE_NAME": "554",
      "ROUTE_ORD": 29,
      "STOP_ID": 312101694,
      "LNG": 127.12524397,
      "BRT_SUBID": "A",
      "ROUTE_ID": 305000409,
      "STOP_NAME": "송정마을",
      "SERVICE_ID": 31693,
      "NODE_ID": 312101694,
      "STOP_ORD": 29,
      "LAT": 35.91345208
    },
    {
      "ROUTE_NAME": "554",
      "ROUTE_ORD": 30,
      "STOP_ID": 312101709,
      "LNG": 127.1252477,
      "BRT_SUBID": "A",
      "ROUTE_ID": 305000409,
      "STOP_NAME": "장포리",
      "SERVICE_ID": 31708,
      "NODE_ID": 312101709,
      "STOP_ORD": 30,
      "LAT": 35.91678768
    },
    {
      "ROUTE_NAME": "554",
      "ROUTE_ORD": 31,
      "STOP_ID": 312101753,
      "LNG": 127.125206,
      "BRT_SUBID": "A",
      "ROUTE_ID": 305000409,
      "STOP_NAME": "완주군보건소.명탄마을",
      "SERVICE_ID": 31752,
      "NODE_ID": 312101753,
      "STOP_ORD": 31,
      "LAT": 35.9224803
    },
    {
      "ROUTE_NAME": "554",
      "ROUTE_ORD": 32,
      "STOP_ID": 305032540,
      "LNG": 127.1252694,
      "BRT_SUBID": "A",
      "ROUTE_ID": 305000409,
      "STOP_NAME": "과학로완주소방서",
      "SERVICE_ID": 36474,
      "NODE_ID": 305032540,
      "STOP_ORD": 32,
      "LAT": 35.92571
    },
    {
      "ROUTE_NAME": "554",
      "ROUTE_ORD": 33,
      "STOP_ID": 312101772,
      "LNG": 127.1253209,
      "BRT_SUBID": "A",
      "ROUTE_ID": 305000409,
      "STOP_NAME": "과학로.구.청완초교",
      "SERVICE_ID": 31771,
      "NODE_ID": 312101772,
      "STOP_ORD": 33,
      "LAT": 35.9289018
    },
    {
      "ROUTE_NAME": "554",
      "ROUTE_ORD": 34,
      "STOP_ID": 312101795,
      "LNG": 127.12539617,
      "BRT_SUBID": "A",
      "ROUTE_ID": 305000409,
      "STOP_NAME": "원수계리",
      "SERVICE_ID": 31794,
      "NODE_ID": 312101795,
      "STOP_ORD": 34,
      "LAT": 35.93270207
    },
    {
      "ROUTE_NAME": "554",
      "ROUTE_ORD": 35,
      "STOP_ID": 312101826,
      "LNG": 127.12563217,
      "BRT_SUBID": "A",
      "ROUTE_ID": 305000409,
      "STOP_NAME": "금강고려화학",
      "SERVICE_ID": 31825,
      "NODE_ID": 312101826,
      "STOP_ORD": 35,
      "LAT": 35.93881728
    },
    {
      "ROUTE_NAME": "554",
      "ROUTE_ORD": 36,
      "STOP_ID": 312101843,
      "LNG": 127.12741092,
      "BRT_SUBID": "A",
      "ROUTE_ID": 305000409,
      "STOP_NAME": "중앙공원",
      "SERVICE_ID": 31842,
      "NODE_ID": 312101843,
      "STOP_ORD": 36,
      "LAT": 35.94370728
    },
    {
      "ROUTE_NAME": "554",
      "ROUTE_ORD": 37,
      "STOP_ID": 312101845,
      "LNG": 127.13694771,
      "BRT_SUBID": "A",
      "ROUTE_ID": 305000409,
      "STOP_NAME": "현대자동차",
      "SERVICE_ID": 31844,
      "NODE_ID": 312101845,
      "STOP_ORD": 37,
      "LAT": 35.94360916
    },
    {
      "ROUTE_NAME": "554",
      "ROUTE_ORD": 38,
      "STOP_ID": 312101856,
      "LNG": 127.13966572,
      "BRT_SUBID": "A",
      "ROUTE_ID": 305000409,
      "STOP_NAME": "동아정밀공업",
      "SERVICE_ID": 31855,
      "NODE_ID": 312101856,
      "STOP_ORD": 38,
      "LAT": 35.94628235
    },
    {
      "ROUTE_NAME": "554",
      "ROUTE_ORD": 39,
      "STOP_ID": 312101884,
      "LNG": 127.13904859,
      "BRT_SUBID": "A",
      "ROUTE_ID": 305000409,
      "STOP_NAME": "현대자동차출고장",
      "SERVICE_ID": 31883,
      "NODE_ID": 312101884,
      "STOP_ORD": 39,
      "LAT": 35.95541702
    },
    {
      "ROUTE_NAME": "554",
      "ROUTE_ORD": 40,
      "STOP_ID": 312101886,
      "LNG": 127.13232253,
      "BRT_SUBID": "A",
      "ROUTE_ID": 305000409,
      "STOP_NAME": "대륜산업",
      "SERVICE_ID": 31885,
      "NODE_ID": 312101886,
      "STOP_ORD": 40,
      "LAT": 35.95550766
    },
    {
      "ROUTE_NAME": "554",
      "ROUTE_ORD": 41,
      "STOP_ID": 312101999,
      "LNG": 127.12979359,
      "BRT_SUBID": "A",
      "ROUTE_ID": 305000409,
      "STOP_NAME": "뷰텍",
      "SERVICE_ID": 31999,
      "NODE_ID": 312101999,
      "STOP_ORD": 41,
      "LAT": 35.95878836
    },
    {
      "ROUTE_NAME": "554",
      "ROUTE_ORD": 42,
      "STOP_ID": 305032488,
      "LNG": 127.126515,
      "BRT_SUBID": "A",
      "ROUTE_ID": 305000409,
      "STOP_NAME": "둔산코아루1차아파트",
      "SERVICE_ID": 36422,
      "NODE_ID": 305032488,
      "STOP_ORD": 42,
      "LAT": 35.9618481
    },
    {
      "ROUTE_NAME": "554",
      "ROUTE_ORD": 43,
      "STOP_ID": 312101914,
      "LNG": 127.122735,
      "BRT_SUBID": "A",
      "ROUTE_ID": 305000409,
      "STOP_NAME": "둔산코아루2차아파트",
      "SERVICE_ID": 31913,
      "NODE_ID": 312101914,
      "STOP_ORD": 43,
      "LAT": 35.96226927
    }
  ]
}