{
  "resultList": [
    {
      "ROUTE_NAME": "350",
      "ROUTE_ORD": 1,
      "STOP_ID": 305132105,
      "LNG": 127.1226872,
      "BRT_SUBID": "0",
      "ROUTE_ID": 305200617,
      "STOP_NAME": "평화동종점",
      "SERVICE_ID": 32105,
      "NODE_ID": 305132105,
      "STOP_ORD": 1,
      "LAT": 35.77802464
    },
    {
      "ROUTE_NAME": "350",
      "ROUTE_ORD": 2,
      "STOP_ID": 305132106,
      "LNG": 127.1279211,
      "BRT_SUBID": "0",
      "ROUTE_ID": 305200617,
      "STOP_NAME": "문정마을",
      "SERVICE_ID": 32106,
      "NODE_ID": 305132106,
      "STOP_ORD": 2,
      "LAT": 35.77781936
    },
    {
      "ROUTE_NAME": "350",
      "ROUTE_ORD": 3,
      "STOP_ID": 305100279,
      "LNG": 127.129321,
      "BRT_SUBID": "0",
      "ROUTE_ID": 305200617,
      "STOP_NAME": "전주교도소",
      "SERVICE_ID": 30279,
      "NODE_ID": 305100279,
      "STOP_ORD": 3,
      "LAT": 35.779327
    },
    {
      "ROUTE_NAME": "350",
      "ROUTE_ORD": 4,
      "STOP_ID": 305100293,
      "LNG": 127.12998758,
      "BRT_SUBID": "0",
      "ROUTE_ID": 305200617,
      "STOP_NAME": "평화그린1차아파트",
      "SERVICE_ID": 30293,
      "NODE_ID": 305100293,
      "STOP_ORD": 4,
      "LAT": 35.78420517
    },
    {
      "ROUTE_NAME": "350",
      "ROUTE_ORD": 5,
      "STOP_ID": 305100302,
      "LNG": 127.129701,
      "BRT_SUBID": "0",
      "ROUTE_ID": 305200617,
      "STOP_NAME": "평화동도미소드림아파트",
      "SERVICE_ID": 30302,
      "NODE_ID": 305100302,
      "STOP_ORD": 5,
      "LAT": 35.785898
    },
    {
      "ROUTE_NAME": "350",
      "ROUTE_ORD": 6,
      "STOP_ID": 305100314,
      "LNG": 127.13073783,
      "BRT_SUBID": "0",
      "ROUTE_ID": 305200617,
      "STOP_NAME": "평화삼성강남아파트",
      "SERVICE_ID": 30314,
      "NODE_ID": 305100314,
      "STOP_ORD": 6,
      "LAT": 35.78844676
    },
    {
      "ROUTE_NAME": "350",
      "ROUTE_ORD": 7,
      "STOP_ID": 305100335,
      "LNG": 127.13177488,
      "BRT_SUBID": "0",
      "ROUTE_ID": 305200617,
      "STOP_NAME": "주공4단지.꽃밭정이아파트",
      "SERVICE_ID": 30335,
      "NODE_ID": 305100335,
      "STOP_ORD": 7,
      "LAT": 35.79175305
    },
    {
      "ROUTE_NAME": "350",
      "ROUTE_ORD": 8,
      "STOP_ID": 305100348,
      "LNG": 127.13225296,
      "BRT_SUBID": "0",
      "ROUTE_ID": 305200617,
      "STOP_NAME": "평화코오롱아파트",
      "SERVICE_ID": 30348,
      "NODE_ID": 305100348,
      "STOP_ORD": 8,
      "LAT": 35.79356814
    },
    {
      "ROUTE_NAME": "350",
      "ROUTE_ORD": 9,
      "STOP_ID": 305100385,
      "LNG": 127.135699,
      "BRT_SUBID": "0",
      "ROUTE_ID": 305200617,
      "STOP_NAME": "꽃밭정이네거리",
      "SERVICE_ID": 30385,
      "NODE_ID": 305100385,
      "STOP_ORD": 9,
      "LAT": 35.79652
    },
    {
      "ROUTE_NAME": "350",
      "ROUTE_ORD": 10,
      "STOP_ID": 305100401,
      "LNG": 127.1390222,
      "BRT_SUBID": "0",
      "ROUTE_ID": 305200617,
      "STOP_NAME": "완산여고",
      "SERVICE_ID": 30401,
      "NODE_ID": 305100401,
      "STOP_ORD": 10,
      "LAT": 35.79770557
    },
    {
      "ROUTE_NAME": "350",
      "ROUTE_ORD": 11,
      "STOP_ID": 305100411,
      "LNG": 127.14142127,
      "BRT_SUBID": "0",
      "ROUTE_ID": 305200617,
      "STOP_NAME": "평화주공1.2단지",
      "SERVICE_ID": 30411,
      "NODE_ID": 305100411,
      "STOP_ORD": 11,
      "LAT": 35.798558
    },
    {
      "ROUTE_NAME": "350",
      "ROUTE_ORD": 12,
      "STOP_ID": 305100427,
      "LNG": 127.143604,
      "BRT_SUBID": "0",
      "ROUTE_ID": 305200617,
      "STOP_NAME": "장승백이",
      "SERVICE_ID": 30427,
      "NODE_ID": 305100427,
      "STOP_ORD": 12,
      "LAT": 35.79936984
    },
    {
      "ROUTE_NAME": "350",
      "ROUTE_ORD": 13,
      "STOP_ID": 305100449,
      "LNG": 127.14638647,
      "BRT_SUBID": "0",
      "ROUTE_ID": 305200617,
      "STOP_NAME": "서서학우정목련아파트",
      "SERVICE_ID": 30449,
      "NODE_ID": 305100449,
      "STOP_ORD": 13,
      "LAT": 35.80104093
    },
    {
      "ROUTE_NAME": "350",
      "ROUTE_ORD": 14,
      "STOP_ID": 305100038,
      "LNG": 127.150027,
      "BRT_SUBID": "0",
      "ROUTE_ID": 305200617,
      "STOP_NAME": "흑석골입구",
      "SERVICE_ID": 32038,
      "NODE_ID": 305100038,
      "STOP_ORD": 14,
      "LAT": 35.80416
    },
    {
      "ROUTE_NAME": "350",
      "ROUTE_ORD": 15,
      "STOP_ID": 305102022,
      "LNG": 127.152742,
      "BRT_SUBID": "0",
      "ROUTE_ID": 305200617,
      "STOP_NAME": "거산황궁아파트",
      "SERVICE_ID": 32022,
      "NODE_ID": 305102022,
      "STOP_ORD": 15,
      "LAT": 35.805974
    },
    {
      "ROUTE_NAME": "350",
      "ROUTE_ORD": 16,
      "STOP_ID": 305102023,
      "LNG": 127.158836,
      "BRT_SUBID": "0",
      "ROUTE_ID": 305200617,
      "STOP_NAME": "남고사입구",
      "SERVICE_ID": 32023,
      "NODE_ID": 305102023,
      "STOP_ORD": 16,
      "LAT": 35.807249
    },
    {
      "ROUTE_NAME": "350",
      "ROUTE_ORD": 17,
      "STOP_ID": 305320355,
      "LNG": 127.162183,
      "BRT_SUBID": "0",
      "ROUTE_ID": 305200617,
      "STOP_NAME": "승암마을",
      "SERVICE_ID": 32035,
      "NODE_ID": 305320355,
      "STOP_ORD": 17,
      "LAT": 35.809715
    },
    {
      "ROUTE_NAME": "350",
      "ROUTE_ORD": 18,
      "STOP_ID": 305100590,
      "LNG": 127.157012,
      "BRT_SUBID": "0",
      "ROUTE_ID": 305200617,
      "STOP_NAME": "한벽루 자만벽화마을",
      "SERVICE_ID": 30590,
      "NODE_ID": 305100590,
      "STOP_ORD": 18,
      "LAT": 35.813709
    },
    {
      "ROUTE_NAME": "350",
      "ROUTE_ORD": 19,
      "STOP_ID": 305100634,
      "LNG": 127.154775,
      "BRT_SUBID": "0",
      "ROUTE_ID": 305200617,
      "STOP_NAME": "오목대.한옥마을",
      "SERVICE_ID": 30634,
      "NODE_ID": 305100634,
      "STOP_ORD": 19,
      "LAT": 35.81618
    },
    {
      "ROUTE_NAME": "350",
      "ROUTE_ORD": 20,
      "STOP_ID": 305100704,
      "LNG": 127.152248,
      "BRT_SUBID": "0",
      "ROUTE_ID": 305200617,
      "STOP_NAME": "기린대로 병무청",
      "SERVICE_ID": 30704,
      "NODE_ID": 305100704,
      "STOP_ORD": 20,
      "LAT": 35.82136
    },
    {
      "ROUTE_NAME": "350",
      "ROUTE_ORD": 21,
      "STOP_ID": 306100761,
      "LNG": 127.14844268,
      "BRT_SUBID": "0",
      "ROUTE_ID": 305200617,
      "STOP_NAME": "전주시청.노송동시외버스정류소",
      "SERVICE_ID": 30761,
      "NODE_ID": 306100761,
      "STOP_ORD": 21,
      "LAT": 35.82471365
    },
    {
      "ROUTE_NAME": "350",
      "ROUTE_ORD": 22,
      "STOP_ID": 306100792,
      "LNG": 127.14637385,
      "BRT_SUBID": "0",
      "ROUTE_ID": 305200617,
      "STOP_NAME": "전주농협",
      "SERVICE_ID": 30792,
      "NODE_ID": 306100792,
      "STOP_ORD": 22,
      "LAT": 35.82651832
    },
    {
      "ROUTE_NAME": "350",
      "ROUTE_ORD": 23,
      "STOP_ID": 306100842,
      "LNG": 127.14299561,
      "BRT_SUBID": "0",
      "ROUTE_ID": 305200617,
      "STOP_NAME": "기린대로현대병원",
      "SERVICE_ID": 30842,
      "NODE_ID": 306100842,
      "STOP_ORD": 23,
      "LAT": 35.82930275
    },
    {
      "ROUTE_NAME": "350",
      "ROUTE_ORD": 24,
      "STOP_ID": 306100862,
      "LNG": 127.14025275,
      "BRT_SUBID": "0",
      "ROUTE_ID": 305200617,
      "STOP_NAME": "전주전자상가",
      "SERVICE_ID": 30862,
      "NODE_ID": 306100862,
      "STOP_ORD": 24,
      "LAT": 35.83141746
    },
    {
      "ROUTE_NAME": "350",
      "ROUTE_ORD": 25,
      "STOP_ID": 306100906,
      "LNG": 127.13783588,
      "BRT_SUBID": "0",
      "ROUTE_ID": 305200617,
      "STOP_NAME": "기린대로금암광장",
      "SERVICE_ID": 30906,
      "NODE_ID": 306100906,
      "STOP_ORD": 25,
      "LAT": 35.83345839
    },
    {
      "ROUTE_NAME": "350",
      "ROUTE_ORD": 26,
      "STOP_ID": 306100969,
      "LNG": 127.13363898,
      "BRT_SUBID": "0",
      "ROUTE_ID": 305200617,
      "STOP_NAME": "금암동주민센터",
      "SERVICE_ID": 30969,
      "NODE_ID": 306100969,
      "STOP_ORD": 26,
      "LAT": 35.83678745
    },
    {
      "ROUTE_NAME": "350",
      "ROUTE_ORD": 27,
      "STOP_ID": 306101004,
      "LNG": 127.131042,
      "BRT_SUBID": "0",
      "ROUTE_ID": 305200617,
      "STOP_NAME": "고속버스터미널입구.전북일보사",
      "SERVICE_ID": 31003,
      "NODE_ID": 306101004,
      "STOP_ORD": 27,
      "LAT": 35.838631
    },
    {
      "ROUTE_NAME": "350",
      "ROUTE_ORD": 28,
      "STOP_ID": 306101035,
      "LNG": 127.127164,
      "BRT_SUBID": "0",
      "ROUTE_ID": 305200617,
      "STOP_NAME": "전북대학교.소나무한의원앞",
      "SERVICE_ID": 31034,
      "NODE_ID": 306101035,
      "STOP_ORD": 28,
      "LAT": 35.841467
    },
    {
      "ROUTE_NAME": "350",
      "ROUTE_ORD": 29,
      "STOP_ID": 306101084,
      "LNG": 127.12136775,
      "BRT_SUBID": "0",
      "ROUTE_ID": 305200617,
      "STOP_NAME": "기린대로덕진공원",
      "SERVICE_ID": 31083,
      "NODE_ID": 306101084,
      "STOP_ORD": 29,
      "LAT": 35.84574561
    },
    {
      "ROUTE_NAME": "350",
      "ROUTE_ORD": 30,
      "STOP_ID": 306101113,
      "LNG": 127.11968893,
      "BRT_SUBID": "0",
      "ROUTE_ID": 305200617,
      "STOP_NAME": "도립국악원",
      "SERVICE_ID": 31112,
      "NODE_ID": 306101113,
      "STOP_ORD": 30,
      "LAT": 35.84934543
    },
    {
      "ROUTE_NAME": "350",
      "ROUTE_ORD": 31,
      "STOP_ID": 306101170,
      "LNG": 127.11979367,
      "BRT_SUBID": "0",
      "ROUTE_ID": 305200617,
      "STOP_NAME": "도립여성중고 롯데마트",
      "SERVICE_ID": 31169,
      "NODE_ID": 306101170,
      "STOP_ORD": 31,
      "LAT": 35.85361352
    },
    {
      "ROUTE_NAME": "350",
      "ROUTE_ORD": 32,
      "STOP_ID": 306101233,
      "LNG": 127.12077329,
      "BRT_SUBID": "0",
      "ROUTE_ID": 305200617,
      "STOP_NAME": "송천1동주민센터",
      "SERVICE_ID": 31232,
      "NODE_ID": 306101233,
      "STOP_ORD": 32,
      "LAT": 35.85701397
    },
    {
      "ROUTE_NAME": "350",
      "ROUTE_ORD": 33,
      "STOP_ID": 306101280,
      "LNG": 127.12156208,
      "BRT_SUBID": "0",
      "ROUTE_ID": 305200617,
      "STOP_NAME": "전라고",
      "SERVICE_ID": 31279,
      "NODE_ID": 306101280,
      "STOP_ORD": 33,
      "LAT": 35.86055764
    },
    {
      "ROUTE_NAME": "350",
      "ROUTE_ORD": 34,
      "STOP_ID": 306101333,
      "LNG": 127.12181954,
      "BRT_SUBID": "0",
      "ROUTE_ID": 305200617,
      "STOP_NAME": "송천동성원무지개아파트",
      "SERVICE_ID": 31332,
      "NODE_ID": 306101333,
      "STOP_ORD": 34,
      "LAT": 35.86543274
    },
    {
      "ROUTE_NAME": "350",
      "ROUTE_ORD": 35,
      "STOP_ID": 306032061,
      "LNG": 127.121639,
      "BRT_SUBID": "0",
      "ROUTE_ID": 305200617,
      "STOP_NAME": "송천역네거리",
      "SERVICE_ID": 32061,
      "NODE_ID": 306032061,
      "STOP_ORD": 35,
      "LAT": 35.867376
    },
    {
      "ROUTE_NAME": "350",
      "ROUTE_ORD": 36,
      "STOP_ID": 305032443,
      "LNG": 127.123253,
      "BRT_SUBID": "0",
      "ROUTE_ID": 305200617,
      "STOP_NAME": "이마트에코시티점",
      "SERVICE_ID": 36377,
      "NODE_ID": 305032443,
      "STOP_ORD": 36,
      "LAT": 35.872779
    },
    {
      "ROUTE_NAME": "350",
      "ROUTE_ORD": 37,
      "STOP_ID": 306101419,
      "LNG": 127.127346,
      "BRT_SUBID": "0",
      "ROUTE_ID": 305200617,
      "STOP_NAME": "송천정보학교",
      "SERVICE_ID": 31418,
      "NODE_ID": 306101419,
      "STOP_ORD": 37,
      "LAT": 35.876583
    },
    {
      "ROUTE_NAME": "350",
      "ROUTE_ORD": 38,
      "STOP_ID": 305032756,
      "LNG": 127.12809734,
      "BRT_SUBID": "0",
      "ROUTE_ID": 305200617,
      "STOP_NAME": "에코데시앙14블럭",
      "SERVICE_ID": 36690,
      "NODE_ID": 305032756,
      "STOP_ORD": 38,
      "LAT": 35.87968426
    },
    {
      "ROUTE_NAME": "350",
      "ROUTE_ORD": 39,
      "STOP_ID": 306101523,
      "LNG": 127.128752,
      "BRT_SUBID": "0",
      "ROUTE_ID": 305200617,
      "STOP_NAME": "백석제",
      "SERVICE_ID": 31522,
      "NODE_ID": 306101523,
      "STOP_ORD": 39,
      "LAT": 35.884006
    },
    {
      "ROUTE_NAME": "350",
      "ROUTE_ORD": 40,
      "STOP_ID": 305032801,
      "LNG": 127.12871336,
      "BRT_SUBID": "0",
      "ROUTE_ID": 305200617,
      "STOP_NAME": "전당네거리",
      "SERVICE_ID": 36735,
      "NODE_ID": 305032801,
      "STOP_ORD": 40,
      "LAT": 35.88739606
    },
    {
      "ROUTE_NAME": "350",
      "ROUTE_ORD": 41,
      "STOP_ID": 306101561,
      "LNG": 127.12777,
      "BRT_SUBID": "0",
      "ROUTE_ID": 305200617,
      "STOP_NAME": "백석마을",
      "SERVICE_ID": 31560,
      "NODE_ID": 306101561,
      "STOP_ORD": 41,
      "LAT": 35.88834
    },
    {
      "ROUTE_NAME": "350",
      "ROUTE_ORD": 42,
      "STOP_ID": 306101572,
      "LNG": 127.126209,
      "BRT_SUBID": "0",
      "ROUTE_ID": 305200617,
      "STOP_NAME": "전당리",
      "SERVICE_ID": 31571,
      "NODE_ID": 306101572,
      "STOP_ORD": 42,
      "LAT": 35.88983
    },
    {
      "ROUTE_NAME": "350",
      "ROUTE_ORD": 43,
      "STOP_ID": 306101567,
      "LNG": 127.12204822,
      "BRT_SUBID": "0",
      "ROUTE_ID": 305200617,
      "STOP_NAME": "진조마을입구",
      "SERVICE_ID": 31566,
      "NODE_ID": 306101567,
      "STOP_ORD": 43,
      "LAT": 35.88952252
    },
    {
      "ROUTE_NAME": "350",
      "ROUTE_ORD": 44,
      "STOP_ID": 306101543,
      "LNG": 127.11768,
      "BRT_SUBID": "0",
      "ROUTE_ID": 305200617,
      "STOP_NAME": "연봉마을입구",
      "SERVICE_ID": 31542,
      "NODE_ID": 306101543,
      "STOP_ORD": 44,
      "LAT": 35.885571
    },
    {
      "ROUTE_NAME": "350",
      "ROUTE_ORD": 45,
      "STOP_ID": 306101534,
      "LNG": 127.11535737,
      "BRT_SUBID": "0",
      "ROUTE_ID": 305200617,
      "STOP_NAME": "월곡마을",
      "SERVICE_ID": 31533,
      "NODE_ID": 306101534,
      "STOP_ORD": 45,
      "LAT": 35.88451513
    },
    {
      "ROUTE_NAME": "350",
      "ROUTE_ORD": 46,
      "STOP_ID": 306101517,
      "LNG": 127.109354,
      "BRT_SUBID": "0",
      "ROUTE_ID": 305200617,
      "STOP_NAME": "미산초교",
      "SERVICE_ID": 31516,
      "NODE_ID": 306101517,
      "STOP_ORD": 46,
      "LAT": 35.883346
    },
    {
      "ROUTE_NAME": "350",
      "ROUTE_ORD": 47,
      "STOP_ID": 306101564,
      "LNG": 127.1048018,
      "BRT_SUBID": "0",
      "ROUTE_ID": 305200617,
      "STOP_NAME": "주정마을",
      "SERVICE_ID": 31563,
      "NODE_ID": 306101564,
      "STOP_ORD": 47,
      "LAT": 35.8894721
    },
    {
      "ROUTE_NAME": "350",
      "ROUTE_ORD": 48,
      "STOP_ID": 306101602,
      "LNG": 127.10247,
      "BRT_SUBID": "0",
      "ROUTE_ID": 305200617,
      "STOP_NAME": "신미산",
      "SERVICE_ID": 31601,
      "NODE_ID": 306101602,
      "STOP_ORD": 48,
      "LAT": 35.8926876
    },
    {
      "ROUTE_NAME": "350",
      "ROUTE_ORD": 49,
      "STOP_ID": 312101621,
      "LNG": 127.09837918,
      "BRT_SUBID": "0",
      "ROUTE_ID": 305200617,
      "STOP_NAME": "하리",
      "SERVICE_ID": 31620,
      "NODE_ID": 312101621,
      "STOP_ORD": 49,
      "LAT": 35.89873502
    },
    {
      "ROUTE_NAME": "350",
      "ROUTE_ORD": 50,
      "STOP_ID": 312101641,
      "LNG": 127.09486221,
      "BRT_SUBID": "0",
      "ROUTE_ID": 305200617,
      "STOP_NAME": "신복리",
      "SERVICE_ID": 31640,
      "NODE_ID": 312101641,
      "STOP_ORD": 50,
      "LAT": 35.9047726
    },
    {
      "ROUTE_NAME": "350",
      "ROUTE_ORD": 51,
      "STOP_ID": 312101700,
      "LNG": 127.09206255,
      "BRT_SUBID": "0",
      "ROUTE_ID": 305200617,
      "STOP_NAME": "원신금",
      "SERVICE_ID": 31699,
      "NODE_ID": 312101700,
      "STOP_ORD": 51,
      "LAT": 35.90987916
    },
    {
      "ROUTE_NAME": "350",
      "ROUTE_ORD": 52,
      "STOP_ID": 312101716,
      "LNG": 127.08383612,
      "BRT_SUBID": "0",
      "ROUTE_ID": 305200617,
      "STOP_NAME": "완주군청소년수련관",
      "SERVICE_ID": 31715,
      "NODE_ID": 312101716,
      "STOP_ORD": 52,
      "LAT": 35.91804306
    },
    {
      "ROUTE_NAME": "350",
      "ROUTE_ORD": 53,
      "STOP_ID": 312101710,
      "LNG": 127.08240242,
      "BRT_SUBID": "0",
      "ROUTE_ID": 305200617,
      "STOP_NAME": "삼례동원아파트",
      "SERVICE_ID": 31709,
      "NODE_ID": 312101710,
      "STOP_ORD": 53,
      "LAT": 35.91710895
    },
    {
      "ROUTE_NAME": "350",
      "ROUTE_ORD": 54,
      "STOP_ID": 312101703,
      "LNG": 127.08046972,
      "BRT_SUBID": "0",
      "ROUTE_ID": 305200617,
      "STOP_NAME": "삼례대영아파트",
      "SERVICE_ID": 31702,
      "NODE_ID": 312101703,
      "STOP_ORD": 54,
      "LAT": 35.91580375
    },
    {
      "ROUTE_NAME": "350",
      "ROUTE_ORD": 55,
      "STOP_ID": 312032794,
      "LNG": 127.0775301,
      "BRT_SUBID": "0",
      "ROUTE_ID": 305200617,
      "STOP_NAME": "삼례읍행정복지센터.삼례중입구",
      "SERVICE_ID": 36263,
      "NODE_ID": 312032794,
      "STOP_ORD": 55,
      "LAT": 35.9138145
    },
    {
      "ROUTE_NAME": "350",
      "ROUTE_ORD": 56,
      "STOP_ID": 312101681,
      "LNG": 127.0748464,
      "BRT_SUBID": "0",
      "ROUTE_ID": 305200617,
      "STOP_NAME": "삼례농협",
      "SERVICE_ID": 31680,
      "NODE_ID": 312101681,
      "STOP_ORD": 56,
      "LAT": 35.9120424
    },
    {
      "ROUTE_NAME": "350",
      "ROUTE_ORD": 57,
      "STOP_ID": 312101673,
      "LNG": 127.075066,
      "BRT_SUBID": "0",
      "ROUTE_ID": 305200617,
      "STOP_NAME": "삼례터미널",
      "SERVICE_ID": 31672,
      "NODE_ID": 312101673,
      "STOP_ORD": 57,
      "LAT": 35.910144
    }
  ]
}