{
  "resultList": [
    {
      "ROUTE_NAME": "3002",
      "ROUTE_ORD": 1,
      "STOP_ID": 305032325,
      "LNG": 127.0795712,
      "BRT_SUBID": "0",
      "ROUTE_ID": 305300263,
      "STOP_NAME": "삼천동종점",
      "SERVICE_ID": 36217,
      "NODE_ID": 305032325,
      "STOP_ORD": 1,
      "LAT": 35.8016922
    },
    {
      "ROUTE_NAME": "3002",
      "ROUTE_ORD": 2,
      "STOP_ID": 312032092,
      "LNG": 127.079737,
      "BRT_SUBID": "0",
      "ROUTE_ID": 305300263,
      "STOP_NAME": "정여립로안산마을",
      "SERVICE_ID": 32092,
      "NODE_ID": 312032092,
      "STOP_ORD": 2,
      "LAT": 35.801532
    },
    {
      "ROUTE_NAME": "3002",
      "ROUTE_ORD": 3,
      "STOP_ID": 312032090,
      "LNG": 127.0829305,
      "BRT_SUBID": "0",
      "ROUTE_ID": 305300263,
      "STOP_NAME": "정여립로 신흥리",
      "SERVICE_ID": 32090,
      "NODE_ID": 312032090,
      "STOP_ORD": 3,
      "LAT": 35.7982481
    },
    {
      "ROUTE_NAME": "3002",
      "ROUTE_ORD": 4,
      "STOP_ID": 305100389,
      "LNG": 127.08765285,
      "BRT_SUBID": "0",
      "ROUTE_ID": 305300263,
      "STOP_NAME": "삼산리입구",
      "SERVICE_ID": 30389,
      "NODE_ID": 305100389,
      "STOP_ORD": 4,
      "LAT": 35.79681009
    },
    {
      "ROUTE_NAME": "3002",
      "ROUTE_ORD": 5,
      "STOP_ID": 305100424,
      "LNG": 127.09120463,
      "BRT_SUBID": "0",
      "ROUTE_ID": 305300263,
      "STOP_NAME": "완산고입구",
      "SERVICE_ID": 30424,
      "NODE_ID": 305100424,
      "STOP_ORD": 5,
      "LAT": 35.79891077
    },
    {
      "ROUTE_NAME": "3002",
      "ROUTE_ORD": 6,
      "STOP_ID": 305100441,
      "LNG": 127.093325,
      "BRT_SUBID": "0",
      "ROUTE_ID": 305300263,
      "STOP_NAME": "전주박물관전주역사박물관",
      "SERVICE_ID": 30441,
      "NODE_ID": 305100441,
      "STOP_ORD": 6,
      "LAT": 35.799974
    },
    {
      "ROUTE_NAME": "3002",
      "ROUTE_ORD": 7,
      "STOP_ID": 305100448,
      "LNG": 127.096201,
      "BRT_SUBID": "0",
      "ROUTE_ID": 305300263,
      "STOP_NAME": "쑥고개로.용산마을입구",
      "SERVICE_ID": 30448,
      "NODE_ID": 305100448,
      "STOP_ORD": 7,
      "LAT": 35.801036
    },
    {
      "ROUTE_NAME": "3002",
      "ROUTE_ORD": 8,
      "STOP_ID": 305100474,
      "LNG": 127.097976,
      "BRT_SUBID": "0",
      "ROUTE_ID": 305300263,
      "STOP_NAME": "효자4동주민센터",
      "SERVICE_ID": 30474,
      "NODE_ID": 305100474,
      "STOP_ORD": 8,
      "LAT": 35.80349
    },
    {
      "ROUTE_NAME": "3002",
      "ROUTE_ORD": 9,
      "STOP_ID": 305032463,
      "LNG": 127.0957418,
      "BRT_SUBID": "0",
      "ROUTE_ID": 305300263,
      "STOP_NAME": "비전대학교입구",
      "SERVICE_ID": 36397,
      "NODE_ID": 305032463,
      "STOP_ORD": 9,
      "LAT": 35.806547
    },
    {
      "ROUTE_NAME": "3002",
      "ROUTE_ORD": 10,
      "STOP_ID": 305032180,
      "LNG": 127.094141,
      "BRT_SUBID": "0",
      "ROUTE_ID": 305300263,
      "STOP_NAME": "동암차돌학교",
      "SERVICE_ID": 32180,
      "NODE_ID": 305032180,
      "STOP_ORD": 10,
      "LAT": 35.810855
    },
    {
      "ROUTE_NAME": "3002",
      "ROUTE_ORD": 11,
      "STOP_ID": 305032182,
      "LNG": 127.0942,
      "BRT_SUBID": "0",
      "ROUTE_ID": 305300263,
      "STOP_NAME": "전주대학교정문",
      "SERVICE_ID": 32182,
      "NODE_ID": 305032182,
      "STOP_ORD": 11,
      "LAT": 35.812484
    },
    {
      "ROUTE_NAME": "3002",
      "ROUTE_ORD": 12,
      "STOP_ID": 305100584,
      "LNG": 127.09807381,
      "BRT_SUBID": "0",
      "ROUTE_ID": 305300263,
      "STOP_NAME": "호남제일고",
      "SERVICE_ID": 30584,
      "NODE_ID": 305100584,
      "STOP_ORD": 12,
      "LAT": 35.81348304
    },
    {
      "ROUTE_NAME": "3002",
      "ROUTE_ORD": 13,
      "STOP_ID": 305100637,
      "LNG": 127.106093,
      "BRT_SUBID": "0",
      "ROUTE_ID": 305300263,
      "STOP_NAME": "전주우체국",
      "SERVICE_ID": 30637,
      "NODE_ID": 305100637,
      "STOP_ORD": 13,
      "LAT": 35.814479
    },
    {
      "ROUTE_NAME": "3002",
      "ROUTE_ORD": 14,
      "STOP_ID": 305032364,
      "LNG": 127.106248,
      "BRT_SUBID": "0",
      "ROUTE_ID": 305300263,
      "STOP_NAME": "CGV서전주.전북중장년내일센터",
      "SERVICE_ID": 36298,
      "NODE_ID": 305032364,
      "STOP_ORD": 14,
      "LAT": 35.8166
    },
    {
      "ROUTE_NAME": "3002",
      "ROUTE_ORD": 15,
      "STOP_ID": 305100712,
      "LNG": 127.106114,
      "BRT_SUBID": "0",
      "ROUTE_ID": 305300263,
      "STOP_NAME": "홍산로전북도청",
      "SERVICE_ID": 30712,
      "NODE_ID": 305100712,
      "STOP_ORD": 15,
      "LAT": 35.821791
    },
    {
      "ROUTE_NAME": "3002",
      "ROUTE_ORD": 16,
      "STOP_ID": 305100740,
      "LNG": 127.106093,
      "BRT_SUBID": "0",
      "ROUTE_ID": 305300263,
      "STOP_NAME": "홍산로 경찰청",
      "SERVICE_ID": 30740,
      "NODE_ID": 305100740,
      "STOP_ORD": 16,
      "LAT": 35.823922
    },
    {
      "ROUTE_NAME": "3002",
      "ROUTE_ORD": 17,
      "STOP_ID": 305100769,
      "LNG": 127.10836797,
      "BRT_SUBID": "0",
      "ROUTE_ID": 305300263,
      "STOP_NAME": "호반베르디움아파트",
      "SERVICE_ID": 30769,
      "NODE_ID": 305100769,
      "STOP_ORD": 17,
      "LAT": 35.8252457
    },
    {
      "ROUTE_NAME": "3002",
      "ROUTE_ORD": 18,
      "STOP_ID": 305100783,
      "LNG": 127.11580966,
      "BRT_SUBID": "0",
      "ROUTE_ID": 305300263,
      "STOP_NAME": "서신로마전교",
      "SERVICE_ID": 30783,
      "NODE_ID": 305100783,
      "STOP_ORD": 18,
      "LAT": 35.82601545
    },
    {
      "ROUTE_NAME": "3002",
      "ROUTE_ORD": 19,
      "STOP_ID": 305100813,
      "LNG": 127.115947,
      "BRT_SUBID": "0",
      "ROUTE_ID": 305300263,
      "STOP_NAME": "서신신협",
      "SERVICE_ID": 30813,
      "NODE_ID": 305100813,
      "STOP_ORD": 19,
      "LAT": 35.827569
    },
    {
      "ROUTE_NAME": "3002",
      "ROUTE_ORD": 20,
      "STOP_ID": 305100860,
      "LNG": 127.115958,
      "BRT_SUBID": "0",
      "ROUTE_ID": 305300263,
      "STOP_NAME": "서신동주민센터",
      "SERVICE_ID": 30860,
      "NODE_ID": 305100860,
      "STOP_ORD": 20,
      "LAT": 35.830831
    },
    {
      "ROUTE_NAME": "3002",
      "ROUTE_ORD": 21,
      "STOP_ID": 305100919,
      "LNG": 127.11538568,
      "BRT_SUBID": "0",
      "ROUTE_ID": 305300263,
      "STOP_NAME": "서신중흥아파트",
      "SERVICE_ID": 30919,
      "NODE_ID": 305100919,
      "STOP_ORD": 21,
      "LAT": 35.83408798
    },
    {
      "ROUTE_NAME": "3002",
      "ROUTE_ORD": 22,
      "STOP_ID": 305100920,
      "LNG": 127.111001,
      "BRT_SUBID": "0",
      "ROUTE_ID": 305300263,
      "STOP_NAME": "서신광진아파트",
      "SERVICE_ID": 30920,
      "NODE_ID": 305100920,
      "STOP_ORD": 22,
      "LAT": 35.834017
    },
    {
      "ROUTE_NAME": "3002",
      "ROUTE_ORD": 23,
      "STOP_ID": 305101003,
      "LNG": 127.107927,
      "BRT_SUBID": "0",
      "ROUTE_ID": 305300263,
      "STOP_NAME": "홍산로이편한세상",
      "SERVICE_ID": 31002,
      "NODE_ID": 305101003,
      "STOP_ORD": 23,
      "LAT": 35.838523
    },
    {
      "ROUTE_NAME": "3002",
      "ROUTE_ORD": 24,
      "STOP_ID": 306101022,
      "LNG": 127.111248,
      "BRT_SUBID": "0",
      "ROUTE_ID": 305300263,
      "STOP_NAME": "가련산로하가영무예다음",
      "SERVICE_ID": 31021,
      "NODE_ID": 306101022,
      "STOP_ORD": 24,
      "LAT": 35.841532
    },
    {
      "ROUTE_NAME": "3002",
      "ROUTE_ORD": 25,
      "STOP_ID": 306101078,
      "LNG": 127.11554857,
      "BRT_SUBID": "0",
      "ROUTE_ID": 305300263,
      "STOP_NAME": "가련산로.원대한방병원",
      "SERVICE_ID": 31077,
      "NODE_ID": 306101078,
      "STOP_ORD": 25,
      "LAT": 35.84538482
    },
    {
      "ROUTE_NAME": "3002",
      "ROUTE_ORD": 26,
      "STOP_ID": 306101113,
      "LNG": 127.11968893,
      "BRT_SUBID": "0",
      "ROUTE_ID": 305300263,
      "STOP_NAME": "도립국악원",
      "SERVICE_ID": 31112,
      "NODE_ID": 306101113,
      "STOP_ORD": 26,
      "LAT": 35.84934543
    },
    {
      "ROUTE_NAME": "3002",
      "ROUTE_ORD": 27,
      "STOP_ID": 306101170,
      "LNG": 127.11979367,
      "BRT_SUBID": "0",
      "ROUTE_ID": 305300263,
      "STOP_NAME": "도립여성중고 롯데마트",
      "SERVICE_ID": 31169,
      "NODE_ID": 306101170,
      "STOP_ORD": 27,
      "LAT": 35.85361352
    },
    {
      "ROUTE_NAME": "3002",
      "ROUTE_ORD": 28,
      "STOP_ID": 306101233,
      "LNG": 127.12077329,
      "BRT_SUBID": "0",
      "ROUTE_ID": 305300263,
      "STOP_NAME": "송천1동주민센터",
      "SERVICE_ID": 31232,
      "NODE_ID": 306101233,
      "STOP_ORD": 28,
      "LAT": 35.85701397
    },
    {
      "ROUTE_NAME": "3002",
      "ROUTE_ORD": 29,
      "STOP_ID": 306101280,
      "LNG": 127.12156208,
      "BRT_SUBID": "0",
      "ROUTE_ID": 305300263,
      "STOP_NAME": "전라고",
      "SERVICE_ID": 31279,
      "NODE_ID": 306101280,
      "STOP_ORD": 29,
      "LAT": 35.86055764
    },
    {
      "ROUTE_NAME": "3002",
      "ROUTE_ORD": 30,
      "STOP_ID": 306101307,
      "LNG": 127.12369476,
      "BRT_SUBID": "0",
      "ROUTE_ID": 305300263,
      "STOP_NAME": "송북초교",
      "SERVICE_ID": 31306,
      "NODE_ID": 306101307,
      "STOP_ORD": 30,
      "LAT": 35.86363645
    },
    {
      "ROUTE_NAME": "3002",
      "ROUTE_ORD": 31,
      "STOP_ID": 306101320,
      "LNG": 127.12708911,
      "BRT_SUBID": "0",
      "ROUTE_ID": 305300263,
      "STOP_NAME": "송천주공2단지",
      "SERVICE_ID": 31319,
      "NODE_ID": 306101320,
      "STOP_ORD": 31,
      "LAT": 35.86436962
    },
    {
      "ROUTE_NAME": "3002",
      "ROUTE_ORD": 32,
      "STOP_ID": 306101344,
      "LNG": 127.12733436,
      "BRT_SUBID": "0",
      "ROUTE_ID": 305300263,
      "STOP_NAME": "송천현대아파트",
      "SERVICE_ID": 31343,
      "NODE_ID": 306101344,
      "STOP_ORD": 32,
      "LAT": 35.8662239
    },
    {
      "ROUTE_NAME": "3002",
      "ROUTE_ORD": 33,
      "STOP_ID": 306101363,
      "LNG": 127.127379,
      "BRT_SUBID": "0",
      "ROUTE_ID": 305300263,
      "STOP_NAME": "송천주공아파트",
      "SERVICE_ID": 31362,
      "NODE_ID": 306101363,
      "STOP_ORD": 33,
      "LAT": 35.867602
    },
    {
      "ROUTE_NAME": "3002",
      "ROUTE_ORD": 34,
      "STOP_ID": 305032430,
      "LNG": 127.1277186,
      "BRT_SUBID": "0",
      "ROUTE_ID": 305300263,
      "STOP_NAME": "에코시티상가",
      "SERVICE_ID": 36364,
      "NODE_ID": 305032430,
      "STOP_ORD": 34,
      "LAT": 35.8721074
    },
    {
      "ROUTE_NAME": "3002",
      "ROUTE_ORD": 35,
      "STOP_ID": 305032397,
      "LNG": 127.130066,
      "BRT_SUBID": "0",
      "ROUTE_ID": 305300263,
      "STOP_NAME": "에코더샵1차",
      "SERVICE_ID": 36331,
      "NODE_ID": 305032397,
      "STOP_ORD": 35,
      "LAT": 35.872757
    },
    {
      "ROUTE_NAME": "3002",
      "ROUTE_ORD": 36,
      "STOP_ID": 305032398,
      "LNG": 127.1339642,
      "BRT_SUBID": "0",
      "ROUTE_ID": 305300263,
      "STOP_NAME": "에코휴먼빌",
      "SERVICE_ID": 36332,
      "NODE_ID": 305032398,
      "STOP_ORD": 36,
      "LAT": 35.8725593
    },
    {
      "ROUTE_NAME": "3002",
      "ROUTE_ORD": 37,
      "STOP_ID": 305032400,
      "LNG": 127.135157,
      "BRT_SUBID": "0",
      "ROUTE_ID": 305300263,
      "STOP_NAME": "자연초등학교",
      "SERVICE_ID": 36334,
      "NODE_ID": 305032400,
      "STOP_ORD": 37,
      "LAT": 35.876991
    },
    {
      "ROUTE_NAME": "3002",
      "ROUTE_ORD": 38,
      "STOP_ID": 305032528,
      "LNG": 127.133709,
      "BRT_SUBID": "0",
      "ROUTE_ID": 305300263,
      "STOP_NAME": "에코더샵2차",
      "SERVICE_ID": 36462,
      "NODE_ID": 305032528,
      "STOP_ORD": 38,
      "LAT": 35.878247
    },
    {
      "ROUTE_NAME": "3002",
      "ROUTE_ORD": 39,
      "STOP_ID": 305032401,
      "LNG": 127.130474,
      "BRT_SUBID": "0",
      "ROUTE_ID": 305300263,
      "STOP_NAME": "에코스위첸",
      "SERVICE_ID": 36335,
      "NODE_ID": 305032401,
      "STOP_ORD": 39,
      "LAT": 35.879291
    },
    {
      "ROUTE_NAME": "3002",
      "ROUTE_ORD": 40,
      "STOP_ID": 306101413,
      "LNG": 127.125978,
      "BRT_SUBID": "0",
      "ROUTE_ID": 305300263,
      "STOP_NAME": "송천정보학교",
      "SERVICE_ID": 31412,
      "NODE_ID": 306101413,
      "STOP_ORD": 40,
      "LAT": 35.875561
    },
    {
      "ROUTE_NAME": "3002",
      "ROUTE_ORD": 41,
      "STOP_ID": 305032442,
      "LNG": 127.123892,
      "BRT_SUBID": "0",
      "ROUTE_ID": 305300263,
      "STOP_NAME": "이마트에코시티점",
      "SERVICE_ID": 36376,
      "NODE_ID": 305032442,
      "STOP_ORD": 41,
      "LAT": 35.87374
    },
    {
      "ROUTE_NAME": "3002",
      "ROUTE_ORD": 42,
      "STOP_ID": 306032307,
      "LNG": 127.1184873,
      "BRT_SUBID": "0",
      "ROUTE_ID": 305300263,
      "STOP_NAME": "동부대로 농수산시장",
      "SERVICE_ID": 36226,
      "NODE_ID": 306032307,
      "STOP_ORD": 42,
      "LAT": 35.8699127
    },
    {
      "ROUTE_NAME": "3002",
      "ROUTE_ORD": 43,
      "STOP_ID": 306032306,
      "LNG": 127.114241,
      "BRT_SUBID": "0",
      "ROUTE_ID": 305300263,
      "STOP_NAME": "메가월드",
      "SERVICE_ID": 36211,
      "NODE_ID": 306032306,
      "STOP_ORD": 43,
      "LAT": 35.869941
    },
    {
      "ROUTE_NAME": "3002",
      "ROUTE_ORD": 44,
      "STOP_ID": 306032304,
      "LNG": 127.109252,
      "BRT_SUBID": "0",
      "ROUTE_ID": 305300263,
      "STOP_NAME": "송천동종점",
      "SERVICE_ID": 36208,
      "NODE_ID": 306032304,
      "STOP_ORD": 44,
      "LAT": 35.8697397
    }
  ]
}